# 
# Header Description:
# 
# Version: v2.0.0.1 Platform: 8.0.0 Manufacturer: Xiaomi Model: MIX 2
# 
# Raw,ElapsedRealtimeMillis,TimeNanos,LeapSecond,TimeUncertaintyNanos,FullBiasNanos,BiasNanos,BiasUncertaintyNanos,DriftNanosPerSecond,DriftUncertaintyNanosPerSecond,HardwareClockDiscontinuityCount,Svid,TimeOffsetNanos,State,ReceivedSvTimeNanos,ReceivedSvTimeUncertaintyNanos,Cn0DbHz,PseudorangeRateMetersPerSecond,PseudorangeRateUncertaintyMetersPerSecond,AccumulatedDeltaRangeState,AccumulatedDeltaRangeMeters,AccumulatedDeltaRangeUncertaintyMeters,CarrierFrequencyHz,CarrierCycles,CarrierPhase,CarrierPhaseUncertainty,MultipathIndicator,SnrInDb,ConstellationType,AgcDb,CarrierFrequencyHz,AngleZ,AngleX,AngleY
# 
# Fix,Provider,Latitude,Longitude,Altitude,Speed,Accuracy,SpeedAccuracy,BearingAccuracy,TimeInMs
# 
# Nav,Svid,Type,Status,MessageId,Sub-messageId,Data(Bytes)
# 
Raw,945990584,8200833000000,,,-1260194483643106560,0.0,4686.153959482908,-13.671874434117798,38.727445617015576,2778,15,0.0,15,404284396570776,6,40.8,578.7877197265625,0.534500002861023,0,0.0,0.0,,,,,0,,1,,,64.390625,-83.828125,-5.953125
Raw,945991625,8201793000000,,,-1260194483643106816,0.0,92.91162859881297,-22.597321540719655,17.836906850088532,2778,8,0.0,15,404285351452624,424,21.6,78.16312408447266,1.3279999494552612,0,0.0,0.0,,,,,0,,1,,,234.04688,-78.3125,-8.46875
Raw,945991626,8201793000000,,,-1260194483643106816,0.0,92.91162859881297,-22.597321540719655,17.836906850088532,2778,10,0.0,15,404285365780789,12,32.7,-338.827392578125,0.4309999942779541,0,0.0,0.0,,,,,0,,1,,,234.04688,-78.3125,-8.46875
Raw,945991626,8201793000000,,,-1260194483643106816,0.0,92.91162859881297,-22.597321540719655,17.836906850088532,2778,12,0.0,15,404285352776440,649,19.0,-518.0745239257812,1.5394999980926514,0,0.0,0.0,,,,,0,,1,,,234.04688,-78.3125,-8.46875
Raw,945991627,8201793000000,,,-1260194483643106816,0.0,92.91162859881297,-22.597321540719655,17.836906850088532,2778,14,0.0,15,404285355010946,563,19.7,-503.9356994628906,1.4639999866485596,0,0.0,0.0,,,,,0,,1,,,234.04688,-78.3125,-8.46875
Raw,945991627,8201793000000,,,-1260194483643106816,0.0,92.91162859881297,-22.597321540719655,17.836906850088532,2778,15,0.0,15,404285356568927,5,41.1,579.0923461914062,0.013100000098347664,0,0.0,0.0,,,,,0,,1,,,234.04688,-78.3125,-8.46875
Raw,945991628,8201793000000,,,-1260194483643106816,0.0,92.91162859881297,-22.597321540719655,17.836906850088532,2778,20,0.0,15,404285369384927,24,25.4,-11.217811584472656,0.7050000429153442,0,0.0,0.0,,,,,0,,1,,,234.04688,-78.3125,-8.46875
Raw,945991628,8201793000000,,,-1260194483643106816,0.0,92.91162859881297,-22.597321540719655,17.836906850088532,2778,21,0.0,15,404285363571914,563,19.6,398.3893127441406,1.4459999799728394,0,0.0,0.0,,,,,0,,1,,,234.04688,-78.3125,-8.46875
Raw,945991629,8201793000000,,,-1260194483643106816,0.0,92.91162859881297,-22.597321540719655,17.836906850088532,2778,24,0.0,15,404285366354268,13,31.3,214.46096801757812,0.4794999957084656,0,0.0,0.0,,,,,0,,1,,,234.04688,-78.3125,-8.46875
Raw,945991629,8201793000000,,,-1260194483643106816,0.0,92.91162859881297,-22.597321540719655,17.836906850088532,2778,27,0.0,15,404285353156139,25,25.8,342.3002624511719,1.121000051498413,0,0.0,0.0,,,,,0,,1,,,234.04688,-78.3125,-8.46875
Raw,945991630,8201793000000,,,-1260194483643106816,0.0,92.91162859881297,-22.597321540719655,17.836906850088532,2778,32,0.0,15,404285362210350,19,27.4,-395.4873352050781,0.6255000233650208,0,0.0,0.0,,,,,0,,1,,,234.04688,-78.3125,-8.46875
Raw,945992601,8202793000000,,,-1260194483643106816,0.0,75.69612353108823,-21.571170154719603,18.01273344415317,2778,8,0.0,15,404286351452383,493,20.6,78.20118713378906,2.138000011444092,0,0.0,0.0,,,,,0,,1,,,237.21875,-82.265625,0.09375
Raw,945992602,8202793000000,,,-1260194483643106816,0.0,75.69612353108823,-21.571170154719603,18.01273344415317,2778,10,0.0,15,404286365781943,11,33.5,-336.4365539550781,0.030400000512599945,0,0.0,0.0,,,,,0,,1,,,237.21875,-82.265625,0.09375
Raw,945992602,8202793000000,,,-1260194483643106816,0.0,75.69612353108823,-21.571170154719603,18.01273344415317,2778,12,0.0,15,404286352778247,653,19.3,-517.7224731445312,2.2894999980926514,0,0.0,0.0,,,,,0,,1,,,237.21875,-82.265625,0.09375
Raw,945992603,8202793000000,,,-1260194483643106816,0.0,75.69612353108823,-21.571170154719603,18.01273344415317,2778,14,0.0,15,404286355012520,653,19.4,-503.469482421875,2.2940001487731934,0,0.0,0.0,,,,,0,,1,,,237.21875,-82.265625,0.09375
Raw,945992603,8202793000000,,,-1260194483643106816,0.0,75.69612353108823,-21.571170154719603,18.01273344415317,2778,15,0.0,15,404286356566998,6,38.2,581.29345703125,0.04410000145435333,0,0.0,0.0,,,,,0,,1,,,237.21875,-82.265625,0.09375
Raw,945992604,8202793000000,,,-1260194483643106816,0.0,75.69612353108823,-21.571170154719603,18.01273344415317,2778,20,0.0,15,404286369384908,19,27.8,-8.794801712036133,0.05480000376701355,0,0.0,0.0,,,,,0,,1,,,237.21875,-82.265625,0.09375
Raw,945992604,8202793000000,,,-1260194483643106816,0.0,75.69612353108823,-21.571170154719603,18.01273344415317,2778,24,0.0,15,404286366353516,13,31.7,217.07199096679688,0.03420000150799751,0,0.0,0.0,,,,,0,,1,,,237.21875,-82.265625,0.09375
Raw,945992605,8202793000000,,,-1260194483643106816,0.0,75.69612353108823,-21.571170154719603,18.01273344415317,2778,27,0.0,15,404286353154958,71,17.2,343.0804748535156,1.4259999990463257,0,0.0,0.0,,,,,0,,1,,,237.21875,-82.265625,0.09375
Raw,945992605,8202793000000,,,-1260194483643106816,0.0,75.69612353108823,-21.571170154719603,18.01273344415317,2778,32,0.0,15,404286362211669,19,27.5,-393.1009216308594,0.04430000111460686,0,0.0,0.0,,,,,0,,1,,,237.21875,-82.265625,0.09375
Raw,945993624,8203793000000,,,-1260194483643106816,0.0,63.129271438810974,-15.15424544285233,13.072657325198746,2778,8,0.0,15,404287351452091,661,19.4,79.19071197509766,3.0380001068115234,0,0.0,0.0,,,,,0,,1,,,287.28125,-80.484375,-8.578125
Raw,945993625,8203793000000,,,-1260194483643106816,0.0,63.129271438810974,-15.15424544285233,13.072657325198746,2778,10,0.0,15,404287365783087,12,32.2,-334.4902648925781,0.03140000253915787,0,0.0,0.0,,,,,0,,1,,,287.28125,-80.484375,-8.578125
Raw,945993625,8203793000000,,,-1260194483643106816,0.0,63.129271438810974,-15.15424544285233,13.072657325198746,2778,12,0.0,15,404287352779967,760,17.7,-517.47509765625,3.119499921798706,0,0.0,0.0,,,,,0,,1,,,287.28125,-80.484375,-8.578125
Raw,945993626,8203793000000,,,-1260194483643106816,0.0,63.129271438810974,-15.15424544285233,13.072657325198746,2778,14,0.0,15,404287355014122,760,18.4,-502.71783447265625,3.124000072479248,0,0.0,0.0,,,,,0,,1,,,287.28125,-80.484375,-8.578125
Raw,945993626,8203793000000,,,-1260194483643106816,0.0,63.129271438810974,-15.15424544285233,13.072657325198746,2778,15,0.0,15,404287356565056,9,35.2,583.4503173828125,0.04560000076889992,0,0.0,0.0,,,,,0,,1,,,287.28125,-80.484375,-8.578125
Raw,945993627,8203793000000,,,-1260194483643106816,0.0,63.129271438810974,-15.15424544285233,13.072657325198746,2778,20,0.0,15,404287369384910,16,29.5,-6.644051551818848,0.04020000249147415,0,0.0,0.0,,,,,0,,1,,,287.28125,-80.484375,-8.578125
Raw,945993627,8203793000000,,,-1260194483643106816,0.0,63.129271438810974,-15.15424544285233,13.072657325198746,2778,21,0.0,15,404287363569507,367,23.3,403.9268798828125,0.9710000157356262,0,0.0,0.0,,,,,0,,1,,,287.28125,-80.484375,-8.578125
Raw,945993628,8203793000000,,,-1260194483643106816,0.0,63.129271438810974,-15.15424544285233,13.072657325198746,2778,24,0.0,15,404287366352797,9,35.6,219.32843017578125,0.03060000203549862,0,0.0,0.0,,,,,0,,1,,,287.28125,-80.484375,-8.578125
Raw,945993628,8203793000000,,,-1260194483643106816,0.0,63.129271438810974,-15.15424544285233,13.072657325198746,2778,27,0.0,15,404287353153555,61,18.9,346.5723571777344,1.0160000324249268,0,0.0,0.0,,,,,0,,1,,,287.28125,-80.484375,-8.578125
Raw,945993629,8203793000000,,,-1260194483643106816,0.0,63.129271438810974,-15.15424544285233,13.072657325198746,2778,32,0.0,15,404287362213046,31,23.7,-390.387451171875,0.6694999933242798,0,0.0,0.0,,,,,0,,1,,,287.28125,-80.484375,-8.578125
Raw,945994625,8204793000000,,,-1260194483643106816,0.0,60.33876707078889,-8.791018749230457,13.92535204788713,2778,8,0.0,15,404288351451844,670,18.5,79.30488586425781,3.7880001068115234,0,0.0,0.0,,,,,0,,1,,,330.70312,-81.5625,-8.265625
Raw,945994626,8204793000000,,,-1260194483643106816,0.0,60.33876707078889,-8.791018749230457,13.92535204788713,2778,10,0.0,15,404288365784189,17,28.3,-334.7358703613281,0.040800001472234726,0,0.0,0.0,,,,,0,,1,,,330.70312,-81.5625,-8.265625
Raw,945994626,8204793000000,,,-1260194483643106816,0.0,60.33876707078889,-8.791018749230457,13.92535204788713,2778,12,0.0,15,404288352781699,884,17.4,-517.3038330078125,3.9595000743865967,0,0.0,0.0,,,,,0,,1,,,330.70312,-81.5625,-8.265625
Raw,945994627,8204793000000,,,-1260194483643106816,0.0,60.33876707078889,-8.791018749230457,13.92535204788713,2778,14,0.0,15,404288355015719,770,17.8,-501.9757080078125,3.874000072479248,0,0.0,0.0,,,,,0,,1,,,330.70312,-81.5625,-8.265625
Raw,945994627,8204793000000,,,-1260194483643106816,0.0,60.33876707078889,-8.791018749230457,13.92535204788713,2778,15,0.0,15,404288356563095,6,38.9,582.9127807617188,0.04410000145435333,0,0.0,0.0,,,,,0,,1,,,330.70312,-81.5625,-8.265625
Raw,945994628,8204793000000,,,-1260194483643106816,0.0,60.33876707078889,-8.791018749230457,13.92535204788713,2778,20,0.0,15,404288369384937,21,26.3,-7.026697635650635,0.12470000237226486,0,0.0,0.0,,,,,0,,1,,,330.70312,-81.5625,-8.265625
Raw,945994628,8204793000000,,,-1260194483643106816,0.0,60.33876707078889,-8.791018749230457,13.92535204788713,2778,21,0.0,15,404288363568050,14,30.9,403.0173645019531,0.07830000668764114,0,0.0,0.0,,,,,0,,1,,,330.70312,-81.5625,-8.265625
Raw,945994629,8204793000000,,,-1260194483643106816,0.0,60.33876707078889,-8.791018749230457,13.92535204788713,2778,24,0.0,15,404288366352066,12,32.4,218.87818908691406,0.03290000185370445,0,0.0,0.0,,,,,0,,1,,,330.70312,-81.5625,-8.265625
Raw,945994629,8204793000000,,,-1260194483643106816,0.0,60.33876707078889,-8.791018749230457,13.92535204788713,2778,27,0.0,15,404288353152740,81,16.0,345.6969909667969,1.2760000228881836,0,0.0,0.0,,,,,0,,1,,,330.70312,-81.5625,-8.265625
Raw,945994630,8204793000000,,,-1260194483643106816,0.0,60.33876707078889,-8.791018749230457,13.92535204788713,2778,32,0.0,15,404288362214075,40,21.1,-391.4055480957031,0.8495000004768372,0,0.0,0.0,,,,,0,,1,,,330.70312,-81.5625,-8.265625
Raw,945995621,8205793000000,,,-1260194483643106816,0.0,50.72074418421835,-9.902156011087767,12.663511843782992,2778,8,0.0,15,404289351451571,782,17.9,79.3810043334961,4.618000030517578,0,0.0,0.0,,,,,0,,1,,,16.78125,-84.15625,-1.46875
Raw,945995622,8205793000000,,,-1260194483643106816,0.0,50.72074418421835,-9.902156011087767,12.663511843782992,2778,10,0.0,15,404289365785396,46,20.3,-338.15185546875,0.9239999651908875,0,0.0,0.0,,,,,0,,1,,,16.78125,-84.15625,-1.46875
Raw,945995623,8205793000000,,,-1260194483643106816,0.0,50.72074418421835,-9.902156011087767,12.663511843782992,2778,12,0.0,15,404289352783461,782,17.8,-517.0278930664062,4.619500160217285,0,0.0,0.0,,,,,0,,1,,,16.78125,-84.15625,-1.46875
Raw,945995623,8205793000000,,,-1260194483643106816,0.0,50.72074418421835,-9.902156011087767,12.663511843782992,2778,14,0.0,15,404289355017454,11,34.2,-502.9081115722656,0.7610000371932983,0,0.0,0.0,,,,,0,,1,,,16.78125,-84.15625,-1.46875
Raw,945995624,8205793000000,,,-1260194483643106816,0.0,50.72074418421835,-9.902156011087767,12.663511843782992,2778,15,0.0,15,404289356561178,13,31.3,580.4630737304688,0.04920000210404396,0,0.0,0.0,,,,,0,,1,,,16.78125,-84.15625,-1.46875
Raw,945995624,8205793000000,,,-1260194483643106816,0.0,50.72074418421835,-9.902156011087767,12.663511843782992,2778,20,0.0,15,404289369384992,19,27.0,-9.586236953735352,0.05480000376701355,0,0.0,0.0,,,,,0,,1,,,16.78125,-84.15625,-1.46875
Raw,945995625,8205793000000,,,-1260194483643106816,0.0,50.72074418421835,-9.902156011087767,12.663511843782992,2778,21,0.0,15,404289363566707,9,35.5,400.5976257324219,0.026100000366568565,0,0.0,0.0,,,,,0,,1,,,16.78125,-84.15625,-1.46875
Raw,945995625,8205793000000,,,-1260194483643106816,0.0,50.72074418421835,-9.902156011087767,12.663511843782992,2778,24,0.0,15,404289366351323,13,31.6,216.4769287109375,0.03420000150799751,0,0.0,0.0,,,,,0,,1,,,16.78125,-84.15625,-1.46875
Raw,945995626,8205793000000,,,-1260194483643106816,0.0,50.72074418421835,-9.902156011087767,12.663511843782992,2778,27,0.0,15,404289353151524,40,21.3,343.3088073730469,0.8659999966621399,0,0.0,0.0,,,,,0,,1,,,16.78125,-84.15625,-1.46875
Raw,945995627,8205793000000,,,-1260194483643106816,0.0,50.72074418421835,-9.902156011087767,12.663511843782992,2778,32,0.0,15,404289362215566,16,29.3,-394.6881103515625,0.4594999849796295,0,0.0,0.0,,,,,0,,1,,,16.78125,-84.15625,-1.46875
Raw,945996616,8206793000000,,,-1260194483643106816,0.0,44.00077887112275,-17.794528034664282,12.93850811067778,2778,8,0.0,15,404290351451292,797,17.5,79.76158905029297,5.368000030517578,0,0.0,0.0,,,,,0,,1,,,63.484375,-78.15625,-11.765625
Raw,945996617,8206793000000,,,-1260194483643106816,0.0,44.00077887112275,-17.794528034664282,12.93850811067778,2778,10,0.0,15,404290365786440,21,26.0,-336.053466796875,0.11870000511407852,0,0.0,0.0,,,,,0,,1,,,63.484375,-78.15625,-11.765625
Raw,945996618,8206793000000,,,-1260194483643106816,0.0,44.00077887112275,-17.794528034664282,12.93850811067778,2778,12,0.0,15,404290352785199,912,17.3,-516.9137573242188,5.459500312805176,0,0.0,0.0,,,,,0,,1,,,63.484375,-78.15625,-11.765625
Raw,945996618,8206793000000,,,-1260194483643106816,0.0,44.00077887112275,-17.794528034664282,12.93850811067778,2778,14,0.0,15,404290355019137,9,35.8,-500.63201904296875,0.04410000145435333,0,0.0,0.0,,,,,0,,1,,,63.484375,-78.15625,-11.765625
Raw,945996619,8206793000000,,,-1260194483643106816,0.0,44.00077887112275,-17.794528034664282,12.93850811067778,2778,15,0.0,15,404290356559181,40,21.2,581.5660400390625,0.8704999685287476,0,0.0,0.0,,,,,0,,1,,,63.484375,-78.15625,-11.765625
Raw,945996620,8206793000000,,,-1260194483643106816,0.0,44.00077887112275,-17.794528034664282,12.93850811067778,2778,20,0.0,15,404290369384980,27,24.8,-8.38243579864502,0.6300000548362732,0,0.0,0.0,,,,,0,,1,,,63.484375,-78.15625,-11.765625
Raw,945996620,8206793000000,,,-1260194483643106816,0.0,44.00077887112275,-17.794528034664282,12.93850811067778,2778,21,0.0,15,404290363565404,10,34.1,402.2007141113281,0.026600001379847527,0,0.0,0.0,,,,,0,,1,,,63.484375,-78.15625,-11.765625
Raw,945996621,8206793000000,,,-1260194483643106816,0.0,44.00077887112275,-17.794528034664282,12.93850811067778,2778,24,0.0,15,404290366350548,21,26.0,218.0243682861328,0.12020000070333481,0,0.0,0.0,,,,,0,,1,,,63.484375,-78.15625,-11.765625
Raw,945996622,8206793000000,,,-1260194483643106816,0.0,44.00077887112275,-17.794528034664282,12.93850811067778,2778,27,0.0,15,404290353150489,14,30.2,345.25927734375,0.04530000314116478,0,0.0,0.0,,,,,0,,1,,,63.484375,-78.15625,-11.765625
Raw,945996622,8206793000000,,,-1260194483643106816,0.0,44.00077887112275,-17.794528034664282,12.93850811067778,2778,32,0.0,15,404290362216918,9,35.5,-392.590576171875,0.02460000105202198,0,0.0,0.0,,,,,0,,1,,,63.484375,-78.15625,-11.765625
Raw,945997609,8207793000000,,,-1260194483643106816,0.0,41.94249049760401,-13.826490943222131,14.69543003019245,2778,8,0.0,15,404291351450998,715,18.6,81.18878936767578,6.038000106811523,0,0.0,0.0,,,,,0,,1,,,100.3125,-84.53125,1.09375
Raw,945997611,8207793000000,,,-1260194483643106816,0.0,41.94249049760401,-13.826490943222131,14.69543003019245,2778,10,0.0,15,404291365787600,46,20.8,-333.8702392578125,0.8539999723434448,0,0.0,0.0,,,,,0,,1,,,100.3125,-84.53125,1.09375
Raw,945997612,8207793000000,,,-1260194483643106816,0.0,41.94249049760401,-13.826490943222131,14.69543003019245,2778,12,0.0,15,404291352786932,929,16.5,-516.9422607421875,6.209500312805176,0,0.0,0.0,,,,,0,,1,,,100.3125,-84.53125,1.09375
Raw,945997612,8207793000000,,,-1260194483643106816,0.0,41.94249049760401,-13.826490943222131,14.69543003019245,2778,14,0.0,15,404291355020807,12,32.8,-498.2076110839844,0.046400003135204315,0,0.0,0.0,,,,,0,,1,,,100.3125,-84.53125,1.09375
Raw,945997613,8207793000000,,,-1260194483643106816,0.0,41.94249049760401,-13.826490943222131,14.69543003019245,2778,15,0.0,15,404291356557242,48,21.2,581.5660400390625,2.370500087738037,0,0.0,0.0,,,,,0,,1,,,100.3125,-84.53125,1.09375
Raw,945997614,8207793000000,,,-1260194483643106816,0.0,41.94249049760401,-13.826490943222131,14.69543003019245,2778,20,0.0,15,404291369384992,27,24.9,-5.708809852600098,0.6300000548362732,0,0.0,0.0,,,,,0,,1,,,100.3125,-84.53125,1.09375
Raw,945997615,8207793000000,,,-1260194483643106816,0.0,41.94249049760401,-13.826490943222131,14.69543003019245,2778,21,0.0,15,404291363564025,12,32.5,404.8515930175781,0.0284000001847744,0,0.0,0.0,,,,,0,,1,,,100.3125,-84.53125,1.09375
Raw,945997615,8207793000000,,,-1260194483643106816,0.0,41.94249049760401,-13.826490943222131,14.69543003019245,2778,24,0.0,15,404291366349368,53,19.8,219.8557891845703,0.9254999756813049,0,0.0,0.0,,,,,0,,1,,,100.3125,-84.53125,1.09375
Raw,945997616,8207793000000,,,-1260194483643106816,0.0,41.94249049760401,-13.826490943222131,14.69543003019245,2778,27,0.0,15,404291353149249,21,26.6,347.5177917480469,0.1307000070810318,0,0.0,0.0,,,,,0,,1,,,100.3125,-84.53125,1.09375
Raw,945997617,8207793000000,,,-1260194483643106816,0.0,41.94249049760401,-13.826490943222131,14.69543003019245,2778,32,0.0,15,404291362218235,16,29.6,-390.22760009765625,0.02970000170171261,0,0.0,0.0,,,,,0,,1,,,100.3125,-84.53125,1.09375
Raw,945998605,8208793000000,,,-1260194483643106816,0.0,51.509450713638216,-6.397025246330085,16.717933706449674,2778,8,0.0,15,404292351450753,24,25.8,83.83387756347656,0.6620000004768372,0,0.0,0.0,,,,,0,,1,,,138.8125,-78.78125,-10.875
Raw,945998605,8208793000000,,,-1260194483643106816,0.0,51.509450713638216,-6.397025246330085,16.717933706449674,2778,10,0.0,15,404292365788691,13,31.7,-333.2958068847656,0.03270000219345093,0,0.0,0.0,,,,,0,,1,,,138.8125,-78.78125,-10.875
Raw,945998605,8208793000000,,,-1260194483643106816,0.0,51.509450713638216,-6.397025246330085,16.717933706449674,2778,12,0.0,15,404292352788627,1082,16.0,-516.9327392578125,7.049500465393066,0,0.0,0.0,,,,,0,,1,,,138.8125,-78.78125,-10.875
Raw,945998606,8208793000000,,,-1260194483643106816,0.0,51.509450713638216,-6.397025246330085,16.717933706449674,2778,14,0.0,15,404292355022455,10,34.9,-498.1241455078125,0.044600002467632294,0,0.0,0.0,,,,,0,,1,,,138.8125,-78.78125,-10.875
Raw,945998606,8208793000000,,,-1260194483643106816,0.0,51.509450713638216,-6.397025246330085,16.717933706449674,2778,15,0.0,15,404292356555265,38,22.0,584.2777099609375,1.5605000257492065,0,0.0,0.0,,,,,0,,1,,,138.8125,-78.78125,-10.875
Raw,945998607,8208793000000,,,-1260194483643106816,0.0,51.509450713638216,-6.397025246330085,16.717933706449674,2778,20,0.0,15,404292369385065,27,24.1,-5.07132625579834,0.6800000071525574,0,0.0,0.0,,,,,0,,1,,,138.8125,-78.78125,-10.875
Raw,945998607,8208793000000,,,-1260194483643106816,0.0,51.509450713638216,-6.397025246330085,16.717933706449674,2778,21,0.0,15,404292363562676,12,32.5,404.8190612792969,0.0284000001847744,0,0.0,0.0,,,,,0,,1,,,138.8125,-78.78125,-10.875
Raw,945998608,8208793000000,,,-1260194483643106816,0.0,51.509450713638216,-6.397025246330085,16.717933706449674,2778,24,0.0,15,404292366349136,46,20.3,221.0546417236328,0.9254999756813049,0,0.0,0.0,,,,,0,,1,,,138.8125,-78.78125,-10.875
Raw,945998608,8208793000000,,,-1260194483643106816,0.0,51.509450713638216,-6.397025246330085,16.717933706449674,2778,27,0.0,15,404292353148116,21,26.6,347.8148193359375,0.1307000070810318,0,0.0,0.0,,,,,0,,1,,,138.8125,-78.78125,-10.875
Raw,945998608,8208793000000,,,-1260194483643106816,0.0,51.509450713638216,-6.397025246330085,16.717933706449674,2778,32,0.0,15,404292362219568,12,32.7,-390.0743408203125,0.026900000870227814,0,0.0,0.0,,,,,0,,1,,,138.8125,-78.78125,-10.875
Raw,945999610,8210013000000,,,-1260194483642575872,0.0,4121.539648622274,-3.804108265508321,8.357905156058658,2779,8,0.0,15,404293570919349,27,24.9,84.91854858398438,0.6165000200271606,0,0.0,0.0,,,,,0,,1,,,182.95312,-80.4375,-9.3125
Raw,945999611,8210013000000,,,-1260194483642575872,0.0,4121.539648622274,-3.804108265508321,8.357905156058658,2779,10,0.0,15,404293585258977,7,37.1,-331.9197082519531,0.0650000050663948,0,0.0,0.0,,,,,0,,1,,,182.95312,-80.4375,-9.3125
Raw,945999611,8210013000000,,,-1260194483642575872,0.0,4121.539648622274,-3.804108265508321,8.357905156058658,2779,14,0.0,15,404293574493445,16,29.5,-496.7320251464844,0.09539999812841415,0,0.0,0.0,,,,,0,,1,,,182.95312,-80.4375,-9.3125
Raw,945999612,8210013000000,,,-1260194483642575872,0.0,4121.539648622274,-3.804108265508321,8.357905156058658,2779,15,0.0,15,404293576021898,9,35.0,585.8427734375,0.05849999934434891,0,0.0,0.0,,,,,0,,1,,,182.95312,-80.4375,-9.3125
Raw,945999612,8210013000000,,,-1260194483642575872,0.0,4121.539648622274,-3.804108265508321,8.357905156058658,2779,20,0.0,15,404293588854042,16,29.3,-3.7515170574188232,0.08639999479055405,0,0.0,0.0,,,,,0,,1,,,182.95312,-80.4375,-9.3125
Raw,945999614,8210013000000,,,-1260194483642575872,0.0,4121.539648622274,-3.804108265508321,8.357905156058658,2779,21,0.0,15,404293583029983,21,26.6,406.4463806152344,0.28519999980926514,0,0.0,0.0,,,,,0,,1,,,182.95312,-80.4375,-9.3125
Raw,945999615,8210013000000,,,-1260194483642575872,0.0,4121.539648622274,-3.804108265508321,8.357905156058658,2779,24,0.0,15,404293585817115,21,26.0,222.38876342773438,0.2581999897956848,0,0.0,0.0,,,,,0,,1,,,182.95312,-80.4375,-9.3125
Raw,945999615,8210013000000,,,-1260194483642575872,0.0,4121.539648622274,-3.804108265508321,8.357905156058658,2779,27,0.0,15,404293572615673,13,31.7,349.1566467285156,0.0731000006198883,0,0.0,0.0,,,,,0,,1,,,182.95312,-80.4375,-9.3125
Raw,945999616,8210013000000,,,-1260194483642575872,0.0,4121.539648622274,-3.804108265508321,8.357905156058658,2779,32,0.0,15,404293581690052,9,35.1,-388.6935729980469,0.06599999964237213,0,0.0,0.0,,,,,0,,1,,,182.95312,-80.4375,-9.3125
Raw,946000609,8211005000000,,,-1260194483641772032,0.0,4185.416270047426,-0.3655619926128493,10.616473817281094,2780,8,0.0,15,404294562115098,35,22.9,85.14690399169922,0.7444999814033508,0,0.0,0.0,,,,,0,,1,,,221.875,-82.234375,-6.71875
Raw,946000609,8211005000000,,,-1260194483641772032,0.0,4185.416270047426,-0.3655619926128493,10.616473817281094,2780,10,0.0,15,404294576456104,8,36.9,-331.7633056640625,0.054499998688697815,0,0.0,0.0,,,,,0,,1,,,221.875,-82.234375,-6.71875
Raw,946000610,8211005000000,,,-1260194483641772032,0.0,4185.416270047426,-0.3655619926128493,10.616473817281094,2780,15,0.0,15,404294567215997,4,43.5,585.4119262695312,0.024900000542402267,0,0.0,0.0,,,,,0,,1,,,221.875,-82.234375,-6.71875
Raw,946000611,8211005000000,,,-1260194483641772032,0.0,4185.416270047426,-0.3655619926128493,10.616473817281094,2780,20,0.0,15,404294580050087,13,31.2,-3.860440254211426,0.08510000258684158,0,0.0,0.0,,,,,0,,1,,,221.875,-82.234375,-6.71875
Raw,946000611,8211005000000,,,-1260194483641772032,0.0,4185.416270047426,-0.3655619926128493,10.616473817281094,2780,24,0.0,15,404294577012534,10,34.8,222.11582946777344,0.0640999972820282,0,0.0,0.0,,,,,0,,1,,,221.875,-82.234375,-6.71875
Raw,946000612,8211005000000,,,-1260194483641772032,0.0,4185.416270047426,-0.3655619926128493,10.616473817281094,2780,27,0.0,15,404294563810570,19,27.8,349.7289733886719,0.16820000112056732,0,0.0,0.0,,,,,0,,1,,,221.875,-82.234375,-6.71875
Raw,946000612,8211005000000,,,-1260194483641772032,0.0,4185.416270047426,-0.3655619926128493,10.616473817281094,2780,32,0.0,15,404294572887392,14,30.1,-388.3160705566406,0.08150000125169754,0,0.0,0.0,,,,,0,,1,,,221.875,-82.234375,-6.71875
Raw,946001613,8212093000000,,,-1260194483641093120,0.0,4186.248406767845,-0.5487230203382025,11.865180787675655,2781,10,0.0,15,404295663778512,12,32.5,-342.9060974121094,0.02590000070631504,0,0.0,0.0,,,,,0,,1,,,259.78125,-76.6875,-12.75
Raw,946001614,8212093000000,,,-1260194483641093120,0.0,4186.248406767845,-0.5487230203382025,11.865180787675655,2781,15,0.0,15,404295654535115,7,37.5,576.3185424804688,0.03360000252723694,0,0.0,0.0,,,,,0,,1,,,259.78125,-76.6875,-12.75
Raw,946001614,8212093000000,,,-1260194483641093120,0.0,4186.248406767845,-0.5487230203382025,11.865180787675655,2781,20,0.0,15,404295667371362,24,25.6,-14.320289611816406,0.1898999959230423,0,0.0,0.0,,,,,0,,1,,,259.78125,-76.6875,-12.75
Raw,946001615,8212093000000,,,-1260194483641093120,0.0,4186.248406767845,-0.5487230203382025,11.865180787675655,2781,21,0.0,15,404295661544304,40,21.8,395.43023681640625,0.8029999732971191,0,0.0,0.0,,,,,0,,1,,,259.78125,-76.6875,-12.75
Raw,946001616,8212093000000,,,-1260194483641093120,0.0,4186.248406767845,-0.5487230203382025,11.865180787675655,2781,24,0.0,15,404295664332932,9,35.3,212.151611328125,0.021000001579523087,0,0.0,0.0,,,,,0,,1,,,259.78125,-76.6875,-12.75
Raw,946001617,8212093000000,,,-1260194483641093120,0.0,4186.248406767845,-0.5487230203382025,11.865180787675655,2781,32,0.0,15,404295660210002,35,22.6,-396.9430847167969,0.7414999604225159,0,0.0,0.0,,,,,0,,1,,,259.78125,-76.6875,-12.75
Raw,946002596,8212907000000,,,-1260194483640695808,0.0,4153.058864176273,-34.31687087890408,13.075165634458768,2782,10,0.0,15,404296477382262,16,29.0,-335.55780029296875,0.0552000030875206,0,0.0,0.0,,,,,0,,1,,,290.71875,-88.375,-1.5
Raw,946002596,8212907000000,,,-1260194483640695808,0.0,4153.058864176273,-34.31687087890408,13.075165634458768,2782,15,0.0,15,404296468136333,8,36.0,582.7941284179688,0.026000000536441803,0,0.0,0.0,,,,,0,,1,,,290.71875,-88.375,-1.5
Raw,946002597,8212907000000,,,-1260194483640695808,0.0,4153.058864176273,-34.31687087890408,13.075165634458768,2782,20,0.0,15,404296480974117,27,24.5,-6.74591064453125,0.6315000057220459,0,0.0,0.0,,,,,0,,1,,,290.71875,-88.375,-1.5
Raw,946002598,8212907000000,,,-1260194483640695808,0.0,4153.058864176273,-34.31687087890408,13.075165634458768,2782,21,0.0,15,404296475146129,24,25.6,403.9011535644531,0.20190000534057617,0,0.0,0.0,,,,,0,,1,,,290.71875,-88.375,-1.5
Raw,946002598,8212907000000,,,-1260194483640695808,0.0,4153.058864176273,-34.31687087890408,13.075165634458768,2782,24,0.0,15,404296477935086,12,32.7,219.83755493164062,0.04690000042319298,0,0.0,0.0,,,,,0,,1,,,290.71875,-88.375,-1.5
Raw,946003594,8213897000000,,,-1260194483640271360,0.0,4173.09207841754,-10.645814037170128,11.48491346917998,2783,12,0.0,15,404297453962095,40,21.9,-513.5740966796875,0.7910000085830688,0,0.0,0.0,,,,,0,,1,,,339.76562,-103.15625,-12.390625
Raw,946003595,8213897000000,,,-1260194483640271360,0.0,4173.09207841754,-10.645814037170128,11.48491346917998,2783,15,0.0,15,404297457709986,7,37.8,584.6696166992188,0.038100000470876694,0,0.0,0.0,,,,,0,,1,,,339.76562,-103.15625,-12.390625
Raw,946003596,8213897000000,,,-1260194483640271360,0.0,4173.09207841754,-10.645814037170128,11.48491346917998,2783,20,0.0,15,404297470549818,21,26.3,-4.3933610916137695,0.11270000040531158,0,0.0,0.0,,,,,0,,1,,,339.76562,-103.15625,-12.390625
Raw,946003596,8213897000000,,,-1260194483640271360,0.0,4173.09207841754,-10.645814037170128,11.48491346917998,2783,21,0.0,15,404297464720403,12,32.1,405.75897216796875,0.027400000020861626,0,0.0,0.0,,,,,0,,1,,,339.76562,-103.15625,-12.390625
Raw,946003597,8213897000000,,,-1260194483640271360,0.0,4173.09207841754,-10.645814037170128,11.48491346917998,2783,24,0.0,15,404297467510023,11,33.0,221.8300323486328,0.029500000178813934,0,0.0,0.0,,,,,0,,1,,,339.76562,-103.15625,-12.390625
Raw,946004620,8214912000000,,,-1260194483639463936,0.0,4163.566045463085,-4.581827683934416,11.732256302469981,2784,10,0.0,15,404298481152442,35,22.4,-331.6913757324219,0.8029999732971191,0,0.0,0.0,,,,,0,,1,,,32.53125,-104.0,-13.984375
Raw,946004621,8214912000000,,,-1260194483639463936,0.0,4163.566045463085,-4.581827683934416,11.732256302469981,2784,12,0.0,15,404298468156155,40,21.8,-511.7282409667969,0.7834999561309814,0,0.0,0.0,,,,,0,,1,,,32.53125,-104.0,-13.984375
Raw,946004622,8214912000000,,,-1260194483639463936,0.0,4163.566045463085,-4.581827683934416,11.732256302469981,2784,14,0.0,15,404298470389590,14,30.3,-495.8887023925781,0.04179999977350235,0,0.0,0.0,,,,,0,,1,,,32.53125,-104.0,-13.984375
Raw,946004623,8214912000000,,,-1260194483639463936,0.0,4163.566045463085,-4.581827683934416,11.732256302469981,2784,15,0.0,15,404298471900356,10,34.0,585.4755249023438,0.03359999880194664,0,0.0,0.0,,,,,0,,1,,,32.53125,-104.0,-13.984375
Raw,946004623,8214912000000,,,-1260194483639463936,0.0,4163.566045463085,-4.581827683934416,11.732256302469981,2784,20,0.0,15,404298484742120,40,21.6,-4.605106830596924,0.7774999737739563,0,0.0,0.0,,,,,0,,1,,,32.53125,-104.0,-13.984375
Raw,946004624,8214912000000,,,-1260194483639463936,0.0,4163.566045463085,-4.581827683934416,11.732256302469981,2784,21,0.0,15,404298478911400,11,33.3,406.3699951171875,0.04600000008940697,0,0.0,0.0,,,,,0,,1,,,32.53125,-104.0,-13.984375
Raw,946004624,8214912000000,,,-1260194483639463936,0.0,4163.566045463085,-4.581827683934416,11.732256302469981,2784,24,0.0,15,404298481701626,12,32.4,222.90728759765625,0.05290000140666962,0,0.0,0.0,,,,,0,,1,,,32.53125,-104.0,-13.984375
Raw,946004625,8214912000000,,,-1260194483639463936,0.0,4163.566045463085,-4.581827683934416,11.732256302469981,2784,32,0.0,15,404298477584428,35,22.7,-388.4179382324219,0.7369999885559082,0,0.0,0.0,,,,,0,,1,,,32.53125,-104.0,-13.984375
Raw,946005622,8215909000000,,,-1260194483638939904,0.0,4155.003000050783,-0.4983041353066249,17.292435141563086,2785,10,0.0,15,404299477629571,35,22.9,-330.1405029296875,0.7369999885559082,0,0.0,0.0,,,,,0,,1,,,50.65625,-83.53125,-5.671875
Raw,946005622,8215909000000,,,-1260194483638939904,0.0,4155.003000050783,-0.4983041353066249,17.292435141563086,2785,14,0.0,15,404299466867288,8,36.4,-495.10589599609375,0.023000000044703484,0,0.0,0.0,,,,,0,,1,,,50.65625,-83.53125,-5.671875
Raw,946005623,8215909000000,,,-1260194483638939904,0.0,4155.003000050783,-0.4983041353066249,17.292435141563086,2785,21,0.0,15,404299475386111,10,34.5,408.5301208496094,0.03959999978542328,0,0.0,0.0,,,,,0,,1,,,50.65625,-83.53125,-5.671875
Raw,946005624,8215909000000,,,-1260194483638939904,0.0,4155.003000050783,-0.4983041353066249,17.292435141563086,2785,24,0.0,15,404299478176934,14,30.4,224.93385314941406,0.05380000174045563,0,0.0,0.0,,,,,0,,1,,,50.65625,-83.53125,-5.671875
Raw,946005624,8215909000000,,,-1260194483638939904,0.0,4155.003000050783,-0.4983041353066249,17.292435141563086,2785,27,0.0,15,404299464972877,19,27.0,350.91259765625,0.06960000097751617,0,0.0,0.0,,,,,0,,1,,,50.65625,-83.53125,-5.671875
Raw,946005625,8215909000000,,,-1260194483638939904,0.0,4155.003000050783,-0.4983041353066249,17.292435141563086,2785,32,0.0,15,404299474061791,10,34.4,-386.8977966308594,0.038100000470876694,0,0.0,0.0,,,,,0,,1,,,50.65625,-83.53125,-5.671875
Raw,946006603,8216896000000,,,-1260194483638026752,0.0,4153.162240982056,4.870367150747897,10.330643467618618,2786,8,0.0,15,404300449368150,35,22.7,78.9338150024414,0.7249999642372131,0,0.0,0.0,,,,,0,,1,,,88.40625,-79.453125,-10.546875
Raw,946006604,8216896000000,,,-1260194483638026752,0.0,4153.162240982056,4.870367150747897,10.330643467618618,2786,10,0.0,15,404300463717412,21,26.9,-338.2209777832031,0.1021999940276146,0,0.0,0.0,,,,,0,,1,,,88.40625,-79.453125,-10.546875
Raw,946006605,8216896000000,,,-1260194483638026752,0.0,4153.162240982056,4.870367150747897,10.330643467618618,2786,14,0.0,15,404300452955645,16,29.4,-502.9609069824219,0.047700002789497375,0,0.0,0.0,,,,,0,,1,,,88.40625,-79.453125,-10.546875
Raw,946006605,8216896000000,,,-1260194483638026752,0.0,4153.162240982056,4.870367150747897,10.330643467618618,2786,21,0.0,15,404300461471504,12,32.7,400.5748291015625,0.05290000140666962,0,0.0,0.0,,,,,0,,1,,,88.40625,-79.453125,-10.546875
Raw,946006606,8216896000000,,,-1260194483638026752,0.0,4153.162240982056,4.870367150747897,10.330643467618618,2786,27,0.0,15,404300451058479,31,23.1,343.0994873046875,0.7279999852180481,0,0.0,0.0,,,,,0,,1,,,88.40625,-79.453125,-10.546875
Raw,946006606,8216896000000,,,-1260194483638026752,0.0,4153.162240982056,4.870367150747897,10.330643467618618,2786,32,0.0,15,404300460149820,21,26.5,-394.5501403808594,0.12770000100135803,0,0.0,0.0,,,,,0,,1,,,88.40625,-79.453125,-10.546875
Raw,946007619,8217913000000,,,-1260194483637745152,0.0,4185.012076050043,-22.19422813079051,12.102208059960025,2787,8,0.0,15,404301466086378,21,26.1,87.51016235351562,0.10669999569654465,0,0.0,0.0,,,,,0,,1,,,113.765625,-82.78125,-6.8125
Raw,946007620,8217913000000,,,-1260194483637745152,0.0,4185.012076050043,-22.19422813079051,12.102208059960025,2787,14,0.0,15,404301469675797,12,32.4,-495.116943359375,0.03490000218153,0,0.0,0.0,,,,,0,,1,,,113.765625,-82.78125,-6.8125
Raw,946007621,8217913000000,,,-1260194483637745152,0.0,4185.012076050043,-22.19422813079051,12.102208059960025,2787,15,0.0,15,404301471174769,35,22.7,587.0274658203125,0.7279999852180481,0,0.0,0.0,,,,,0,,1,,,113.765625,-82.78125,-6.8125
Raw,946007622,8217913000000,,,-1260194483637745152,0.0,4185.012076050043,-22.19422813079051,12.102208059960025,2787,20,0.0,15,404301484023396,40,21.4,-1.5889521837234497,0.8675000071525574,0,0.0,0.0,,,,,0,,1,,,113.765625,-82.78125,-6.8125
Raw,946007622,8217913000000,,,-1260194483637745152,0.0,4185.012076050043,-22.19422813079051,12.102208059960025,2787,21,0.0,15,404301478188588,12,32.4,408.1973571777344,0.04839999973773956,0,0.0,0.0,,,,,0,,1,,,113.765625,-82.78125,-6.8125
Raw,946007623,8217913000000,,,-1260194483637745152,0.0,4185.012076050043,-22.19422813079051,12.102208059960025,2787,27,0.0,15,404301467775761,35,22.2,351.2726135253906,0.7820000052452087,0,0.0,0.0,,,,,0,,1,,,113.765625,-82.78125,-6.8125
Raw,946007624,8217913000000,,,-1260194483637745152,0.0,4185.012076050043,-22.19422813079051,12.102208059960025,2787,32,0.0,15,404301476869620,13,31.8,-386.98223876953125,0.04780000075697899,0,0.0,0.0,,,,,0,,1,,,113.765625,-82.78125,-6.8125
Raw,946008619,8218906000000,,,-1260194483637130752,0.0,4208.737518638372,3.5958816164633554,16.114129429549706,2788,8,0.0,15,404302458471873,46,20.5,87.19255828857422,0.8585000038146973,0,0.0,0.0,,,,,0,,1,,,143.45312,-94.84375,-4.828125
Raw,946008620,8218906000000,,,-1260194483637130752,0.0,4208.737518638372,3.5958816164633554,16.114129429549706,2788,10,0.0,15,404302472823815,11,33.6,-331.1031188964844,0.03700000047683716,0,0.0,0.0,,,,,0,,1,,,143.45312,-94.84375,-4.828125
Raw,946008620,8218906000000,,,-1260194483637130752,0.0,4208.737518638372,3.5958816164633554,16.114129429549706,2788,14,0.0,15,404302462063190,9,35.2,-495.70208740234375,0.04800000041723251,0,0.0,0.0,,,,,0,,1,,,143.45312,-94.84375,-4.828125
Raw,946008621,8218906000000,,,-1260194483637130752,0.0,4208.737518638372,3.5958816164633554,16.114129429549706,2788,15,0.0,15,404302463559426,35,22.1,585.095947265625,0.8059999942779541,0,0.0,0.0,,,,,0,,1,,,143.45312,-94.84375,-4.828125
Raw,946008622,8218906000000,,,-1260194483637130752,0.0,4208.737518638372,3.5958816164633554,16.114129429549706,2788,20,0.0,15,404302476409126,35,22.9,-2.41672945022583,0.7354999780654907,0,0.0,0.0,,,,,0,,1,,,143.45312,-94.84375,-4.828125
Raw,946008622,8218906000000,,,-1260194483637130752,0.0,4208.737518638372,3.5958816164633554,16.114129429549706,2788,21,0.0,15,404302470572995,14,30.5,407.7308654785156,0.04179999977350235,0,0.0,0.0,,,,,0,,1,,,143.45312,-94.84375,-4.828125
Raw,946008623,8218906000000,,,-1260194483637130752,0.0,4208.737518638372,3.5958816164633554,16.114129429549706,2788,24,0.0,15,404302473365605,31,23.0,224.70828247070312,0.7310000061988831,0,0.0,0.0,,,,,0,,1,,,143.45312,-94.84375,-4.828125
Raw,946008624,8218906000000,,,-1260194483637130752,0.0,4208.737518638372,3.5958816164633554,16.114129429549706,2788,27,0.0,15,404302460160286,31,23.7,349.69317626953125,0.6814999580383301,0,0.0,0.0,,,,,0,,1,,,143.45312,-94.84375,-4.828125
Raw,946008624,8218906000000,,,-1260194483637130752,0.0,4208.737518638372,3.5958816164633554,16.114129429549706,2788,32,0.0,15,404302469256636,12,32.6,-387.6328430175781,0.03490000218153,0,0.0,0.0,,,,,0,,1,,,143.45312,-94.84375,-4.828125
Raw,946009622,8219818000000,,,-1260194483636881408,0.0,4222.848918288946,1.4564400495490681,12.866482097756897,2789,10,0.0,15,404303384575192,9,35.4,-331.1529541015625,0.04050000011920929,0,0.0,0.0,,,,,0,,1,,,202.70312,-74.625,-15.25
Raw,946009623,8219818000000,,,-1260194483636881408,0.0,4222.848918288946,1.4564400495490681,12.866482097756897,2789,14,0.0,15,404303373814979,12,32.6,-496.134033203125,0.06799999624490738,0,0.0,0.0,,,,,0,,1,,,202.70312,-74.625,-15.25
Raw,946009624,8219818000000,,,-1260194483636881408,0.0,4222.848918288946,1.4564400495490681,12.866482097756897,2789,15,0.0,15,404303375308136,12,32.9,586.2259521484375,0.07100000232458115,0,0.0,0.0,,,,,0,,1,,,202.70312,-74.625,-15.25
Raw,946009625,8219818000000,,,-1260194483636881408,0.0,4222.848918288946,1.4564400495490681,12.866482097756897,2789,20,0.0,15,404303388159542,24,25.2,-2.656005859375,1.1725000143051147,0,0.0,0.0,,,,,0,,1,,,202.70312,-74.625,-15.25
Raw,946009625,8219818000000,,,-1260194483636881408,0.0,4222.848918288946,1.4564400495490681,12.866482097756897,2789,21,0.0,15,404303382321951,19,27.7,407.67669677734375,0.19670000672340393,0,0.0,0.0,,,,,0,,1,,,202.70312,-74.625,-15.25
Raw,946009626,8219818000000,,,-1260194483636881408,0.0,4222.848918288946,1.4564400495490681,12.866482097756897,2789,24,0.0,15,404303385115054,24,25.3,223.9148406982422,1.1679999828338623,0,0.0,0.0,,,,,0,,1,,,202.70312,-74.625,-15.25
Raw,946009626,8219818000000,,,-1260194483636881408,0.0,4222.848918288946,1.4564400495490681,12.866482097756897,2789,27,0.0,15,404303371909606,16,29.8,349.9554138183594,0.0908999964594841,0,0.0,0.0,,,,,0,,1,,,202.70312,-74.625,-15.25
Raw,946009627,8219818000000,,,-1260194483636881408,0.0,4222.848918288946,1.4564400495490681,12.866482097756897,2789,32,0.0,15,404303381008125,9,35.5,-387.9344787597656,0.06599999964237213,0,0.0,0.0,,,,,0,,1,,,202.70312,-74.625,-15.25
Raw,946010625,8221112000000,,,-1260194483636683520,0.0,4280.235152691603,0.5766188151500278,15.057477511926196,2790,8,0.0,15,404304664023936,27,24.6,88.02985382080078,0.6375000476837158,0,0.0,0.0,,,,,0,,1,,,218.07812,-87.265625,0.0
Raw,946010626,8221112000000,,,-1260194483636683520,0.0,4280.235152691603,0.5766188151500278,15.057477511926196,2790,10,0.0,15,404304678379025,8,36.4,-330.7261657714844,0.04100000113248825,0,0.0,0.0,,,,,0,,1,,,218.07812,-87.265625,0.0
Raw,946010626,8221112000000,,,-1260194483636683520,0.0,4280.235152691603,0.5766188151500278,15.057477511926196,2790,14,0.0,15,404304667619567,31,23.1,-496.2478332519531,0.722000002861023,0,0.0,0.0,,,,,0,,1,,,218.07812,-87.265625,0.0
Raw,946010627,8221112000000,,,-1260194483636683520,0.0,4280.235152691603,0.5766188151500278,15.057477511926196,2790,15,0.0,15,404304669108021,5,40.5,585.9428100585938,0.1850000023841858,0,0.0,0.0,,,,,0,,1,,,218.07812,-87.265625,0.0
Raw,946010627,8221112000000,,,-1260194483636683520,0.0,4280.235152691603,0.5766188151500278,15.057477511926196,2790,20,0.0,15,404304681961842,27,24.5,-2.3501269817352295,0.6330000162124634,0,0.0,0.0,,,,,0,,1,,,218.07812,-87.265625,0.0
Raw,946010628,8221112000000,,,-1260194483636683520,0.0,4280.235152691603,0.5766188151500278,15.057477511926196,2790,21,0.0,15,404304676122636,40,21.9,407.475830078125,0.7954999804496765,0,0.0,0.0,,,,,0,,1,,,218.07812,-87.265625,0.0
Raw,946010628,8221112000000,,,-1260194483636683520,0.0,4280.235152691603,0.5766188151500278,15.057477511926196,2790,24,0.0,15,404304678916690,19,27.7,224.22433471679688,0.09059999883174896,0,0.0,0.0,,,,,0,,1,,,218.07812,-87.265625,0.0
Raw,946010629,8221112000000,,,-1260194483636683520,0.0,4280.235152691603,0.5766188151500278,15.057477511926196,2790,27,0.0,15,404304665710501,17,28.2,350.8844909667969,0.04829999804496765,0,0.0,0.0,,,,,0,,1,,,218.07812,-87.265625,0.0
Raw,946010629,8221112000000,,,-1260194483636683520,0.0,4280.235152691603,0.5766188151500278,15.057477511926196,2790,32,0.0,15,404304674812260,14,30.2,-387.247314453125,0.04780000075697899,0,0.0,0.0,,,,,0,,1,,,218.07812,-87.265625,0.0
Raw,946011607,8221901000000,,,-1260194483636448512,0.0,4197.224508970976,1.3045313652677273,11.015823850010833,2791,10,0.0,15,404305467144772,11,33.4,-333.669921875,0.029500000178813934,0,0.0,0.0,,,,,0,,1,,,261.40625,-100.859375,-10.828125
Raw,946011608,8221901000000,,,-1260194483636448512,0.0,4197.224508970976,1.3045313652677273,11.015823850010833,2791,15,0.0,15,404305457871318,11,33.7,583.6683349609375,0.04450000077486038,0,0.0,0.0,,,,,0,,1,,,261.40625,-100.859375,-10.828125
Raw,946011609,8221901000000,,,-1260194483636448512,0.0,4197.224508970976,1.3045313652677273,11.015823850010833,2791,20,0.0,15,404305470726770,19,27.9,-4.998796463012695,0.07860000431537628,0,0.0,0.0,,,,,0,,1,,,261.40625,-100.859375,-10.828125
Raw,946011610,8221901000000,,,-1260194483636448512,0.0,4197.224508970976,1.3045313652677273,11.015823850010833,2791,24,0.0,15,404305467680999,12,32.2,221.67535400390625,0.03189999982714653,0,0.0,0.0,,,,,0,,1,,,261.40625,-100.859375,-10.828125
Raw,946011611,8221901000000,,,-1260194483636448512,0.0,4197.224508970976,1.3045313652677273,11.015823850010833,2791,32,0.0,15,404305463578059,31,23.4,-390.1971740722656,0.7459999918937683,0,0.0,0.0,,,,,0,,1,,,261.40625,-100.859375,-10.828125
Raw,946012606,8222916000000,,,-1260194483635865600,0.0,4213.722422719002,-7.295349884079679,9.840513157868486,2792,10,0.0,15,404306481563003,10,34.0,-331.18023681640625,0.04859999939799309,0,0.0,0.0,,,,,0,,1,,,264.26562,-88.140625,-1.40625
Raw,946012607,8222916000000,,,-1260194483635865600,0.0,4213.722422719002,-7.295349884079679,9.840513157868486,2792,15,0.0,15,404306472286470,13,31.0,585.65283203125,0.04179999977350235,0,0.0,0.0,,,,,0,,1,,,264.26562,-88.140625,-1.40625
Raw,946012607,8222916000000,,,-1260194483635865600,0.0,4213.722422719002,-7.295349884079679,9.840513157868486,2792,20,0.0,15,404306485143979,27,24.5,-3.1779043674468994,0.6389999985694885,0,0.0,0.0,,,,,0,,1,,,264.26562,-88.140625,-1.40625
Raw,946012608,8222916000000,,,-1260194483635865600,0.0,4213.722422719002,-7.295349884079679,9.840513157868486,2792,21,0.0,15,404306479302277,24,25.4,407.3724670410156,0.2079000025987625,0,0.0,0.0,,,,,0,,1,,,264.26562,-88.140625,-1.40625
Raw,946012608,8222916000000,,,-1260194483635865600,0.0,4213.722422719002,-7.295349884079679,9.840513157868486,2792,24,0.0,15,404306482097378,13,31.4,223.83212280273438,0.0568000003695488,0,0.0,0.0,,,,,0,,1,,,264.26562,-88.140625,-1.40625
Raw,946012609,8222916000000,,,-1260194483635865600,0.0,4213.722422719002,-7.295349884079679,9.840513157868486,2792,32,0.0,15,404306477996158,40,21.4,-388.2942199707031,0.8569999933242798,0,0.0,0.0,,,,,0,,1,,,264.26562,-88.140625,-1.40625
Raw,946013766,8223910000000,,,-1260194483634913280,0.0,4222.322721034288,-0.20950622774335198,13.052640158402689,2793,10,0.0,15,404307474611815,14,30.6,-328.9756774902344,0.04780000075697899,0,0.0,0.0,,,,,0,,1,,,309.10938,-78.6875,-11.234375
Raw,946013767,8223910000000,,,-1260194483634913280,0.0,4222.322721034288,-0.20950622774335198,13.052640158402689,2793,15,0.0,15,404307465332254,7,37.0,587.9712524414062,0.05010000243782997,0,0.0,0.0,,,,,0,,1,,,309.10938,-78.6875,-11.234375
Raw,946013767,8223910000000,,,-1260194483634913280,0.0,4222.322721034288,-0.20950622774335198,13.052640158402689,2793,20,0.0,15,404307478191626,27,24.0,-0.5899103879928589,0.6784999966621399,0,0.0,0.0,,,,,0,,1,,,309.10938,-78.6875,-11.234375
Raw,946013768,8223910000000,,,-1260194483634913280,0.0,4222.322721034288,-0.20950622774335198,13.052640158402689,2793,21,0.0,15,404307472348584,17,28.6,410.1293640136719,0.058800000697374344,0,0.0,0.0,,,,,0,,1,,,309.10938,-78.6875,-11.234375
Raw,946013769,8223910000000,,,-1260194483634913280,0.0,4222.322721034288,-0.20950622774335198,13.052640158402689,2793,24,0.0,15,404307475144351,13,31.6,226.4342498779297,0.046300001442432404,0,0.0,0.0,,,,,0,,1,,,309.10938,-78.6875,-11.234375
Raw,946013769,8223910000000,,,-1260194483634913280,0.0,4222.322721034288,-0.20950622774335198,13.052640158402689,2793,32,0.0,15,404307471045499,24,25.0,-385.4493408203125,0.6180000305175781,0,0.0,0.0,,,,,0,,1,,,309.10938,-78.6875,-11.234375
Raw,946014603,8224921000000,,,-1260194483633969408,0.0,4219.209309667349,7.545717957834208,12.185786292383472,2794,10,0.0,15,404308484668911,19,27.3,-328.5922546386719,0.06960000097751617,0,0.0,0.0,,,,,0,,1,,,325.09375,-88.53125,-0.859375
Raw,946014604,8224921000000,,,-1260194483633969408,0.0,4219.209309667349,7.545717957834208,12.185786292383472,2794,15,0.0,15,404308475386283,5,40.0,588.2977294921875,0.031700000166893005,0,0.0,0.0,,,,,0,,1,,,325.09375,-88.53125,-0.859375
Raw,946014605,8224921000000,,,-1260194483633969408,0.0,4219.209309667349,7.545717957834208,12.185786292383472,2794,20,0.0,15,404308488247585,35,22.5,0.5899103879928589,0.7234999537467957,0,0.0,0.0,,,,,0,,1,,,325.09375,-88.53125,-0.859375
Raw,946014606,8224921000000,,,-1260194483633969408,0.0,4219.209309667349,7.545717957834208,12.185786292383472,2794,21,0.0,15,404308482403229,14,30.3,409.9033508300781,0.059800002723932266,0,0.0,0.0,,,,,0,,1,,,325.09375,-88.53125,-0.859375
Raw,946014606,8224921000000,,,-1260194483633969408,0.0,4219.209309667349,7.545717957834208,12.185786292383472,2794,24,0.0,15,404308485199620,14,30.9,226.65513610839844,0.034299999475479126,0,0.0,0.0,,,,,0,,1,,,325.09375,-88.53125,-0.859375
Raw,946015617,8225916000000,,,-1260194483633138176,0.0,4204.830154776573,7.928796586803623,10.261477277176821,2795,14,0.0,15,404309468082281,13,31.7,-495.9026184082031,0.03579999879002571,0,0.0,0.0,,,,,0,,1,,,20.828125,-81.421875,-8.140625
Raw,946015617,8225916000000,,,-1260194483633138176,0.0,4204.830154776573,7.928796586803623,10.261477277176821,2795,15,0.0,15,404309469553396,14,30.0,585.8572998046875,0.040300000458955765,0,0.0,0.0,,,,,0,,1,,,20.828125,-81.421875,-8.140625
Raw,946015618,8225916000000,,,-1260194483633138176,0.0,4204.830154776573,7.928796586803623,10.261477277176821,2795,21,0.0,15,404309476571012,21,26.6,407.8825378417969,0.1216999962925911,0,0.0,0.0,,,,,0,,1,,,20.828125,-81.421875,-8.140625
Raw,946015619,8225916000000,,,-1260194483633138176,0.0,4204.830154776573,7.928796586803623,10.261477277176821,2795,24,0.0,15,404309479367945,13,31.7,224.409912109375,0.05230000242590904,0,0.0,0.0,,,,,0,,1,,,20.828125,-81.421875,-8.140625
Raw,946015619,8225916000000,,,-1260194483633138176,0.0,4204.830154776573,7.928796586803623,10.261477277176821,2795,27,0.0,15,404309466159737,35,22.9,350.8254089355469,0.7204999923706055,0,0.0,0.0,,,,,0,,1,,,20.828125,-81.421875,-8.140625
Raw,946015620,8225916000000,,,-1260194483633138176,0.0,4204.830154776573,7.928796586803623,10.261477277176821,2795,32,0.0,15,404309475273375,31,23.8,-387.6377258300781,0.6739999651908875,0,0.0,0.0,,,,,0,,1,,,20.828125,-81.421875,-8.140625
Raw,946016607,8226905000000,,,-1260194483632409088,0.0,4201.523493975401,0.04655257202354227,8.714175732762346,2796,14,0.0,15,404310456354752,11,33.8,-501.8494567871094,0.0430000014603138,0,0.0,0.0,,,,,0,,1,,,37.234375,-84.90625,-4.078125
Raw,946016608,8226905000000,,,-1260194483632409088,0.0,4201.523493975401,0.04655257202354227,8.714175732762346,2796,15,0.0,15,404310457822224,27,24.6,579.5393676757812,0.6270000338554382,0,0.0,0.0,,,,,0,,1,,,37.234375,-84.90625,-4.078125
Raw,946016609,8226905000000,,,-1260194483632409088,0.0,4201.523493975401,0.04655257202354227,8.714175732762346,2796,21,0.0,15,404310464840400,11,33.5,401.57061767578125,0.02500000037252903,0,0.0,0.0,,,,,0,,1,,,37.234375,-84.90625,-4.078125
Raw,946016609,8226905000000,,,-1260194483632409088,0.0,4201.523493975401,0.04655257202354227,8.714175732762346,2796,27,0.0,15,404310454429325,35,22.7,344.4315490722656,0.7324999570846558,0,0.0,0.0,,,,,0,,1,,,37.234375,-84.90625,-4.078125
Raw,946016610,8226905000000,,,-1260194483632409088,0.0,4201.523493975401,0.04655257202354227,8.714175732762346,2796,32,0.0,15,404310463545271,21,26.3,-394.48291015625,0.1021999940276146,0,0.0,0.0,,,,,0,,1,,,37.234375,-84.90625,-4.078125
Raw,946017616,8227918000000,,,-1260194483631637504,0.0,4215.3107933700085,-20.305547604756025,13.295730636076538,2797,14,0.0,15,404311468584702,14,30.7,-501.198974609375,0.03880000114440918,0,0.0,0.0,,,,,0,,1,,,77.1875,-85.328125,-3.890625
Raw,946017617,8227918000000,,,-1260194483631637504,0.0,4215.3107933700085,-20.305547604756025,13.295730636076538,2797,15,0.0,15,404311470048198,31,23.4,579.7487182617188,0.7264999747276306,0,0.0,0.0,,,,,0,,1,,,77.1875,-85.328125,-3.890625
Raw,946017617,8227918000000,,,-1260194483631637504,0.0,4215.3107933700085,-20.305547604756025,13.295730636076538,2797,21,0.0,15,404311477067298,11,33.9,403.22174072265625,0.04450000077486038,0,0.0,0.0,,,,,0,,1,,,77.1875,-85.328125,-3.890625
Raw,946017618,8227918000000,,,-1260194483631637504,0.0,4215.3107933700085,-20.305547604756025,13.295730636076538,2797,24,0.0,15,404311479865392,27,24.0,219.950927734375,0.6800000071525574,0,0.0,0.0,,,,,0,,1,,,77.1875,-85.328125,-3.890625
Raw,946017619,8227918000000,,,-1260194483631637504,0.0,4215.3107933700085,-20.305547604756025,13.295730636076538,2797,27,0.0,15,404311466656355,21,26.6,345.9246826171875,0.10669999569654465,0,0.0,0.0,,,,,0,,1,,,77.1875,-85.328125,-3.890625
Raw,946017619,8227918000000,,,-1260194483631637504,0.0,4215.3107933700085,-20.305547604756025,13.295730636076538,2797,32,0.0,15,404311475774826,24,25.0,-393.1045837402344,0.20190000534057617,0,0.0,0.0,,,,,0,,1,,,77.1875,-85.328125,-3.890625
Raw,946018608,8228906000000,,,-1260194483631586304,0.0,4230.890888720751,-15.861644323693028,14.208382220978732,2798,8,0.0,15,404312452924724,35,22.3,85.00418090820312,0.7894999980926514,0,0.0,0.0,,,,,0,,1,,,111.984375,-79.890625,-10.015625
Raw,946018609,8228906000000,,,-1260194483631586304,0.0,4230.890888720751,-15.861644323693028,14.208382220978732,2798,10,0.0,15,404312467290810,19,27.6,-333.1120300292969,0.07410000264644623,0,0.0,0.0,,,,,0,,1,,,111.984375,-79.890625,-10.015625
Raw,946018609,8228906000000,,,-1260194483631586304,0.0,4230.890888720751,-15.861644323693028,14.208382220978732,2798,14,0.0,15,404312456535660,17,28.7,-498.13604736328125,0.06480000168085098,0,0.0,0.0,,,,,0,,1,,,111.984375,-79.890625,-10.015625
Raw,946018610,8228906000000,,,-1260194483631586304,0.0,4230.890888720751,-15.861644323693028,14.208382220978732,2798,21,0.0,15,404312465015295,10,34.7,405.64892578125,0.02459999918937683,0,0.0,0.0,,,,,0,,1,,,111.984375,-79.890625,-10.015625
Raw,946018610,8228906000000,,,-1260194483631586304,0.0,4230.890888720751,-15.861644323693028,14.208382220978732,2798,24,0.0,15,404312467813820,27,24.1,222.8053436279297,0.6620000004768372,0,0.0,0.0,,,,,0,,1,,,111.984375,-79.890625,-10.015625
Raw,946018611,8228906000000,,,-1260194483631586304,0.0,4230.890888720751,-15.861644323693028,14.208382220978732,2798,27,0.0,15,404312454604576,31,23.9,347.8948974609375,0.67249995470047,0,0.0,0.0,,,,,0,,1,,,111.984375,-79.890625,-10.015625
Raw,946018611,8228906000000,,,-1260194483631586304,0.0,4230.890888720751,-15.861644323693028,14.208382220978732,2798,32,0.0,15,404312463725478,11,33.4,-389.6860656738281,0.023500001057982445,0,0.0,0.0,,,,,0,,1,,,111.984375,-79.890625,-10.015625
Raw,946019598,8229918000000,,,-1260194483631511040,0.0,4248.910583555698,-7.471127170860195,14.281003897702963,2799,10,0.0,15,404313479216031,12,32.6,-336.3025817871094,0.04990000277757645,0,0.0,0.0,,,,,0,,1,,,139.45312,-94.703125,-4.40625
Raw,946019598,8229918000000,,,-1260194483631511040,0.0,4248.910583555698,-7.471127170860195,14.281003897702963,2799,14,0.0,15,404313468461438,10,34.2,-501.05804443359375,0.029100000858306885,0,0.0,0.0,,,,,0,,1,,,139.45312,-94.703125,-4.40625
Raw,946019599,8229918000000,,,-1260194483631511040,0.0,4248.910583555698,-7.471127170860195,14.281003897702963,2799,15,0.0,15,404313469918088,40,21.3,579.330078125,0.8449999690055847,0,0.0,0.0,,,,,0,,1,,,139.45312,-94.703125,-4.40625
Raw,946019599,8229918000000,,,-1260194483631511040,0.0,4248.910583555698,-7.471127170860195,14.281003897702963,2799,20,0.0,15,404313482789276,40,21.6,-7.57368803024292,0.7744999527931213,0,0.0,0.0,,,,,0,,1,,,139.45312,-94.703125,-4.40625
Raw,946019600,8229918000000,,,-1260194483631511040,0.0,4248.910583555698,-7.471127170860195,14.281003897702963,2799,21,0.0,15,404313476938014,16,29.2,403.283935546875,0.053700000047683716,0,0.0,0.0,,,,,0,,1,,,139.45312,-94.703125,-4.40625
Raw,946019600,8229918000000,,,-1260194483631511040,0.0,4248.910583555698,-7.471127170860195,14.281003897702963,2799,24,0.0,15,404313479737278,31,23.0,217.85769653320312,0.7400000095367432,0,0.0,0.0,,,,,0,,1,,,139.45312,-94.703125,-4.40625
Raw,946019601,8229918000000,,,-1260194483631511040,0.0,4248.910583555698,-7.471127170860195,14.281003897702963,2799,27,0.0,15,404313466527500,31,23.9,343.59423828125,0.6604999899864197,0,0.0,0.0,,,,,0,,1,,,139.45312,-94.703125,-4.40625
Raw,946019601,8229918000000,,,-1260194483631511040,0.0,4248.910583555698,-7.471127170860195,14.281003897702963,2799,32,0.0,15,404313475650897,11,33.6,-392.69378662109375,0.04150000214576721,0,0.0,0.0,,,,,0,,1,,,139.45312,-94.703125,-4.40625
Raw,946020584,8230814000000,,,-1260194483631348224,0.0,4241.631366312504,-18.242895074762917,14.829494945163143,2800,10,0.0,15,404314375054718,9,35.7,-335.73651123046875,0.05700000002980232,0,0.0,0.0,,,,,0,,1,,,191.42188,-103.09375,-12.53125
Raw,946020584,8230814000000,,,-1260194483631348224,0.0,4241.631366312504,-18.242895074762917,14.829494945163143,2800,14,0.0,15,404314364300594,12,32.1,-500.8490905761719,0.08449999988079071,0,0.0,0.0,,,,,0,,1,,,191.42188,-103.09375,-12.53125
Raw,946020585,8230814000000,,,-1260194483631348224,0.0,4241.631366312504,-18.242895074762917,14.829494945163143,2800,15,0.0,15,404314365754096,16,29.6,581.2050170898438,0.11190000176429749,0,0.0,0.0,,,,,0,,1,,,191.42188,-103.09375,-12.53125
Raw,946020585,8230814000000,,,-1260194483631348224,0.0,4241.631366312504,-18.242895074762917,14.829494945163143,2800,21,0.0,15,404314372774570,21,26.0,403.1827087402344,0.2687000036239624,0,0.0,0.0,,,,,0,,1,,,191.42188,-103.09375,-12.53125
Raw,946020585,8230814000000,,,-1260194483631348224,0.0,4241.631366312504,-18.242895074762917,14.829494945163143,2800,24,0.0,15,404314375574406,16,29.4,220.1409912109375,0.09690000116825104,0,0.0,0.0,,,,,0,,1,,,191.42188,-103.09375,-12.53125
Raw,946020585,8230814000000,,,-1260194483631348224,0.0,4241.631366312504,-18.242895074762917,14.829494945163143,2800,27,0.0,15,404314362364169,13,31.7,345.73956298828125,0.08810000121593475,0,0.0,0.0,,,,,0,,1,,,191.42188,-103.09375,-12.53125
Raw,946020585,8230814000000,,,-1260194483631348224,0.0,4241.631366312504,-18.242895074762917,14.829494945163143,2800,32,0.0,15,404314371489742,9,35.4,-392.5011901855469,0.050999999046325684,0,0.0,0.0,,,,,0,,1,,,191.42188,-103.09375,-12.53125
Raw,946021597,8232010000000,,,-1260194483631051776,0.0,4279.3708853423595,-16.26947600457056,13.8639310774464,2801,8,0.0,15,404315556388972,27,24.9,84.62359619140625,0.6255000233650208,0,0.0,0.0,,,,,0,,1,,,204.09375,-91.921875,-1.796875
Raw,946021598,8232010000000,,,-1260194483631051776,0.0,4279.3708853423595,-16.26947600457056,13.8639310774464,2801,10,0.0,15,404315570759317,8,36.9,-333.6408386230469,0.045499999076128006,0,0.0,0.0,,,,,0,,1,,,204.09375,-91.921875,-1.796875
Raw,946021598,8232010000000,,,-1260194483631051776,0.0,4279.3708853423595,-16.26947600457056,13.8639310774464,2801,14,0.0,15,404315560005844,16,29.4,-498.5267639160156,0.10440000146627426,0,0.0,0.0,,,,,0,,1,,,204.09375,-91.921875,-1.796875
Raw,946021598,8232010000000,,,-1260194483631051776,0.0,4279.3708853423595,-16.26947600457056,13.8639310774464,2801,15,0.0,15,404315561454964,5,40.5,582.719482421875,0.05140000209212303,0,0.0,0.0,,,,,0,,1,,,204.09375,-91.921875,-1.796875
Raw,946021599,8232010000000,,,-1260194483631051776,0.0,4279.3708853423595,-16.26947600457056,13.8639310774464,2801,20,0.0,15,404315574330333,19,27.2,-4.829007625579834,0.18470001220703125,0,0.0,0.0,,,,,0,,1,,,204.09375,-91.921875,-1.796875
Raw,946021599,8232010000000,,,-1260194483631051776,0.0,4279.3708853423595,-16.26947600457056,13.8639310774464,2801,24,0.0,15,404315571276769,14,30.4,222.3372039794922,0.07999999821186066,0,0.0,0.0,,,,,0,,1,,,204.09375,-91.921875,-1.796875
Raw,946021600,8232010000000,,,-1260194483631051776,0.0,4279.3708853423595,-16.26947600457056,13.8639310774464,2801,27,0.0,15,404315558066011,12,32.7,348.2268981933594,0.0754999965429306,0,0.0,0.0,,,,,0,,1,,,204.09375,-91.921875,-1.796875
Raw,946021600,8232010000000,,,-1260194483631051776,0.0,4279.3708853423595,-16.26947600457056,13.8639310774464,2801,32,0.0,15,404315567194613,14,30.5,-390.0230407714844,0.07400000095367432,0,0.0,0.0,,,,,0,,1,,,204.09375,-91.921875,-1.796875
Raw,946022590,8233118000000,,,-1260194483630101504,0.0,4234.806634485722,-9.664055112455573,10.975484129368668,2802,10,0.0,15,404316677810544,11,33.9,-328.9669189453125,0.04450000077486038,0,0.0,0.0,,,,,0,,1,,,250.9375,-82.453125,-7.21875
Raw,946022591,8233118000000,,,-1260194483630101504,0.0,4234.806634485722,-9.664055112455573,10.975484129368668,2802,15,0.0,15,404316668502840,11,33.5,587.6499633789062,0.03100000135600567,0,0.0,0.0,,,,,0,,1,,,250.9375,-82.453125,-7.21875
Raw,946022591,8233118000000,,,-1260194483630101504,0.0,4234.806634485722,-9.664055112455573,10.975484129368668,2802,20,0.0,15,404316681380236,19,27.5,-0.07468029111623764,0.09510000050067902,0,0.0,0.0,,,,,0,,1,,,250.9375,-82.453125,-7.21875
Raw,946022592,8233118000000,,,-1260194483630101504,0.0,4234.806634485722,-9.664055112455573,10.975484129368668,2802,24,0.0,15,404316678326003,10,34.2,227.0843963623047,0.04410000145435333,0,0.0,0.0,,,,,0,,1,,,250.9375,-82.453125,-7.21875
Raw,946023584,8233911000000,,,-1260194483629478656,0.0,4198.022652417421,5.8474534150130975,10.902067173868275,2803,10,0.0,15,404317470188422,12,32.5,-332.1448669433594,0.036400001496076584,0,0.0,0.0,,,,,0,,1,,,258.53125,-86.625,3.109375
Raw,946023584,8233911000000,,,-1260194483629478656,0.0,4198.022652417421,5.8474534150130975,10.902067173868275,2803,15,0.0,15,404317460878346,16,29.4,581.503662109375,0.059700001031160355,0,0.0,0.0,,,,,0,,1,,,258.53125,-86.625,3.109375
Raw,946023584,8233911000000,,,-1260194483629478656,0.0,4198.022652417421,5.8474534150130975,10.902067173868275,2803,20,0.0,15,404317473757326,35,22.7,-5.347252368927002,0.7310000061988831,0,0.0,0.0,,,,,0,,1,,,258.53125,-86.625,3.109375
Raw,946023584,8233911000000,,,-1260194483629478656,0.0,4198.022652417421,5.8474534150130975,10.902067173868275,2803,21,0.0,15,404317467900544,24,25.3,404.7092590332031,0.1898999959230423,0,0.0,0.0,,,,,0,,1,,,258.53125,-86.625,3.109375
Raw,946023584,8233911000000,,,-1260194483629478656,0.0,4198.022652417421,5.8474534150130975,10.902067173868275,2803,24,0.0,15,404317470702473,11,33.1,223.0813446044922,0.03400000184774399,0,0.0,0.0,,,,,0,,1,,,258.53125,-86.625,3.109375
Raw,946023584,8233911000000,,,-1260194483629478656,0.0,4198.022652417421,5.8474534150130975,10.902067173868275,2803,27,0.0,15,404317457490662,40,21.6,349.731201171875,0.796999990940094,0,0.0,0.0,,,,,0,,1,,,258.53125,-86.625,3.109375
Raw,946023585,8233911000000,,,-1260194483629478656,0.0,4198.022652417421,5.8474534150130975,10.902067173868275,2803,32,0.0,15,404317466624049,21,26.8,-389.2513122558594,0.10669999569654465,0,0.0,0.0,,,,,0,,1,,,258.53125,-86.625,3.109375
Raw,946024592,8234926000000,,,-1260194483628881920,0.0,4242.341034114361,-8.40958873316403,18.540189367983803,2804,10,0.0,15,404318484592776,19,27.6,-335.2977294921875,0.06960000097751617,0,0.0,0.0,,,,,0,,1,,,297.60938,-86.890625,-1.5625
Raw,946024593,8234926000000,,,-1260194483628881920,0.0,4242.341034114361,-8.40958873316403,18.540189367983803,2804,15,0.0,15,404318475279547,6,39.6,581.2882080078125,0.03280000016093254,0,0.0,0.0,,,,,0,,1,,,297.60938,-86.890625,-1.5625
Raw,946024593,8234926000000,,,-1260194483628881920,0.0,4242.341034114361,-8.40958873316403,18.540189367983803,2804,20,0.0,15,404318488160512,35,22.7,-5.375796318054199,0.7234999537467957,0,0.0,0.0,,,,,0,,1,,,297.60938,-86.890625,-1.5625
