# 
# Header Description:
# 
# Version: v2.0.0.1 Platform: 8.0.0 Manufacturer: Xiaomi Model: MIX 2
# 
# Raw,ElapsedRealtimeMillis,TimeNanos,LeapSecond,TimeUncertaintyNanos,FullBiasNanos,BiasNanos,BiasUncertaintyNanos,DriftNanosPerSecond,DriftUncertaintyNanosPerSecond,HardwareClockDiscontinuityCount,Svid,TimeOffsetNanos,State,ReceivedSvTimeNanos,ReceivedSvTimeUncertaintyNanos,Cn0DbHz,PseudorangeRateMetersPerSecond,PseudorangeRateUncertaintyMetersPerSecond,AccumulatedDeltaRangeState,AccumulatedDeltaRangeMeters,AccumulatedDeltaRangeUncertaintyMeters,CarrierFrequencyHz,CarrierCycles,CarrierPhase,CarrierPhaseUncertainty,MultipathIndicator,SnrInDb,ConstellationType,AgcDb,CarrierFrequencyHz,AngleZ,AngleX,AngleY
# 
# Fix,Provider,Latitude,Longitude,Altitude,Speed,Accuracy,SpeedAccuracy,BearingAccuracy,TimeInMs
# 
# Nav,Svid,Type,Status,MessageId,Sub-messageId,Data(Bytes)
# 
Raw,946591704,8770678000000,,,-1260194514940120064,0.0,5151.562392711639,0.0,28.51461872369184,3279,15,0.0,15,404885537409200,9,35.7,587.0559692382812,0.6130000352859497,0,0.0,0.0,,,,,0,,1,,,195.15625,-83.3125,6.6875
Raw,946592610,8771498000000,,,-1260194514940120576,0.0,82.03324978239834,4.659220238036856,16.279327918049685,3279,10,0.0,15,404886368431140,16,29.8,-302.3956604003906,0.6115000247955322,0,0.0,0.0,,,,,0,,1,,,241.3125,-78.4375,1.40625
Raw,946592611,8771498000000,,,-1260194514940120576,0.0,82.03324978239834,4.659220238036856,16.279327918049685,3279,15,0.0,15,404886357407602,9,35.0,585.9998168945312,0.3630000054836273,0,0.0,0.0,,,,,0,,1,,,241.3125,-78.4375,1.40625
Raw,946592611,8771498000000,,,-1260194514940120576,0.0,82.03324978239834,4.659220238036856,16.279327918049685,3279,20,0.0,15,404886371355833,18,28.0,47.38312530517578,0.6869999766349792,0,0.0,0.0,,,,,0,,1,,,241.3125,-78.4375,1.40625
Raw,946592612,8771498000000,,,-1260194514940120576,0.0,82.03324978239834,4.659220238036856,16.279327918049685,3279,21,0.0,15,404886364724371,648,19.0,452.908447265625,1.3174999952316284,0,0.0,0.0,,,,,0,,1,,,241.3125,-78.4375,1.40625
Raw,946592612,8771498000000,,,-1260194514940120576,0.0,82.03324978239834,4.659220238036856,16.279327918049685,3279,24,0.0,15,404886367850575,13,31.0,294.0703125,0.5830000042915344,0,0.0,0.0,,,,,0,,1,,,241.3125,-78.4375,1.40625
Raw,946592613,8771498000000,,,-1260194514940120576,0.0,82.03324978239834,4.659220238036856,16.279327918049685,3279,27,0.0,15,404886354433190,562,19.5,385.17340087890625,1.2524999380111694,0,0.0,0.0,,,,,0,,1,,,241.3125,-78.4375,1.40625
Raw,946592613,8771498000000,,,-1260194514940120576,0.0,82.03324978239834,4.659220238036856,16.279327918049685,3279,32,0.0,15,404886364973246,27,24.2,-358.74163818359375,0.8675000071525574,0,0.0,0.0,,,,,0,,1,,,241.3125,-78.4375,1.40625
Raw,946593597,8772498000000,,,-1260194514940120576,0.0,62.65018600970507,0.5627789762478265,13.165723233421835,3279,10,0.0,15,404887368432179,17,28.2,-301.13214111328125,0.04529999941587448,0,0.0,0.0,,,,,0,,1,,,273.40625,-79.46875,0.109375
Raw,946593598,8772498000000,,,-1260194514940120576,0.0,62.65018600970507,0.5627789762478265,13.165723233421835,3279,14,0.0,15,404887358000923,865,17.2,-474.9729919433594,2.256999969482422,0,0.0,0.0,,,,,0,,1,,,273.40625,-79.46875,0.109375
Raw,946593598,8772498000000,,,-1260194514940120576,0.0,62.65018600970507,0.5627789762478265,13.165723233421835,3279,15,0.0,15,404887357405656,16,29.9,587.2158813476562,0.05220000073313713,0,0.0,0.0,,,,,0,,1,,,273.40625,-79.46875,0.109375
Raw,946593598,8772498000000,,,-1260194514940120576,0.0,62.65018600970507,0.5627789762478265,13.165723233421835,3279,20,0.0,15,404887371355663,16,29.3,48.67204666137695,0.04320000112056732,0,0.0,0.0,,,,,0,,1,,,273.40625,-79.46875,0.109375
Raw,946593599,8772498000000,,,-1260194514940120576,0.0,62.65018600970507,0.5627789762478265,13.165723233421835,3279,21,0.0,15,404887364722967,491,21.0,453.3651428222656,1.9175000190734863,0,0.0,0.0,,,,,0,,1,,,273.40625,-79.46875,0.109375
Raw,946593599,8772498000000,,,-1260194514940120576,0.0,62.65018600970507,0.5627789762478265,13.165723233421835,3279,24,0.0,15,404887367849575,17,28.5,295.1955261230469,0.043800000101327896,0,0.0,0.0,,,,,0,,1,,,273.40625,-79.46875,0.109375
Raw,946593600,8772498000000,,,-1260194514940120576,0.0,62.65018600970507,0.5627789762478265,13.165723233421835,3279,27,0.0,15,404887354431971,566,19.8,385.71575927734375,2.002500057220459,0,0.0,0.0,,,,,0,,1,,,273.40625,-79.46875,0.109375
Raw,946593600,8772498000000,,,-1260194514940120576,0.0,62.65018600970507,0.5627789762478265,13.165723233421835,3279,32,0.0,15,404887364974423,53,19.4,-357.86627197265625,1.002500057220459,0,0.0,0.0,,,,,0,,1,,,273.40625,-79.46875,0.109375
Raw,946594619,8773498000000,,,-1260194514940120576,0.0,59.9935301579535,3.989397086451764,11.310626534825996,3279,10,0.0,15,404888368433192,19,27.7,-301.24908447265625,0.053300000727176666,0,0.0,0.0,,,,,0,,1,,,317.71875,-81.578125,-1.265625
Raw,946594620,8773498000000,,,-1260194514940120576,0.0,59.9935301579535,3.989397086451764,11.310626534825996,3279,14,0.0,15,404888358002528,758,17.5,-475.1823425292969,2.9184999465942383,0,0.0,0.0,,,,,0,,1,,,317.71875,-81.578125,-1.265625
Raw,946594620,8773498000000,,,-1260194514940120576,0.0,59.9935301579535,3.989397086451764,11.310626534825996,3279,15,0.0,15,404888357403687,14,30.7,586.954345703125,0.05130000039935112,0,0.0,0.0,,,,,0,,1,,,317.71875,-81.578125,-1.265625
Raw,946594621,8773498000000,,,-1260194514940120576,0.0,59.9935301579535,3.989397086451764,11.310626534825996,3279,20,0.0,15,404888371355472,19,27.4,48.565128326416016,0.05780000239610672,0,0.0,0.0,,,,,0,,1,,,317.71875,-81.578125,-1.265625
Raw,946594622,8773498000000,,,-1260194514940120576,0.0,59.9935301579535,3.989397086451764,11.310626534825996,3279,21,0.0,15,404888364721502,12,32.3,453.93603515625,0.5674999952316284,0,0.0,0.0,,,,,0,,1,,,317.71875,-81.578125,-1.265625
Raw,946594623,8773498000000,,,-1260194514940120576,0.0,59.9935301579535,3.989397086451764,11.310626534825996,3279,24,0.0,15,404888367848610,11,33.7,295.1103210449219,0.033400002866983414,0,0.0,0.0,,,,,0,,1,,,317.71875,-81.578125,-1.265625
Raw,946594624,8773498000000,,,-1260194514940120576,0.0,59.9935301579535,3.989397086451764,11.310626534825996,3279,27,0.0,15,404888354430643,757,18.4,386.0773010253906,2.9125001430511475,0,0.0,0.0,,,,,0,,1,,,317.71875,-81.578125,-1.265625
Raw,946594624,8773498000000,,,-1260194514940120576,0.0,59.9935301579535,3.989397086451764,11.310626534825996,3279,32,0.0,15,404888364975546,40,21.7,-357.1526794433594,0.7924999594688416,0,0.0,0.0,,,,,0,,1,,,317.71875,-81.578125,-1.265625
Raw,946595605,8774498000000,,,-1260194514940120576,0.0,54.86905138241127,3.196618269120219,13.445803717532643,3279,10,0.0,15,404889368434198,26,27.7,-301.5679016113281,2.008500099182129,0,0.0,0.0,,,,,0,,1,,,348.20312,-80.09375,2.328125
Raw,946595606,8774498000000,,,-1260194514940120576,0.0,54.86905138241127,3.196618269120219,13.445803717532643,3279,14,0.0,15,404889358004180,767,18.4,-474.90643310546875,3.6685001850128174,0,0.0,0.0,,,,,0,,1,,,348.20312,-80.09375,2.328125
Raw,946595606,8774498000000,,,-1260194514940120576,0.0,54.86905138241127,3.196618269120219,13.445803717532643,3279,15,0.0,15,404889357401739,10,34.9,587.978759765625,0.047600001096725464,0,0.0,0.0,,,,,0,,1,,,348.20312,-80.09375,2.328125
Raw,946595606,8774498000000,,,-1260194514940120576,0.0,54.86905138241127,3.196618269120219,13.445803717532643,3279,20,0.0,15,404889371355325,27,24.8,49.181400299072266,0.6330000162124634,0,0.0,0.0,,,,,0,,1,,,348.20312,-80.09375,2.328125
Raw,946595606,8774498000000,,,-1260194514940120576,0.0,54.86905138241127,3.196618269120219,13.445803717532643,3279,21,0.0,15,404889364719978,12,32.7,454.3806457519531,0.029900001361966133,0,0.0,0.0,,,,,0,,1,,,348.20312,-80.09375,2.328125
Raw,946595607,8774498000000,,,-1260194514940120576,0.0,54.86905138241127,3.196618269120219,13.445803717532643,3279,24,0.0,15,404889367847634,12,32.8,296.1489562988281,0.03440000116825104,0,0.0,0.0,,,,,0,,1,,,348.20312,-80.09375,2.328125
Raw,946595607,8774498000000,,,-1260194514940120576,0.0,54.86905138241127,3.196618269120219,13.445803717532643,3279,27,0.0,15,404889354429344,767,18.3,386.1153869628906,3.6625001430511475,0,0.0,0.0,,,,,0,,1,,,348.20312,-80.09375,2.328125
Raw,946595607,8774498000000,,,-1260194514940120576,0.0,54.86905138241127,3.196618269120219,13.445803717532643,3279,32,0.0,15,404889364976862,31,23.0,-356.952880859375,0.7324999570846558,0,0.0,0.0,,,,,0,,1,,,348.20312,-80.09375,2.328125
Raw,946596618,8775498000000,,,-1260194514940120576,0.0,50.1440154039301,5.768679859315848,11.291474631338405,3279,10,0.0,15,404890368435099,37,22.5,-300.9684753417969,1.4884999990463257,0,0.0,0.0,,,,,0,,1,,,40.0625,-81.421875,-8.0625
Raw,946596619,8775498000000,,,-1260194514940120576,0.0,50.1440154039301,5.768679859315848,11.291474631338405,3279,12,0.0,15,404890355812009,488,21.3,-499.1593322753906,1.1690000295639038,0,0.0,0.0,,,,,0,,1,,,40.0625,-81.421875,-8.0625
Raw,946596619,8775498000000,,,-1260194514940120576,0.0,50.1440154039301,5.768679859315848,11.291474631338405,3279,14,0.0,15,404890358005897,11,34.3,-473.5933837890625,0.8615000247955322,0,0.0,0.0,,,,,0,,1,,,40.0625,-81.421875,-8.0625
Raw,946596620,8775498000000,,,-1260194514940120576,0.0,50.1440154039301,5.768679859315848,11.291474631338405,3279,15,0.0,15,404890357399784,16,29.9,587.3274536132812,0.05220000073313713,0,0.0,0.0,,,,,0,,1,,,40.0625,-81.421875,-8.0625
Raw,946596621,8775498000000,,,-1260194514940120576,0.0,50.1440154039301,5.768679859315848,11.291474631338405,3279,20,0.0,15,404890371355219,40,21.6,49.64761734008789,0.8029999732971191,0,0.0,0.0,,,,,0,,1,,,40.0625,-81.421875,-8.0625
Raw,946596621,8775498000000,,,-1260194514940120576,0.0,50.1440154039301,5.768679859315848,11.291474631338405,3279,21,0.0,15,404890364718490,12,32.2,454.2701110839844,0.029900001361966133,0,0.0,0.0,,,,,0,,1,,,40.0625,-81.421875,-8.0625
Raw,946596622,8775498000000,,,-1260194514940120576,0.0,50.1440154039301,5.768679859315848,11.291474631338405,3279,24,0.0,15,404890367846574,17,28.5,295.8776550292969,0.043800000101327896,0,0.0,0.0,,,,,0,,1,,,40.0625,-81.421875,-8.0625
Raw,946596622,8775498000000,,,-1260194514940120576,0.0,50.1440154039301,5.768679859315848,11.291474631338405,3279,27,0.0,15,404890354428094,10,35.5,386.92413330078125,0.82750004529953,0,0.0,0.0,,,,,0,,1,,,40.0625,-81.421875,-8.0625
Raw,946596625,8775498000000,,,-1260194514940120576,0.0,50.1440154039301,5.768679859315848,11.291474631338405,3279,32,0.0,15,404890364978162,12,32.5,-356.9612121582031,0.029900001361966133,0,0.0,0.0,,,,,0,,1,,,40.0625,-81.421875,-8.0625
Raw,946597604,8776498000000,,,-1260194514940120576,0.0,46.02723856805824,5.090130908998679,14.643999351737897,3279,8,0.0,15,404891353235968,1191,14.7,144.48046875,5.441000461578369,0,0.0,0.0,,,,,0,,1,,,71.765625,-82.296875,-5.375
Raw,946597605,8776498000000,,,-1260194514940120576,0.0,46.02723856805824,5.090130908998679,14.643999351737897,3279,10,0.0,15,404891368436187,35,22.9,-299.45562744140625,0.7384999990463257,0,0.0,0.0,,,,,0,,1,,,71.765625,-82.296875,-5.375
Raw,946597605,8776498000000,,,-1260194514940120576,0.0,46.02723856805824,5.090130908998679,14.643999351737897,3279,12,0.0,15,404891355813643,566,19.6,-498.6074523925781,1.9890000820159912,0,0.0,0.0,,,,,0,,1,,,71.765625,-82.296875,-5.375
Raw,946597605,8776498000000,,,-1260194514940120576,0.0,46.02723856805824,5.090130908998679,14.643999351737897,3279,14,0.0,15,404891358007486,12,32.9,-472.8952331542969,0.05090000107884407,0,0.0,0.0,,,,,0,,1,,,71.765625,-82.296875,-5.375
Raw,946597605,8776498000000,,,-1260194514940120576,0.0,46.02723856805824,5.090130908998679,14.643999351737897,3279,15,0.0,15,404891357397661,61,18.4,590.1768188476562,1.1019999980926514,0,0.0,0.0,,,,,0,,1,,,71.765625,-82.296875,-5.375
Raw,946597605,8776498000000,,,-1260194514940120576,0.0,46.02723856805824,5.090130908998679,14.643999351737897,3279,20,0.0,15,404891371355023,24,25.1,50.81864929199219,0.3982999920845032,0,0.0,0.0,,,,,0,,1,,,71.765625,-82.296875,-5.375
Raw,946597606,8776498000000,,,-1260194514940120576,0.0,46.02723856805824,5.090130908998679,14.643999351737897,3279,21,0.0,15,404891364716943,12,32.8,455.8821105957031,0.029900001361966133,0,0.0,0.0,,,,,0,,1,,,71.765625,-82.296875,-5.375
Raw,946597606,8776498000000,,,-1260194514940120576,0.0,46.02723856805824,5.090130908998679,14.643999351737897,3279,24,0.0,15,404891367845272,35,22.2,297.9142761230469,0.796999990940094,0,0.0,0.0,,,,,0,,1,,,71.765625,-82.296875,-5.375
Raw,946597606,8776498000000,,,-1260194514940120576,0.0,46.02723856805824,5.090130908998679,14.643999351737897,3279,27,0.0,15,404891354426781,7,37.5,387.9489440917969,0.041600000113248825,0,0.0,0.0,,,,,0,,1,,,71.765625,-82.296875,-5.375
Raw,946597606,8776498000000,,,-1260194514940120576,0.0,46.02723856805824,5.090130908998679,14.643999351737897,3279,32,0.0,15,404891364979360,9,35.7,-355.5054016113281,0.0276000015437603,0,0.0,0.0,,,,,0,,1,,,71.765625,-82.296875,-5.375
Raw,946598612,8777498000000,,,-1260194514940120576,0.0,47.73189721163362,9.582787164876883,16.396405678361504,3279,8,0.0,15,404892353235490,809,17.6,145.35581970214844,5.9110002517700195,0,0.0,0.0,,,,,0,,1,,,111.765625,-84.859375,-1.265625
Raw,946598613,8777498000000,,,-1260194514940120576,0.0,47.73189721163362,9.582787164876883,16.396405678361504,3279,10,0.0,15,404892368437260,14,30.0,-298.7248840332031,0.037800002843141556,0,0.0,0.0,,,,,0,,1,,,111.765625,-84.859375,-1.265625
Raw,946598613,8777498000000,,,-1260194514940120576,0.0,47.73189721163362,9.582787164876883,16.396405678361504,3279,12,0.0,15,404892355815285,757,17.5,-498.4933166503906,2.8989999294281006,0,0.0,0.0,,,,,0,,1,,,111.765625,-84.859375,-1.265625
Raw,946598614,8777498000000,,,-1260194514940120576,0.0,47.73189721163362,9.582787164876883,16.396405678361504,3279,14,0.0,15,404892358009099,16,29.1,-472.3148498535156,0.053700003772974014,0,0.0,0.0,,,,,0,,1,,,111.765625,-84.859375,-1.265625
Raw,946598615,8777498000000,,,-1260194514940120576,0.0,47.73189721163362,9.582787164876883,16.396405678361504,3279,20,0.0,15,404892371354813,27,24.9,50.836952209472656,0.6330000162124634,0,0.0,0.0,,,,,0,,1,,,111.765625,-84.859375,-1.265625
Raw,946598615,8777498000000,,,-1260194514940120576,0.0,47.73189721163362,9.582787164876883,16.396405678361504,3279,21,0.0,15,404892364715433,16,29.2,456.4423522949219,0.03270000219345093,0,0.0,0.0,,,,,0,,1,,,111.765625,-84.859375,-1.265625
Raw,946598616,8777498000000,,,-1260194514940120576,0.0,47.73189721163362,9.582787164876883,16.396405678361504,3279,24,0.0,15,404892367844159,35,22.6,298.4851379394531,0.7369999885559082,0,0.0,0.0,,,,,0,,1,,,111.765625,-84.859375,-1.265625
Raw,946598616,8777498000000,,,-1260194514940120576,0.0,47.73189721163362,9.582787164876883,16.396405678361504,3279,27,0.0,15,404892354425496,9,35.8,388.4619445800781,0.04260000213980675,0,0.0,0.0,,,,,0,,1,,,111.765625,-84.859375,-1.265625
Raw,946598617,8777498000000,,,-1260194514940120576,0.0,47.73189721163362,9.582787164876883,16.396405678361504,3279,32,0.0,15,404892364980541,9,35.7,-355.0625305175781,0.0276000015437603,0,0.0,0.0,,,,,0,,1,,,111.765625,-84.859375,-1.265625
Raw,946599622,8778498000000,,,-1260194514940120576,0.0,47.90586535818875,10.761559705531873,15.532375051997674,3279,8,0.0,15,404893353235037,828,17.8,145.36534118652344,6.6610002517700195,0,0.0,0.0,,,,,0,,1,,,175.01562,-80.796875,-8.71875
Raw,946599623,8778498000000,,,-1260194514940120576,0.0,47.90586535818875,10.761559705531873,15.532375051997674,3279,10,0.0,15,404893368438229,11,33.9,-300.30340576171875,0.03490000218153,0,0.0,0.0,,,,,0,,1,,,175.01562,-80.796875,-8.71875
Raw,946599624,8778498000000,,,-1260194514940120576,0.0,47.90586535818875,10.761559705531873,15.532375051997674,3279,14,0.0,15,404893358010676,17,28.1,-474.03314208984375,0.06030000001192093,0,0.0,0.0,,,,,0,,1,,,175.01562,-80.796875,-8.71875
Raw,946599624,8778498000000,,,-1260194514940120576,0.0,47.90586535818875,10.761559705531873,15.532375051997674,3279,15,0.0,15,404893357393884,318,23.9,588.1311645507812,0.8420000076293945,0,0.0,0.0,,,,,0,,1,,,175.01562,-80.796875,-8.71875
Raw,946599625,8778498000000,,,-1260194514940120576,0.0,47.90586535818875,10.761559705531873,15.532375051997674,3279,20,0.0,15,404893371354715,31,23.3,49.79985427856445,0.7429999709129333,0,0.0,0.0,,,,,0,,1,,,175.01562,-80.796875,-8.71875
Raw,946599625,8778498000000,,,-1260194514940120576,0.0,47.90586535818875,10.761559705531873,15.532375051997674,3279,21,0.0,15,404893364713870,19,27.2,454.7975158691406,0.047300003468990326,0,0.0,0.0,,,,,0,,1,,,175.01562,-80.796875,-8.71875
Raw,946599626,8778498000000,,,-1260194514940120576,0.0,47.90586535818875,10.761559705531873,15.532375051997674,3279,24,0.0,15,404893367843635,21,26.3,296.8638000488281,0.12170000374317169,0,0.0,0.0,,,,,0,,1,,,175.01562,-80.796875,-8.71875
Raw,946599627,8778498000000,,,-1260194514940120576,0.0,47.90586535818875,10.761559705531873,15.532375051997674,3279,27,0.0,15,404893354424194,11,33.7,386.79986572265625,0.04390000179409981,0,0.0,0.0,,,,,0,,1,,,175.01562,-80.796875,-8.71875
Raw,946599627,8778498000000,,,-1260194514940120576,0.0,47.90586535818875,10.761559705531873,15.532375051997674,3279,32,0.0,15,404893364981724,10,34.8,-356.7188415527344,0.02810000069439411,0,0.0,0.0,,,,,0,,1,,,175.01562,-80.796875,-8.71875
Raw,946600614,8779498000000,,,-1260194514940120576,0.0,45.16202898230404,6.388033029207994,12.80219096621299,3279,8,0.0,15,404894353234561,850,17.5,145.24163818359375,7.4110002517700195,0,0.0,0.0,,,,,0,,1,,,222.625,-101.3125,-11.3125
Raw,946600614,8779498000000,,,-1260194514940120576,0.0,45.16202898230404,6.388033029207994,12.80219096621299,3279,10,0.0,15,404894368439190,8,36.5,-301.3638610839844,0.03319999948143959,0,0.0,0.0,,,,,0,,1,,,222.625,-101.3125,-11.3125
Raw,946600615,8779498000000,,,-1260194514940120576,0.0,45.16202898230404,6.388033029207994,12.80219096621299,3279,14,0.0,15,404894358012249,35,22.5,-474.7637023925781,0.7534999847412109,0,0.0,0.0,,,,,0,,1,,,222.625,-101.3125,-11.3125
Raw,946600615,8779498000000,,,-1260194514940120576,0.0,45.16202898230404,6.388033029207994,12.80219096621299,3279,15,0.0,15,404894357391930,8,36.2,586.799072265625,0.34299999475479126,0,0.0,0.0,,,,,0,,1,,,222.625,-101.3125,-11.3125
Raw,946600617,8779498000000,,,-1260194514940120576,0.0,45.16202898230404,6.388033029207994,12.80219096621299,3279,20,0.0,15,404894371354532,31,23.3,48.372650146484375,0.7429999709129333,0,0.0,0.0,,,,,0,,1,,,222.625,-101.3125,-11.3125
Raw,946600618,8779498000000,,,-1260194514940120576,0.0,45.16202898230404,6.388033029207994,12.80219096621299,3279,21,0.0,15,404894364712170,53,19.8,453.84088134765625,0.92249995470047,0,0.0,0.0,,,,,0,,1,,,222.625,-101.3125,-11.3125
Raw,946600618,8779498000000,,,-1260194514940120576,0.0,45.16202898230404,6.388033029207994,12.80219096621299,3279,24,0.0,15,404894367842699,12,32.8,295.40496826171875,0.03440000116825104,0,0.0,0.0,,,,,0,,1,,,222.625,-101.3125,-11.3125
Raw,946600619,8779498000000,,,-1260194514940120576,0.0,45.16202898230404,6.388033029207994,12.80219096621299,3279,27,0.0,15,404894354422918,14,30.9,385.8554382324219,0.046800002455711365,0,0.0,0.0,,,,,0,,1,,,222.625,-101.3125,-11.3125
Raw,946600620,8779498000000,,,-1260194514940120576,0.0,45.16202898230404,6.388033029207994,12.80219096621299,3279,32,0.0,15,404894364982907,13,31.8,-357.6455078125,0.031200001016259193,0,0.0,0.0,,,,,0,,1,,,222.625,-101.3125,-11.3125
Raw,946601621,8780817000000,,,-1260194514939610624,0.0,4113.160539418459,9.91722733917486,9.920922999647695,3280,10,0.0,15,404895686930880,11,33.4,-296.2211608886719,0.02800000086426735,0,0.0,0.0,,,,,0,,1,,,259.34375,-85.875,-2.90625
Raw,946601622,8780817000000,,,-1260194514939610624,0.0,4113.160539418459,9.91722733917486,9.920922999647695,3280,12,0.0,15,404895674311138,40,21.4,-493.47906494140625,0.8524999618530273,0,0.0,0.0,,,,,0,,1,,,259.34375,-85.875,-2.90625
Raw,946601623,8780817000000,,,-1260194514939610624,0.0,4113.160539418459,9.91722733917486,9.920922999647695,3280,15,0.0,15,404895675879695,8,36.0,591.5187377929688,0.0364999994635582,0,0.0,0.0,,,,,0,,1,,,259.34375,-85.875,-2.90625
Raw,946601623,8780817000000,,,-1260194514939610624,0.0,4113.160539418459,9.91722733917486,9.920922999647695,3280,20,0.0,15,404895689844641,17,28.7,53.7196159362793,0.05429999902844429,0,0.0,0.0,,,,,0,,1,,,259.34375,-85.875,-2.90625
Raw,946601624,8780817000000,,,-1260194514939610624,0.0,4113.160539418459,9.91722733917486,9.920922999647695,3280,24,0.0,15,404895686331717,6,39.3,300.5498046875,0.019300000742077827,0,0.0,0.0,,,,,0,,1,,,259.34375,-85.875,-2.90625
Raw,946601625,8780817000000,,,-1260194514939610624,0.0,4113.160539418459,9.91722733917486,9.920922999647695,3280,27,0.0,15,404895672911445,35,22.2,390.5968017578125,0.7894999980926514,0,0.0,0.0,,,,,0,,1,,,259.34375,-85.875,-2.90625
Raw,946601625,8780817000000,,,-1260194514939610624,0.0,4113.160539418459,9.91722733917486,9.920922999647695,3280,32,0.0,15,404895683474803,16,29.3,-352.6546325683594,0.06419999897480011,0,0.0,0.0,,,,,0,,1,,,259.34375,-85.875,-2.90625
Raw,946602614,8781607000000,,,-1260194514939130368,0.0,4130.669869482517,18.06209162611704,10.659327414134713,3281,10,0.0,15,404896476451428,35,22.0,-296.1730651855469,0.7954999804496765,0,0.0,0.0,,,,,0,,1,,,299.0,-80.359375,-8.515625
Raw,946602615,8781607000000,,,-1260194514939130368,0.0,4130.669869482517,18.06209162611704,10.659327414134713,3281,12,0.0,15,404896463832280,46,20.2,-493.7454833984375,0.9359999895095825,0,0.0,0.0,,,,,0,,1,,,299.0,-80.359375,-8.515625
Raw,946602616,8781607000000,,,-1260194514939130368,0.0,4130.669869482517,18.06209162611704,10.659327414134713,3281,14,0.0,15,404896466025313,31,23.4,-470.1205139160156,0.7204999923706055,0,0.0,0.0,,,,,0,,1,,,299.0,-80.359375,-8.515625
Raw,946602616,8781607000000,,,-1260194514939130368,0.0,4130.669869482517,18.06209162611704,10.659327414134713,3281,15,0.0,15,404896465397974,13,31.3,591.6802978515625,0.031300000846385956,0,0.0,0.0,,,,,0,,1,,,299.0,-80.359375,-8.515625
Raw,946602617,8781607000000,,,-1260194514939130368,0.0,4130.669869482517,18.06209162611704,10.659327414134713,3281,20,0.0,15,404896479364229,14,30.6,53.95322036743164,0.05530000105500221,0,0.0,0.0,,,,,0,,1,,,299.0,-80.359375,-8.515625
Raw,946602618,8781607000000,,,-1260194514939130368,0.0,4130.669869482517,18.06209162611704,10.659327414134713,3281,21,0.0,15,404896472719371,24,25.7,458.947265625,0.19740000367164612,0,0.0,0.0,,,,,0,,1,,,299.0,-80.359375,-8.515625
Raw,946602618,8781607000000,,,-1260194514939130368,0.0,4130.669869482517,18.06209162611704,10.659327414134713,3281,24,0.0,15,404896475850723,9,35.1,300.7539367675781,0.03750000149011612,0,0.0,0.0,,,,,0,,1,,,299.0,-80.359375,-8.515625
Raw,946603605,8782595000000,,,-1260194514938890752,0.0,4167.723935097456,18.67472985966264,11.169692001786796,3282,15,0.0,15,404897453156035,10,34.6,576.4756469726562,0.29100000858306885,0,0.0,0.0,,,,,0,,1,,,336.20312,-79.65625,-10.0625
Raw,946603606,8782595000000,,,-1260194514938890752,0.0,4167.723935097456,18.67472985966264,11.169692001786796,3282,20,0.0,15,404897467124130,17,28.4,38.91111755371094,0.05130000039935112,0,0.0,0.0,,,,,0,,1,,,336.20312,-79.65625,-10.0625
Raw,946603607,8782595000000,,,-1260194514938890752,0.0,4167.723935097456,18.67472985966264,11.169692001786796,3282,21,0.0,15,404897460477884,13,31.2,444.0556335449219,0.05380000174045563,0,0.0,0.0,,,,,0,,1,,,336.20312,-79.65625,-10.0625
Raw,946603607,8782595000000,,,-1260194514938890752,0.0,4167.723935097456,18.67472985966264,11.169692001786796,3282,24,0.0,15,404897463609816,10,34.0,285.9524230957031,0.02160000056028366,0,0.0,0.0,,,,,0,,1,,,336.20312,-79.65625,-10.0625
Raw,946604617,8783609000000,,,-1260194514938311168,0.0,4175.444133579731,-31.045179883871494,26.178724311784162,3283,10,0.0,15,404898477633934,27,24.2,-322.5953369140625,0.6769999861717224,0,0.0,0.0,,,,,0,,1,,,5.96875,-80.203125,-5.40625
Raw,946604617,8783609000000,,,-1260194514938311168,0.0,4175.444133579731,-31.045179883871494,26.178724311784162,3283,14,0.0,15,404898467209315,21,26.3,-497.7345886230469,0.10819999873638153,0,0.0,0.0,,,,,0,,1,,,5.96875,-80.203125,-5.40625
Raw,946604618,8783609000000,,,-1260194514938311168,0.0,4175.444133579731,-31.045179883871494,26.178724311784162,3283,15,0.0,15,404898466574486,10,34.2,564.4816284179688,0.026100000366568565,0,0.0,0.0,,,,,0,,1,,,5.96875,-80.203125,-5.40625
Raw,946604619,8783609000000,,,-1260194514938311168,0.0,4175.444133579731,-31.045179883871494,26.178724311784162,3283,20,0.0,15,404898480544439,17,28.1,26.835559844970703,0.07079999893903732,0,0.0,0.0,,,,,0,,1,,,5.96875,-80.203125,-5.40625
Raw,946604619,8783609000000,,,-1260194514938311168,0.0,4175.444133579731,-31.045179883871494,26.178724311784162,3283,21,0.0,15,404898473896798,11,33.9,431.3760986328125,0.03849999979138374,0,0.0,0.0,,,,,0,,1,,,5.96875,-80.203125,-5.40625
Raw,946604620,8783609000000,,,-1260194514938311168,0.0,4175.444133579731,-31.045179883871494,26.178724311784162,3283,24,0.0,15,404898477029241,11,33.3,273.31854248046875,0.04450000077486038,0,0.0,0.0,,,,,0,,1,,,5.96875,-80.203125,-5.40625
Raw,946604621,8783609000000,,,-1260194514938311168,0.0,4175.444133579731,-31.045179883871494,26.178724311784162,3283,27,0.0,15,404898463608185,24,25.2,363.5654296875,0.18389999866485596,0,0.0,0.0,,,,,0,,1,,,5.96875,-80.203125,-5.40625
Raw,946604622,8783609000000,,,-1260194514938311168,0.0,4175.444133579731,-31.045179883871494,26.178724311784162,3283,32,0.0,15,404898474178375,17,28.4,-380.5563659667969,0.061799999326467514,0,0.0,0.0,,,,,0,,1,,,5.96875,-80.203125,-5.40625
Raw,946605617,8784604000000,,,-1260194514937403648,0.0,4164.015408605337,-72.71647395434874,18.738078585856794,3284,14,0.0,15,404899461303850,13,31.2,-471.2337341308594,0.40299999713897705,0,0.0,0.0,,,,,0,,1,,,58.515625,-78.140625,-10.84375
Raw,946605618,8784604000000,,,-1260194514937403648,0.0,4164.015408605337,-72.71647395434874,18.738078585856794,3284,15,0.0,15,404899460665338,40,21.6,590.5003051757812,0.8014999628067017,0,0.0,0.0,,,,,0,,1,,,58.515625,-78.140625,-10.84375
Raw,946605619,8784604000000,,,-1260194514937403648,0.0,4164.015408605337,-72.71647395434874,18.738078585856794,3284,20,0.0,15,404899474637144,35,22.0,53.738929748535156,0.7924999594688416,0,0.0,0.0,,,,,0,,1,,,58.515625,-78.140625,-10.84375
Raw,946605619,8784604000000,,,-1260194514937403648,0.0,4164.015408605337,-72.71647395434874,18.738078585856794,3284,21,0.0,15,404899467988262,17,28.1,457.9131774902344,0.4919999837875366,0,0.0,0.0,,,,,0,,1,,,58.515625,-78.140625,-10.84375
Raw,946605620,8784604000000,,,-1260194514937403648,0.0,4164.015408605337,-72.71647395434874,18.738078585856794,3284,24,0.0,15,404899471120976,31,23.1,295.53558349609375,0.7279999852180481,0,0.0,0.0,,,,,0,,1,,,58.515625,-78.140625,-10.84375
Raw,946605621,8784604000000,,,-1260194514937403648,0.0,4164.015408605337,-72.71647395434874,18.738078585856794,3284,27,0.0,15,404899457699891,11,33.7,390.7109680175781,0.31700000166893005,0,0.0,0.0,,,,,0,,1,,,58.515625,-78.140625,-10.84375
Raw,946605621,8784604000000,,,-1260194514937403648,0.0,4164.015408605337,-72.71647395434874,18.738078585856794,3284,32,0.0,15,404899468272501,9,35.0,-353.28973388671875,0.2835000157356262,0,0.0,0.0,,,,,0,,1,,,58.515625,-78.140625,-10.84375
Raw,946606617,8785619000000,,,-1260194514937164032,0.0,4183.181561529636,16.502791710806573,17.291407641384282,3285,8,0.0,15,404900471275407,35,22.5,137.74407958984375,0.7279999852180481,0,0.0,0.0,,,,,0,,1,,,93.21875,-80.59375,-8.09375
Raw,946606618,8785619000000,,,-1260194514937164032,0.0,4183.181561529636,16.502791710806573,17.291407641384282,3285,10,0.0,15,404900486489064,27,24.1,-305.67822265625,0.6604999899864197,0,0.0,0.0,,,,,0,,1,,,93.21875,-80.59375,-8.09375
Raw,946606619,8785619000000,,,-1260194514937164032,0.0,4183.181561529636,16.502791710806573,17.291407641384282,3285,14,0.0,15,404900476065713,14,30.2,-482.0530700683594,0.05079999938607216,0,0.0,0.0,,,,,0,,1,,,93.21875,-80.59375,-8.09375
Raw,946606620,8785619000000,,,-1260194514937164032,0.0,4183.181561529636,16.502791710806573,17.291407641384282,3285,20,0.0,15,404900489397372,31,23.5,42.825592041015625,0.6649999618530273,0,0.0,0.0,,,,,0,,1,,,93.21875,-80.59375,-8.09375
Raw,946606620,8785619000000,,,-1260194514937164032,0.0,4183.181561529636,16.502791710806573,17.291407641384282,3285,21,0.0,15,404900482746853,14,30.9,448.70684814453125,0.059800002723932266,0,0.0,0.0,,,,,0,,1,,,93.21875,-80.59375,-8.09375
Raw,946606621,8785619000000,,,-1260194514937164032,0.0,4183.181561529636,16.502791710806573,17.291407641384282,3285,27,0.0,15,404900472458790,9,35.7,380.83685302734375,0.032999999821186066,0,0.0,0.0,,,,,0,,1,,,93.21875,-80.59375,-8.09375
Raw,946606621,8785619000000,,,-1260194514937164032,0.0,4183.181561529636,16.502791710806573,17.291407641384282,3285,32,0.0,15,404900483033982,11,33.6,-363.15093994140625,0.05350000038743019,0,0.0,0.0,,,,,0,,1,,,93.21875,-80.59375,-8.09375
Raw,946607626,8786507000000,,,-1260194514936968448,0.0,4213.6614210903645,-15.288924313038223,14.8973544925757,3286,8,0.0,15,404901359079386,27,24.1,148.65740966796875,0.6800000071525574,0,0.0,0.0,,,,,0,,1,,,133.92188,-81.34375,-4.6875
Raw,946607626,8786507000000,,,-1260194514936968448,0.0,4213.6614210903645,-15.288924313038223,14.8973544925757,3286,10,0.0,15,404901374294307,11,33.8,-295.60870361328125,0.0642000064253807,0,0.0,0.0,,,,,0,,1,,,133.92188,-81.34375,-4.6875
Raw,946607627,8786507000000,,,-1260194514936968448,0.0,4213.6614210903645,-15.288924313038223,14.8973544925757,3286,14,0.0,15,404901363871384,16,29.2,-469.345947265625,0.07889999449253082,0,0.0,0.0,,,,,0,,1,,,133.92188,-81.34375,-4.6875
Raw,946607627,8786507000000,,,-1260194514936968448,0.0,4213.6614210903645,-15.288924313038223,14.8973544925757,3286,20,0.0,15,404901377201446,27,24.4,55.01390075683594,0.6769999861717224,0,0.0,0.0,,,,,0,,1,,,133.92188,-81.34375,-4.6875
Raw,946607628,8786507000000,,,-1260194514936968448,0.0,4213.6614210903645,-15.288924313038223,14.8973544925757,3286,21,0.0,15,404901370549875,19,27.9,459.9129333496094,0.17870000004768372,0,0.0,0.0,,,,,0,,1,,,133.92188,-81.34375,-4.6875
Raw,946607628,8786507000000,,,-1260194514936968448,0.0,4213.6614210903645,-15.288924313038223,14.8973544925757,3286,24,0.0,15,404901373683651,21,26.0,301.56707763671875,0.2702000141143799,0,0.0,0.0,,,,,0,,1,,,133.92188,-81.34375,-4.6875
Raw,946607629,8786507000000,,,-1260194514936968448,0.0,4213.6614210903645,-15.288924313038223,14.8973544925757,3286,27,0.0,15,404901360261950,10,34.2,391.7090759277344,0.06859999895095825,0,0.0,0.0,,,,,0,,1,,,133.92188,-81.34375,-4.6875
Raw,946607629,8786507000000,,,-1260194514936968448,0.0,4213.6614210903645,-15.288924313038223,14.8973544925757,3286,32,0.0,15,404901370839348,10,34.3,-351.887451171875,0.053599998354911804,0,0.0,0.0,,,,,0,,1,,,133.92188,-81.34375,-4.6875
Raw,946608622,8787722000000,,,-1260194514936397824,0.0,4269.693978130817,20.307950937217594,13.756331449588906,3287,10,0.0,15,404902588724813,13,31.8,-296.5948486328125,0.06709999591112137,0,0.0,0.0,,,,,0,,1,,,182.03125,-78.203125,-11.59375
Raw,946608623,8787722000000,,,-1260194514936397824,0.0,4269.693978130817,20.307950937217594,13.756331449588906,3287,14,0.0,15,404902578302642,19,27.7,-470.6394958496094,0.1907000094652176,0,0.0,0.0,,,,,0,,1,,,182.03125,-78.203125,-11.59375
Raw,946608624,8787722000000,,,-1260194514936397824,0.0,4269.693978130817,20.307950937217594,13.756331449588906,3287,15,0.0,15,404902577653203,12,32.7,590.9703369140625,0.07400000095367432,0,0.0,0.0,,,,,0,,1,,,182.03125,-78.203125,-11.59375
Raw,946608624,8787722000000,,,-1260194514936397824,0.0,4269.693978130817,20.307950937217594,13.756331449588906,3287,20,0.0,15,404902591630519,19,27.7,53.66059494018555,0.1802000105381012,0,0.0,0.0,,,,,0,,1,,,182.03125,-78.203125,-11.59375
Raw,946608625,8787722000000,,,-1260194514936397824,0.0,4269.693978130817,20.307950937217594,13.756331449588906,3287,21,0.0,15,404902584977101,17,28.6,459.1881408691406,0.44749999046325684,0,0.0,0.0,,,,,0,,1,,,182.03125,-78.203125,-11.59375
Raw,946608625,8787722000000,,,-1260194514936397824,0.0,4269.693978130817,20.307950937217594,13.756331449588906,3287,24,0.0,15,404902588111931,17,28.8,300.7445373535156,0.10939999669790268,0,0.0,0.0,,,,,0,,1,,,182.03125,-78.203125,-11.59375
Raw,946608626,8787722000000,,,-1260194514936397824,0.0,4269.693978130817,20.307950937217594,13.756331449588906,3287,27,0.0,15,404902574689707,10,34.0,390.39141845703125,0.05959999933838844,0,0.0,0.0,,,,,0,,1,,,182.03125,-78.203125,-11.59375
Raw,946608626,8787722000000,,,-1260194514936397824,0.0,4269.693978130817,20.307950937217594,13.756331449588906,3287,32,0.0,15,404902585270064,9,35.6,-353.0872802734375,0.041999999433755875,0,0.0,0.0,,,,,0,,1,,,182.03125,-78.203125,-11.59375
Raw,946609621,8788717000000,,,-1260194514935523584,0.0,4236.6283014416695,16.121818184757664,12.628808263827505,3288,10,0.0,15,404903582851498,10,34.6,-296.09405517578125,0.07159999758005142,0,0.0,0.0,,,,,0,,1,,,220.125,-83.046875,-6.375
Raw,946609623,8788717000000,,,-1260194514935523584,0.0,4236.6283014416695,16.121818184757664,12.628808263827505,3288,15,0.0,15,404903571776912,6,39.5,591.1500854492188,0.03840000182390213,0,0.0,0.0,,,,,0,,1,,,220.125,-83.046875,-6.375
Raw,946609624,8788717000000,,,-1260194514935523584,0.0,4236.6283014416695,16.121818184757664,12.628808263827505,3288,20,0.0,15,404903585756089,21,26.4,54.281959533691406,0.2581999897956848,0,0.0,0.0,,,,,0,,1,,,220.125,-83.046875,-6.375
Raw,946609625,8788717000000,,,-1260194514935523584,0.0,4236.6283014416695,16.121818184757664,12.628808263827505,3288,24,0.0,15,404903582236625,9,35.9,301.17059326171875,0.06750000268220901,0,0.0,0.0,,,,,0,,1,,,220.125,-83.046875,-6.375
Raw,946609625,8788717000000,,,-1260194514935523584,0.0,4236.6283014416695,16.121818184757664,12.628808263827505,3288,27,0.0,15,404903568814146,17,28.3,391.048095703125,0.10939999669790268,0,0.0,0.0,,,,,0,,1,,,220.125,-83.046875,-6.375
Raw,946609626,8788717000000,,,-1260194514935523584,0.0,4236.6283014416695,16.121818184757664,12.628808263827505,3288,32,0.0,15,404903579396930,14,30.1,-352.4658508300781,0.09200000017881393,0,0.0,0.0,,,,,0,,1,,,220.125,-83.046875,-6.375
Raw,946610611,8789710000000,,,-1260194514934671872,0.0,4236.479289829731,17.316557537401707,9.773003533117441,3289,10,0.0,15,404904575000944,10,34.3,-294.5781555175781,0.06109999865293503,0,0.0,0.0,,,,,0,,1,,,263.46875,-77.625,-11.75
Raw,946610611,8789710000000,,,-1260194514934671872,0.0,4236.479289829731,17.316557537401707,9.773003533117441,3289,15,0.0,15,404904563923490,8,36.2,592.6314697265625,0.06499999761581421,0,0.0,0.0,,,,,0,,1,,,263.46875,-77.625,-11.75
Raw,946610612,8789710000000,,,-1260194514934671872,0.0,4236.479289829731,17.316557537401707,9.773003533117441,3289,20,0.0,15,404904577904341,13,31.6,55.5508918762207,0.08060000091791153,0,0.0,0.0,,,,,0,,1,,,263.46875,-77.625,-11.75
Raw,946610613,8789710000000,,,-1260194514934671872,0.0,4236.479289829731,17.316557537401707,9.773003533117441,3289,24,0.0,15,404904574384143,8,36.3,302.8359375,0.051500000059604645,0,0.0,0.0,,,,,0,,1,,,263.46875,-77.625,-11.75
Raw,946610614,8789710000000,,,-1260194514934671872,0.0,4236.479289829731,17.316557537401707,9.773003533117441,3289,32,0.0,15,404904571546596,21,26.7,-350.91455078125,0.2671999931335449,0,0.0,0.0,,,,,0,,1,,,263.46875,-77.625,-11.75
Raw,946611615,8790821000000,,,-1260194514934275840,0.0,4249.524790793657,21.916966909941205,17.925558165825134,3290,10,0.0,15,404905685605906,31,23.7,-295.9447326660156,0.6589999794960022,0,0.0,0.0,,,,,0,,1,,,309.1875,-100.515625,-10.515625
Raw,946611616,8790821000000,,,-1260194514934275840,0.0,4249.524790793657,21.916966909941205,17.925558165825134,3290,12,0.0,15,404905672992857,40,21.0,-493.18408203125,0.8495000004768372,0,0.0,0.0,,,,,0,,1,,,309.1875,-100.515625,-10.515625
Raw,946611616,8790821000000,,,-1260194514934275840,0.0,4249.524790793657,21.916966909941205,17.925558165825134,3290,15,0.0,15,404905674525177,9,35.5,590.5287475585938,0.036000002175569534,0,0.0,0.0,,,,,0,,1,,,309.1875,-100.515625,-10.515625
Raw,946611617,8790821000000,,,-1260194514934275840,0.0,4249.524790793657,21.916966909941205,17.925558165825134,3290,20,0.0,15,404905688508054,16,29.1,53.74469757080078,0.04170000180602074,0,0.0,0.0,,,,,0,,1,,,309.1875,-100.515625,-10.515625
Raw,946611618,8790821000000,,,-1260194514934275840,0.0,4249.524790793657,21.916966909941205,17.925558165825134,3290,21,0.0,15,404905681850622,14,30.4,458.71905517578125,0.05829999968409538,0,0.0,0.0,,,,,0,,1,,,309.1875,-100.515625,-10.515625
Raw,946611618,8790821000000,,,-1260194514934275840,0.0,4249.524790793657,21.916966909941205,17.925558165825134,3290,24,0.0,15,404905684986941,8,36.2,300.64312744140625,0.020000001415610313,0,0.0,0.0,,,,,0,,1,,,309.1875,-100.515625,-10.515625
Raw,946612602,8791614000000,,,-1260194514933483520,0.0,4205.042030662298,15.59410777171866,12.064688397858141,3291,15,0.0,15,404906466731302,7,37.0,589.8810424804688,0.02160000056028366,0,0.0,0.0,,,,,0,,1,,,340.45312,-82.578125,-4.984375
Raw,946612603,8791614000000,,,-1260194514933483520,0.0,4205.042030662298,15.59410777171866,12.064688397858141,3291,20,0.0,15,404906480715589,17,28.1,52.895931243896484,0.07079999893903732,0,0.0,0.0,,,,,0,,1,,,340.45312,-82.578125,-4.984375
Raw,946612604,8791614000000,,,-1260194514933483520,0.0,4205.042030662298,15.59410777171866,12.064688397858141,3291,21,0.0,15,404906474057147,10,34.2,457.4513854980469,0.038100000470876694,0,0.0,0.0,,,,,0,,1,,,340.45312,-82.578125,-4.984375
Raw,946612605,8791614000000,,,-1260194514933483520,0.0,4205.042030662298,15.59410777171866,12.064688397858141,3291,24,0.0,15,404906477193815,10,34.8,300.11968994140625,0.04260000213980675,0,0.0,0.0,,,,,0,,1,,,340.45312,-82.578125,-4.984375
Raw,946613625,8792626000000,,,-1260194514932583936,0.0,4190.0379583239555,11.544384416061556,11.368664389352924,3292,14,0.0,15,404907478496491,10,34.4,-469.75445556640625,0.04410000145435333,0,0.0,0.0,,,,,0,,1,,,43.984375,-74.359375,-15.296875
Raw,946613626,8792626000000,,,-1260194514932583936,0.0,4190.0379583239555,11.544384416061556,11.368664389352924,3292,15,0.0,15,404907477829666,31,23.0,590.928466796875,0.7369999885559082,0,0.0,0.0,,,,,0,,1,,,43.984375,-74.359375,-15.296875
Raw,946613626,8792626000000,,,-1260194514932583936,0.0,4190.0379583239555,11.544384416061556,11.368664389352924,3292,20,0.0,15,404907491815881,16,29.1,54.65705871582031,0.04619999974966049,0,0.0,0.0,,,,,0,,1,,,43.984375,-74.359375,-15.296875
Raw,946613627,8792626000000,,,-1260194514932583936,0.0,4190.0379583239555,11.544384416061556,11.368664389352924,3292,21,0.0,15,404907485155960,10,34.9,459.4472961425781,0.02459999918937683,0,0.0,0.0,,,,,0,,1,,,43.984375,-74.359375,-15.296875
Raw,946613627,8792626000000,,,-1260194514932583936,0.0,4190.0379583239555,11.544384416061556,11.368664389352924,3292,24,0.0,15,404907488293175,16,29.9,301.7158508300781,0.04170000180602074,0,0.0,0.0,,,,,0,,1,,,43.984375,-74.359375,-15.296875
Raw,946613628,8792626000000,,,-1260194514932583936,0.0,4190.0379583239555,11.544384416061556,11.368664389352924,3292,27,0.0,15,404907474869476,10,34.9,391.36456298828125,0.038100000470876694,0,0.0,0.0,,,,,0,,1,,,43.984375,-74.359375,-15.296875
Raw,946613629,8792626000000,,,-1260194514932583936,0.0,4190.0379583239555,11.544384416061556,11.368664389352924,3292,32,0.0,15,404907485462009,13,31.6,-352.24737548828125,0.031300000846385956,0,0.0,0.0,,,,,0,,1,,,43.984375,-74.359375,-15.296875
Raw,946614623,8793520000000,,,-1260194514931848448,0.0,4165.4701344668865,17.800394010917273,8.00051880323201,3293,8,0.0,15,404908366955867,31,23.4,148.8286895751953,0.7204999923706055,0,0.0,0.0,,,,,0,,1,,,85.265625,-80.140625,-9.046875
Raw,946614624,8793520000000,,,-1260194514931848448,0.0,4165.4701344668865,17.800394010917273,8.00051880323201,3293,14,0.0,15,404908371762373,10,34.7,-470.6629943847656,0.05509999766945839,0,0.0,0.0,,,,,0,,1,,,85.265625,-80.140625,-9.046875
Raw,946614624,8793520000000,,,-1260194514931848448,0.0,4165.4701344668865,17.800394010917273,8.00051880323201,3293,20,0.0,15,404908385080192,21,26.2,54.262123107910156,0.2881999909877777,0,0.0,0.0,,,,,0,,1,,,85.265625,-80.140625,-9.046875
Raw,946614625,8793520000000,,,-1260194514931848448,0.0,4165.4701344668865,17.800394010917273,8.00051880323201,3293,21,0.0,15,404908378419068,9,35.5,458.9144592285156,0.061500001698732376,0,0.0,0.0,,,,,0,,1,,,85.265625,-80.140625,-9.046875
Raw,946614625,8793520000000,,,-1260194514931848448,0.0,4165.4701344668865,17.800394010917273,8.00051880323201,3293,24,0.0,15,404908381556622,27,24.5,301.6535339355469,0.6330000162124634,0,0.0,0.0,,,,,0,,1,,,85.265625,-80.140625,-9.046875
Raw,946614626,8793520000000,,,-1260194514931848448,0.0,4165.4701344668865,17.800394010917273,8.00051880323201,3293,27,0.0,15,404908368132815,6,39.2,390.4424133300781,0.033900000154972076,0,0.0,0.0,,,,,0,,1,,,85.265625,-80.140625,-9.046875
Raw,946614626,8793520000000,,,-1260194514931848448,0.0,4165.4701344668865,17.800394010917273,8.00051880323201,3293,32,0.0,15,404908378727572,8,36.6,-353.0281066894531,0.057500001043081284,0,0.0,0.0,,,,,0,,1,,,85.265625,-80.140625,-9.046875
Raw,946615614,8794808000000,,,-1260194514931691520,0.0,4249.429330229759,15.242446630801622,17.031521671236618,3294,8,0.0,15,404909654798336,31,23.8,149.2092742919922,0.67249995470047,0,0.0,0.0,,,,,0,,1,,,125.15625,-78.6875,-10.953125
Raw,946615615,8794808000000,,,-1260194514931691520,0.0,4249.429330229759,15.242446630801622,17.031521671236618,3294,10,0.0,15,404909670025563,11,33.3,-295.3548583984375,0.03400000184774399,0,0.0,0.0,,,,,0,,1,,,125.15625,-78.6875,-10.953125
Raw,946615616,8794808000000,,,-1260194514931691520,0.0,4249.429330229759,15.242446630801622,17.031521671236618,3294,14,0.0,15,404909659607486,14,30.5,-469.3791198730469,0.05530000105500221,0,0.0,0.0,,,,,0,,1,,,125.15625,-78.6875,-10.953125
Raw,946615616,8794808000000,,,-1260194514931691520,0.0,4249.429330229759,15.242446630801622,17.031521671236618,3294,21,0.0,15,404909666260259,16,29.0,460.2230529785156,0.03869999945163727,0,0.0,0.0,,,,,0,,1,,,125.15625,-78.6875,-10.953125
Raw,946615617,8794808000000,,,-1260194514931691520,0.0,4249.429330229759,15.242446630801622,17.031521671236618,3294,24,0.0,15,404909669398130,40,21.8,301.8247985839844,0.7849999666213989,0,0.0,0.0,,,,,0,,1,,,125.15625,-78.6875,-10.953125
Raw,946615618,8794808000000,,,-1260194514931691520,0.0,4249.429330229759,15.242446630801622,17.031521671236618,3294,27,0.0,15,404909655974224,8,36.0,391.7082824707031,0.0364999994635582,0,0.0,0.0,,,,,0,,1,,,125.15625,-78.6875,-10.953125
Raw,946615618,8794808000000,,,-1260194514931691520,0.0,4249.429330229759,15.242446630801622,17.031521671236618,3294,32,0.0,15,404909666572196,8,36.3,-351.697998046875,0.023000000044703484,0,0.0,0.0,,,,,0,,1,,,125.15625,-78.6875,-10.953125
Raw,946616602,8795522000000,,,-1260194514931487744,0.0,4181.182477623224,19.016448425320075,10.051629452346646,3295,10,0.0,15,404910383822698,12,32.4,-298.74200439453125,0.05299999937415123,0,0.0,0.0,,,,,0,,1,,,170.48438,-76.5,-13.09375
Raw,946616602,8795522000000,,,-1260194514931487744,0.0,4181.182477623224,19.016448425320075,10.051629452346646,3295,14,0.0,15,404910373404964,14,30.9,-472.8511047363281,0.08299999684095383,0,0.0,0.0,,,,,0,,1,,,170.48438,-76.5,-13.09375
Raw,946616603,8795522000000,,,-1260194514931487744,0.0,4181.182477623224,19.016448425320075,10.051629452346646,3295,20,0.0,15,404910386719303,17,28.2,52.068031311035156,0.10639999806880951,0,0.0,0.0,,,,,0,,1,,,170.48438,-76.5,-13.09375
Raw,946616604,8795522000000,,,-1260194514931487744,0.0,4181.182477623224,19.016448425320075,10.051629452346646,3295,27,0.0,15,404910369769631,10,34.0,388.3570556640625,0.05209999904036522,0,0.0,0.0,,,,,0,,1,,,170.48438,-76.5,-13.09375
Raw,946616605,8795522000000,,,-1260194514931487744,0.0,4181.182477623224,19.016448425320075,10.051629452346646,3295,32,0.0,15,404910380369361,8,36.1,-355.2948303222656,0.060499999672174454,0,0.0,0.0,,,,,0,,1,,,170.48438,-76.5,-13.09375
Raw,946617614,8796817000000,,,-1260194514931278848,0.0,4247.779492288828,8.449238151828483,13.64134686301595,3296,10,0.0,15,404911678615104,9,35.8,-293.75030517578125,0.04200000315904617,0,0.0,0.0,,,,,0,,1,,,203.07812,-83.78125,-4.640625
Raw,946617615,8796817000000,,,-1260194514931278848,0.0,4247.779492288828,8.449238151828483,13.64134686301595,3296,14,0.0,15,404911668198203,27,24.0,-468.1985778808594,0.6634999513626099,0,0.0,0.0,,,,,0,,1,,,203.07812,-83.78125,-4.640625
Raw,946617615,8796817000000,,,-1260194514931278848,0.0,4247.779492288828,8.449238151828483,13.64134686301595,3296,15,0.0,15,404911667516573,8,36.5,593.6968383789062,0.024500001221895218,0,0.0,0.0,,,,,0,,1,,,203.07812,-83.78125,-4.640625
Raw,946617616,8796817000000,,,-1260194514931278848,0.0,4247.779492288828,8.449238151828483,13.64134686301595,3296,20,0.0,15,404911681510214,24,25.4,57.149925231933594,0.21090000867843628,0,0.0,0.0,,,,,0,,1,,,203.07812,-83.78125,-4.640625
Raw,946617616,8796817000000,,,-1260194514931278848,0.0,4247.779492288828,8.449238151828483,13.64134686301595,3296,24,0.0,15,404911677984049,10,34.1,304.00885009765625,0.04260000213980675,0,0.0,0.0,,,,,0,,1,,,203.07812,-83.78125,-4.640625
Raw,946617617,8796817000000,,,-1260194514931278848,0.0,4247.779492288828,8.449238151828483,13.64134686301595,3296,27,0.0,15,404911664559148,17,28.9,393.4329528808594,0.046799998730421066,0,0.0,0.0,,,,,0,,1,,,203.07812,-83.78125,-4.640625
Raw,946617618,8796817000000,,,-1260194514931278848,0.0,4247.779492288828,8.449238151828483,13.64134686301595,3296,32,0.0,15,404911675162103,13,31.3,-349.7984313964844,0.046300001442432404,0,0.0,0.0,,,,,0,,1,,,203.07812,-83.78125,-4.640625
Raw,946618600,8797608000000,,,-1260194514930901248,0.0,4164.108075201511,26.71018844064666,9.866156126727132,3297,10,0.0,15,404912469238016,10,34.8,-295.2172546386719,0.03060000017285347,0,0.0,0.0,,,,,0,,1,,,247.6875,-78.140625,-10.109375
Raw,946618600,8797608000000,,,-1260194514930901248,0.0,4164.108075201511,26.71018844064666,9.866156126727132,3297,15,0.0,15,404912458137240,9,35.9,591.864990234375,0.04200000315904617,0,0.0,0.0,,,,,0,,1,,,247.6875,-78.140625,-10.109375
Raw,946618601,8797608000000,,,-1260194514930901248,0.0,4164.108075201511,26.71018844064666,9.866156126727132,3297,20,0.0,15,404912472132170,17,28.0,55.532196044921875,0.058800000697374344,0,0.0,0.0,,,,,0,,1,,,247.6875,-78.140625,-10.109375
Raw,946618601,8797608000000,,,-1260194514930901248,0.0,4164.108075201511,26.71018844064666,9.866156126727132,3297,21,0.0,15,404912465465623,35,22.3,461.2433166503906,0.7789999842643738,0,0.0,0.0,,,,,0,,1,,,247.6875,-78.140625,-10.109375
Raw,946618602,8797608000000,,,-1260194514930901248,0.0,4164.108075201511,26.71018844064666,9.866156126727132,3297,24,0.0,15,404912468605514,10,34.4,302.80084228515625,0.029100000858306885,0,0.0,0.0,,,,,0,,1,,,247.6875,-78.140625,-10.109375
Raw,946618602,8797608000000,,,-1260194514930901248,0.0,4164.108075201511,26.71018844064666,9.866156126727132,3297,27,0.0,15,404912455180306,21,26.1,391.8327941894531,0.12020000070333481,0,0.0,0.0,,,,,0,,1,,,247.6875,-78.140625,-10.109375
Raw,946618603,8797608000000,,,-1260194514930901248,0.0,4164.108075201511,26.71018844064666,9.866156126727132,3297,32,0.0,15,404912465785118,17,28.4,-351.6155090332031,0.04829999804496765,0,0.0,0.0,,,,,0,,1,,,247.6875,-78.140625,-10.109375
Raw,946619614,8798623000000,,,-1260194514929975808,0.0,4207.834135740995,20.818919141460785,13.08194936241945,3298,10,0.0,15,404913483313855,16,29.2,-294.3633117675781,0.06419999897480011,0,0.0,0.0,,,,,0,,1,,,267.70312,-79.34375,-6.484375
Raw,946619615,8798623000000,,,-1260194514929975808,0.0,4207.834135740995,20.818919141460785,13.08194936241945,3298,12,0.0,15,404913470705841,35,22.5,-491.6617431640625,0.7264999747276306,0,0.0,0.0,,,,,0,,1,,,267.70312,-79.34375,-6.484375
Raw,946619615,8798623000000,,,-1260194514929975808,0.0,4207.834135740995,20.818919141460785,13.08194936241945,3298,14,0.0,15,404913472897971,46,20.9,-468.35076904296875,0.8495000004768372,0,0.0,0.0,,,,,0,,1,,,267.70312,-79.34375,-6.484375
Raw,946619616,8798623000000,,,-1260194514929975808,0.0,4207.834135740995,20.818919141460785,13.08194936241945,3298,15,0.0,15,404913472209981,13,31.0,592.6034545898438,0.04179999977350235,0,0.0,0.0,,,,,0,,1,,,267.70312,-79.34375,-6.484375
Raw,946619616,8798623000000,,,-1260194514929975808,0.0,4207.834135740995,20.818919141460785,13.08194936241945,3298,20,0.0,15,404913486206773,13,31.6,56.394046783447266,0.03280000016093254,0,0.0,0.0,,,,,0,,1,,,267.70312,-79.34375,-6.484375
Raw,946619617,8798623000000,,,-1260194514929975808,0.0,4207.834135740995,20.818919141460785,13.08194936241945,3298,21,0.0,15,404913479538803,31,23.8,460.758056640625,0.6800000071525574,0,0.0,0.0,,,,,0,,1,,,267.70312,-79.34375,-6.484375
Raw,946619618,8798623000000,,,-1260194514929975808,0.0,4207.834135740995,20.818919141460785,13.08194936241945,3298,24,0.0,15,404913482679188,8,36.3,303.6650085449219,0.04700000211596489,0,0.0,0.0,,,,,0,,1,,,267.70312,-79.34375,-6.484375
Raw,946619619,8798623000000,,,-1260194514929975808,0.0,4207.834135740995,20.818919141460785,13.08194936241945,3298,32,0.0,15,404913479861237,35,22.2,-349.9500732421875,0.800000011920929,0,0.0,0.0,,,,,0,,1,,,267.70312,-79.34375,-6.484375
Raw,946620610,8799612000000,,,-1260194514929322496,0.0,4206.9354094564915,22.86123162147471,14.076138494405456,3299,10,0.0,15,404914471661504,16,29.1,-294.3999938964844,0.04619999974966049,0,0.0,0.0,,,,,0,,1,,,298.75,-80.0,-4.171875
Raw,946620611,8799612000000,,,-1260194514929322496,0.0,4206.9354094564915,22.86123162147471,14.076138494405456,3299,15,0.0,15,404914460554730,11,33.7,592.2996215820312,0.049000002443790436,0,0.0,0.0,,,,,0,,1,,,298.75,-80.0,-4.171875
Raw,946620612,8799612000000,,,-1260194514929322496,0.0,4206.9354094564915,22.86123162147471,14.076138494405456,3299,20,0.0,15,404914474553313,19,27.5,56.18370056152344,0.08460000157356262,0,0.0,0.0,,,,,0,,1,,,298.75,-80.0,-4.171875
Raw,946620612,8799612000000,,,-1260194514929322496,0.0,4206.9354094564915,22.86123162147471,14.076138494405456,3299,21,0.0,15,404914467884128,35,22.0,461.02447509765625,0.7820000052452087,0,0.0,0.0,,,,,0,,1,,,298.75,-80.0,-4.171875
Raw,946620613,8799612000000,,,-1260194514929322496,0.0,4206.9354094564915,22.86123162147471,14.076138494405456,3299,24,0.0,15,404914471024909,13,31.0,303.5032653808594,0.040300000458955765,0,0.0,0.0,,,,,0,,1,,,298.75,-80.0,-4.171875
Raw,946620614,8799612000000,,,-1260194514929322496,0.0,4206.9354094564915,22.86123162147471,14.076138494405456,3299,32,0.0,15,404914468208882,35,22.5,-350.9681396484375,0.7234999537467957,0,0.0,0.0,,,,,0,,1,,,298.75,-80.0,-4.171875
Raw,946621620,8800625000000,,,-1260194514929244928,0.0,4188.2917284965515,20.779681677202383,10.93528835418499,3300,10,0.0,15,404915484584783,35,22.8,-297.6573791503906,0.7475000023841858,0,0.0,0.0,,,,,0,,1,,,350.76562,-80.328125,-5.765625
Raw,946621622,8800625000000,,,-1260194514929244928,0.0,4188.2917284965515,20.779681677202383,10.93528835418499,3300,15,0.0,15,404915473475111,8,36.2,588.8778076171875,0.03350000083446503,0,0.0,0.0,,,,,0,,1,,,350.76562,-80.328125,-5.765625
Raw,946621622,8800625000000,,,-1260194514929244928,0.0,4188.2917284965515,20.779681677202383,10.93528835418499,3300,20,0.0,15,404915487475447,31,23.9,52.720863342285156,0.6620000004768372,0,0.0,0.0,,,,,0,,1,,,350.76562,-80.328125,-5.765625
Raw,946621623,8800625000000,,,-1260194514929244928,0.0,4188.2917284965515,20.779681677202383,10.93528835418499,3300,21,0.0,15,404915480804939,11,33.2,457.7764587402344,0.049000002443790436,0,0.0,0.0,,,,,0,,1,,,350.76562,-80.328125,-5.765625
Raw,946621624,8800625000000,,,-1260194514929244928,0.0,4188.2917284965515,20.779681677202383,10.93528835418499,3300,24,0.0,15,404915483946337,11,33.5,300.18359375,0.05350000038743019,0,0.0,0.0,,,,,0,,1,,,350.76562,-80.328125,-5.765625
Raw,946621624,8800625000000,,,-1260194514929244928,0.0,4188.2917284965515,20.779681677202383,10.93528835418499,3300,27,0.0,15,404915470520109,31,23.3,388.5796813964844,0.7264999747276306,0,0.0,0.0,,,,,0,,1,,,350.76562,-80.328125,-5.765625
Raw,946622612,8801615000000,,,-1260194514928984320,0.0,4175.5009442567825,10.277005095281432,11.877952169542079,3301,10,0.0,15,404916474325379,35,22.2,-293.7278137207031,0.7924999594688416,0,0.0,0.0,,,,,0,,1,,,22.875,-81.203125,-2.859375
Raw,946622612,8801615000000,,,-1260194514928984320,0.0,4175.5009442567825,10.277005095281432,11.877952169542079,3301,14,0.0,15,404916463911340,27,24.5,-469.09295654296875,0.6060000061988831,0,0.0,0.0,,,,,0,,1,,,22.875,-81.203125,-2.859375
Raw,946622613,8801615000000,,,-1260194514928984320,0.0,4175.5009442567825,10.277005095281432,11.877952169542079,3301,15,0.0,15,404916463212699,21,26.8,592.3533935546875,0.13220000267028809,0,0.0,0.0,,,,,0,,1,,,22.875,-81.203125,-2.859375
Raw,946622614,8801615000000,,,-1260194514928984320,0.0,4175.5009442567825,10.277005095281432,11.877952169542079,3301,21,0.0,15,404916470542959,19,27.8,460.6828918457031,0.07860000431537628,0,0.0,0.0,,,,,0,,1,,,22.875,-81.203125,-2.859375
Raw,946622614,8801615000000,,,-1260194514928984320,0.0,4175.5009442567825,10.277005095281432,11.877952169542079,3301,24,0.0,15,404916473684848,13,31.8,303.66265869140625,0.043299999088048935,0,0.0,0.0,,,,,0,,1,,,22.875,-81.203125,-2.859375
Raw,946622615,8801615000000,,,-1260194514928984320,0.0,4175.5009442567825,10.277005095281432,11.877952169542079,3301,27,0.0,15,404916460258502,13,31.6,392.1669006347656,0.05380000174045563,0,0.0,0.0,,,,,0,,1,,,22.875,-81.203125,-2.859375
Raw,946622615,8801615000000,,,-1260194514928984320,0.0,4175.5009442567825,10.277005095281432,11.877952169542079,3301,32,0.0,15,404916470873308,13,31.5,-351.4193420410156,0.03880000114440918,0,0.0,0.0,,,,,0,,1,,,22.875,-81.203125,-2.859375
Raw,946623598,8802609000000,,,-1260194514928509952,0.0,4174.844827502966,20.048691646745546,9.252477668542307,3302,10,0.0,15,404917467852133,40,21.7,-299.0750427246094,0.7820000052452087,0,0.0,0.0,,,,,0,,1,,,84.515625,-79.15625,-10.09375
Raw,946623599,8802609000000,,,-1260194514928509952,0.0,4174.844827502966,20.048691646745546,9.252477668542307,3302,14,0.0,15,404917457438456,14,30.9,-472.9150695800781,0.05230000242590904,0,0.0,0.0,,,,,0,,1,,,84.515625,-79.15625,-10.09375
Raw,946623599,8802609000000,,,-1260194514928509952,0.0,4174.844827502966,20.048691646745546,9.252477668542307,3302,20,0.0,15,404917470740417,31,23.0,51.59812927246094,0.7264999747276306,0,0.0,0.0,,,,,0,,1,,,84.515625,-79.15625,-10.09375
Raw,946623600,8802609000000,,,-1260194514928509952,0.0,4174.844827502966,20.048691646745546,9.252477668542307,3302,21,0.0,15,404917464067037,13,31.0,456.6216125488281,0.059800002723932266,0,0.0,0.0,,,,,0,,1,,,84.515625,-79.15625,-10.09375
Raw,946623600,8802609000000,,,-1260194514928509952,0.0,4174.844827502966,20.048691646745546,9.252477668542307,3302,27,0.0,15,404917453782785,6,39.1,388.41607666015625,0.02980000153183937,0,0.0,0.0,,,,,0,,1,,,84.515625,-79.15625,-10.09375
Raw,946623601,8802609000000,,,-1260194514928509952,0.0,4174.844827502966,20.048691646745546,9.252477668542307,3302,32,0.0,15,404917464400079,10,34.5,-355.16888427734375,0.05310000106692314,0,0.0,0.0,,,,,0,,1,,,84.515625,-79.15625,-10.09375
Raw,946624632,8803522000000,,,-1260194514928220160,0.0,4180.965945124626,6.730337715323459,10.321415847978782,3303,8,0.0,15,404918365323216,27,24.5,149.07606506347656,0.609000027179718,0,0.0,0.0,,,,,0,,1,,,113.546875,-82.0625,-7.875
Raw,946624633,8803522000000,,,-1260194514928220160,0.0,4180.965945124626,6.730337715323459,10.321415847978782,3303,10,0.0,15,404918380563454,13,31.1,-296.1419677734375,0.08510000258684158,0,0.0,0.0,,,,,0,,1,,,113.546875,-82.0625,-7.875
Raw,946624634,8803522000000,,,-1260194514928220160,0.0,4180.965945124626,6.730337715323459,10.321415847978782,3303,14,0.0,15,404918370150414,13,31.1,-470.46234130859375,0.07010000199079514,0,0.0,0.0,,,,,0,,1,,,113.546875,-82.0625,-7.875
Raw,946624635,8803522000000,,,-1260194514928220160,0.0,4180.965945124626,6.730337715323459,10.321415847978782,3303,20,0.0,15,404918383450789,24,25.8,54.794490814208984,1.165000081062317,0,0.0,0.0,,,,,0,,1,,,113.546875,-82.0625,-7.875
Raw,946624635,8803522000000,,,-1260194514928220160,0.0,4180.965945124626,6.730337715323459,10.321415847978782,3303,21,0.0,15,404918376776134,13,31.4,459.3211669921875,0.07909999787807465,0,0.0,0.0,,,,,0,,1,,,113.546875,-82.0625,-7.875
Raw,946624636,8803522000000,,,-1260194514928220160,0.0,4180.965945124626,6.730337715323459,10.321415847978782,3303,24,0.0,15,404918379918895,21,26.4,302.0574035644531,0.27920001745224,0,0.0,0.0,,,,,0,,1,,,113.546875,-82.0625,-7.875
Raw,946624637,8803522000000,,,-1260194514928220160,0.0,4180.965945124626,6.730337715323459,10.321415847978782,3303,27,0.0,15,404918366492138,7,37.1,390.824462890625,0.0364999994635582,0,0.0,0.0,,,,,0,,1,,,113.546875,-82.0625,-7.875
Raw,946624637,8803522000000,,,-1260194514928220160,0.0,4180.965945124626,6.730337715323459,10.321415847978782,3303,32,0.0,15,404918377111652,7,37.1,-352.74493408203125,0.05300000309944153,0,0.0,0.0,,,,,0,,1,,,113.546875,-82.0625,-7.875
Raw,946625607,8804719000000,,,-1260194514927325952,0.0,4239.593166857958,15.014306598840887,9.86611079583689,3304,10,0.0,15,404919576670049,6,38.1,-293.39166259765625,0.048900000751018524,0,0.0,0.0,,,,,0,,1,,,148.25,-84.9375,-4.484375
Raw,946625607,8804719000000,,,-1260194514927325952,0.0,4239.593166857958,15.014306598840887,9.86611079583689,3304,14,0.0,15,404919566257692,13,31.8,-467.2772216796875,0.0940999984741211,0,0.0,0.0,,,,,0,,1,,,148.25,-84.9375,-4.484375
Raw,946625608,8804719000000,,,-1260194514927325952,0.0,4239.593166857958,15.014306598840887,9.86611079583689,3304,15,0.0,15,404919565547991,27,24.1,592.650634765625,0.6889999508857727,0,0.0,0.0,,,,,0,,1,,,148.25,-84.9375,-4.484375
Raw,946625609,8804719000000,,,-1260194514927325952,0.0,4239.593166857958,15.014306598840887,9.86611079583689,3304,20,0.0,15,404919579555847,27,24.9,57.5733528137207,0.6300000548362732,0,0.0,0.0,,,,,0,,1,,,148.25,-84.9375,-4.484375
Raw,946625609,8804719000000,,,-1260194514927325952,0.0,4239.593166857958,15.014306598840887,9.86611079583689,3304,21,0.0,15,404919572879779,21,26.0,462.5523376464844,0.2687000036239624,0,0.0,0.0,,,,,0,,1,,,148.25,-84.9375,-4.484375
Raw,946625610,8804719000000,,,-1260194514927325952,0.0,4239.593166857958,15.014306598840887,9.86611079583689,3304,24,0.0,15,404919576023294,19,27.1,304.71295166015625,0.18770000338554382,0,0.0,0.0,,,,,0,,1,,,148.25,-84.9375,-4.484375
Raw,946625610,8804719000000,,,-1260194514927325952,0.0,4239.593166857958,15.014306598840887,9.86611079583689,3304,27,0.0,15,404919562595961,7,37.0,393.898193359375,0.06050000339746475,0,0.0,0.0,,,,,0,,1,,,148.25,-84.9375,-4.484375
Raw,946625611,8804719000000,,,-1260194514927325952,0.0,4239.593166857958,15.014306598840887,9.86611079583689,3304,32,0.0,15,404919573218461,6,38.8,-349.6445007324219,0.04439999908208847,0,0.0,0.0,,,,,0,,1,,,148.25,-84.9375,-4.484375
Raw,946626614,8805725000000,,,-1260194514927059200,0.0,4197.051748633385,23.996490483891865,10.226259151853156,3305,10,0.0,15,404920582404297,8,36.3,-296.1590881347656,0.06350000202655792,0,0.0,0.0,,,,,0,,1,,,188.34375,-75.65625,-14.28125
Raw,946626617,8805725000000,,,-1260194514927059200,0.0,4197.051748633385,23.996490483891865,10.226259151853156,3305,14,0.0,15,404920571992565,16,29.1,-470.3757629394531,0.0908999964594841,0,0.0,0.0,,,,,0,,1,,,188.34375,-75.65625,-14.28125
Raw,946626617,8805725000000,,,-1260194514927059200,0.0,4197.051748633385,23.996490483891865,10.226259151853156,3305,15,0.0,15,404920571279489,10,34.0,590.29541015625,0.05509999766945839,0,0.0,0.0,,,,,0,,1,,,188.34375,-75.65625,-14.28125
Raw,946626618,8805725000000,,,-1260194514927059200,0.0,4197.051748633385,23.996490483891865,10.226259151853156,3305,21,0.0,15,404920578611313,19,27.6,459.40570068359375,0.1907000094652176,0,0.0,0.0,,,,,0,,1,,,188.34375,-75.65625,-14.28125
Raw,946626619,8805725000000,,,-1260194514927059200,0.0,4197.051748633385,23.996490483891865,10.226259151853156,3305,24,0.0,15,404920581755589,19,27.2,302.305908203125,0.19520001113414764,0,0.0,0.0,,,,,0,,1,,,188.34375,-75.65625,-14.28125
