# 
# Header Description:
# 
# Version: v2.0.0.1 Platform: 8.0.0 Manufacturer: Xiaomi Model: MIX 2
# 
# Raw,ElapsedRealtimeMillis,TimeNanos,LeapSecond,TimeUncertaintyNanos,FullBiasNanos,BiasNanos,BiasUncertaintyNanos,DriftNanosPerSecond,DriftUncertaintyNanosPerSecond,HardwareClockDiscontinuityCount,Svid,TimeOffsetNanos,State,ReceivedSvTimeNanos,ReceivedSvTimeUncertaintyNanos,Cn0DbHz,PseudorangeRateMetersPerSecond,PseudorangeRateUncertaintyMetersPerSecond,AccumulatedDeltaRangeState,AccumulatedDeltaRangeMeters,AccumulatedDeltaRangeUncertaintyMeters,CarrierFrequencyHz,CarrierCycles,CarrierPhase,CarrierPhaseUncertainty,MultipathIndicator,SnrInDb,ConstellationType,AgcDb,CarrierFrequencyHz,AngleZ,AngleX,AngleY
# 
# Fix,Provider,Latitude,Longitude,Altitude,Speed,Accuracy,SpeedAccuracy,BearingAccuracy,TimeInMs
# 
# Nav,Svid,Type,Status,MessageId,Sub-messageId,Data(Bytes)
# 
Raw,945811603,8021721000000,,,-1260194483713554432,0.0,5095.9778018295765,-7.376341869923039,9.295643014676184,2650,10,0.0,15,404105364026826,16,29.8,-342.9662780761719,0.6475000381469727,0,0.0,0.0,,,,,0,,1,,,253.45312,-79.71875,1.171875
Raw,945811603,8021721000000,,,-1260194483713554432,0.0,5095.9778018295765,-7.376341869923039,9.295643014676184,2650,12,0.0,15,404105350916633,276,25.3,-515.6197509765625,0.8385000228881836,0,0.0,0.0,,,,,0,,1,,,253.45312,-79.71875,1.171875
Raw,945811603,8021721000000,,,-1260194483713554432,0.0,5095.9778018295765,-7.376341869923039,9.295643014676184,2650,15,0.0,15,404105355368277,13,31.6,582.4413452148438,0.581000030040741,0,0.0,0.0,,,,,0,,1,,,253.45312,-79.71875,1.171875
Raw,945811604,8021721000000,,,-1260194483713554432,0.0,5095.9778018295765,-7.376341869923039,9.295643014676184,2650,20,0.0,15,404105367825502,15,30.0,-21.997947692871094,0.6430000066757202,0,0.0,0.0,,,,,0,,1,,,253.45312,-79.71875,1.171875
Raw,945811604,8021721000000,,,-1260194483713554432,0.0,5095.9778018295765,-7.376341869923039,9.295643014676184,2650,21,0.0,15,404105362259163,487,20.5,388.0658874511719,1.0805000066757202,0,0.0,0.0,,,,,0,,1,,,253.45312,-79.71875,1.171875
Raw,945811604,8021721000000,,,-1260194483713554432,0.0,5095.9778018295765,-7.376341869923039,9.295643014676184,2650,24,0.0,15,404105364928278,16,29.3,196.14520263671875,0.6875,0,0.0,0.0,,,,,0,,1,,,253.45312,-79.71875,1.171875
Raw,945811604,8021721000000,,,-1260194483713554432,0.0,5095.9778018295765,-7.376341869923039,9.295643014676184,2650,32,0.0,15,404105360421892,276,24.5,-400.6157531738281,0.8535000085830688,0,0.0,0.0,,,,,0,,1,,,253.45312,-79.71875,1.171875
Raw,945812591,8022721000000,,,-1260194483713554688,0.0,154.41591676790267,-8.093040740772203,16.405890173046043,2650,10,0.0,15,404106364027888,21,26.6,-344.4290771484375,0.14720000326633453,0,0.0,0.0,,,,,0,,1,,,302.96875,-80.53125,-0.609375
Raw,945812592,8022721000000,,,-1260194483713554688,0.0,154.41591676790267,-8.093040740772203,16.405890173046043,2650,12,0.0,15,404106350918312,54,19.7,-517.6749267578125,1.2135000228881836,0,0.0,0.0,,,,,0,,1,,,302.96875,-80.53125,-0.609375
Raw,945812592,8022721000000,,,-1260194483713554688,0.0,154.41591676790267,-8.093040740772203,16.405890173046043,2650,15,0.0,15,404106355366347,8,36.0,581.3814697265625,0.07370000332593918,0,0.0,0.0,,,,,0,,1,,,302.96875,-80.53125,-0.609375
Raw,945812592,8022721000000,,,-1260194483713554688,0.0,154.41591676790267,-8.093040740772203,16.405890173046043,2650,20,0.0,15,404106367825585,21,26.4,-23.28297233581543,0.1517000049352646,0,0.0,0.0,,,,,0,,1,,,302.96875,-80.53125,-0.609375
Raw,945812593,8022721000000,,,-1260194483713554688,0.0,154.41591676790267,-8.093040740772203,16.405890173046043,2650,21,0.0,15,404106362257781,10,34.5,387.42840576171875,0.5955000519752502,0,0.0,0.0,,,,,0,,1,,,302.96875,-80.53125,-0.609375
Raw,945812593,8022721000000,,,-1260194483713554688,0.0,154.41591676790267,-8.093040740772203,16.405890173046043,2650,24,0.0,15,404106364927598,13,31.0,195.11270141601562,0.06120000407099724,0,0.0,0.0,,,,,0,,1,,,302.96875,-80.53125,-0.609375
Raw,945812594,8022721000000,,,-1260194483713554688,0.0,154.41591676790267,-8.093040740772203,16.405890173046043,2650,32,0.0,15,404106360423273,424,21.5,-400.58721923828125,1.2664999961853027,0,0.0,0.0,,,,,0,,1,,,302.96875,-80.53125,-0.609375
Raw,945813607,8023721000000,,,-1260194483713554688,0.0,140.14975749887526,-12.369853565126727,14.421685532091344,2650,10,0.0,15,404107364028907,61,18.5,-343.2422180175781,1.002500057220459,0,0.0,0.0,,,,,0,,1,,,345.90625,-81.3125,2.09375
Raw,945813608,8023721000000,,,-1260194483713554688,0.0,140.14975749887526,-12.369853565126727,14.421685532091344,2650,12,0.0,15,404107350920167,61,18.6,-517.2562255859375,1.0115000009536743,0,0.0,0.0,,,,,0,,1,,,345.90625,-81.3125,2.09375
Raw,945813609,8023721000000,,,-1260194483713554688,0.0,140.14975749887526,-12.369853565126727,14.421685532091344,2650,14,0.0,15,404107353161877,752,18.4,-505.41998291015625,2.3259999752044678,0,0.0,0.0,,,,,0,,1,,,345.90625,-81.3125,2.09375
Raw,945813610,8023721000000,,,-1260194483713554688,0.0,140.14975749887526,-12.369853565126727,14.421685532091344,2650,15,0.0,15,404107355364433,8,36.7,582.3487548828125,0.04370000213384628,0,0.0,0.0,,,,,0,,1,,,345.90625,-81.3125,2.09375
Raw,945813610,8023721000000,,,-1260194483713554688,0.0,140.14975749887526,-12.369853565126727,14.421685532091344,2650,20,0.0,15,404107367825666,27,24.2,-21.626874923706055,0.6769999861717224,0,0.0,0.0,,,,,0,,1,,,345.90625,-81.3125,2.09375
Raw,945813611,8023721000000,,,-1260194483713554688,0.0,140.14975749887526,-12.369853565126727,14.421685532091344,2650,21,0.0,15,404107362256495,12,32.0,388.0048522949219,0.026900000870227814,0,0.0,0.0,,,,,0,,1,,,345.90625,-81.3125,2.09375
Raw,945813612,8023721000000,,,-1260194483713554688,0.0,140.14975749887526,-12.369853565126727,14.421685532091344,2650,24,0.0,15,404107364926971,16,29.4,196.17298889160156,0.03270000219345093,0,0.0,0.0,,,,,0,,1,,,345.90625,-81.3125,2.09375
Raw,945813612,8023721000000,,,-1260194483713554688,0.0,140.14975749887526,-12.369853565126727,14.421685532091344,2650,27,0.0,15,404107351807552,866,16.6,333.4135437011719,2.4130001068115234,0,0.0,0.0,,,,,0,,1,,,345.90625,-81.3125,2.09375
Raw,945813613,8023721000000,,,-1260194483713554688,0.0,140.14975749887526,-12.369853565126727,14.421685532091344,2650,32,0.0,15,404107360424663,32,24.1,-400.57769775390625,1.8964999914169312,0,0.0,0.0,,,,,0,,1,,,345.90625,-81.3125,2.09375
Raw,945814585,8024721000000,,,-1260194483713554688,0.0,104.72920257598162,-10.321195555757784,13.794565272031788,2650,10,0.0,15,404108364030154,19,27.9,-343.0465393066406,0.047300003468990326,0,0.0,0.0,,,,,0,,1,,,38.9375,-79.109375,1.578125
Raw,945814586,8024721000000,,,-1260194483713554688,0.0,104.72920257598162,-10.321195555757784,13.794565272031788,2650,12,0.0,15,404108350921768,40,21.2,-516.3618774414062,0.8614999651908875,0,0.0,0.0,,,,,0,,1,,,38.9375,-79.109375,1.578125
Raw,945814586,8024721000000,,,-1260194483713554688,0.0,104.72920257598162,-10.321195555757784,13.794565272031788,2650,14,0.0,15,404108353163573,12,32.2,-506.47613525390625,0.6589999794960022,0,0.0,0.0,,,,,0,,1,,,38.9375,-79.109375,1.578125
Raw,945814586,8024721000000,,,-1260194483713554688,0.0,104.72920257598162,-10.321195555757784,13.794565272031788,2650,15,0.0,15,404108355362472,70,17.6,583.6116943359375,1.0989999771118164,0,0.0,0.0,,,,,0,,1,,,38.9375,-79.109375,1.578125
Raw,945814587,8024721000000,,,-1260194483713554688,0.0,104.72920257598162,-10.321195555757784,13.794565272031788,2650,20,0.0,15,404108367825714,27,24.2,-21.997947692871094,0.6769999861717224,0,0.0,0.0,,,,,0,,1,,,38.9375,-79.109375,1.578125
Raw,945814587,8024721000000,,,-1260194483713554688,0.0,104.72920257598162,-10.321195555757784,13.794565272031788,2650,21,0.0,15,404108362255221,19,27.1,388.43438720703125,0.04430000111460686,0,0.0,0.0,,,,,0,,1,,,38.9375,-79.109375,1.578125
Raw,945814587,8024721000000,,,-1260194483713554688,0.0,104.72920257598162,-10.321195555757784,13.794565272031788,2650,24,0.0,15,404108364926277,19,27.7,196.63473510742188,0.047300003468990326,0,0.0,0.0,,,,,0,,1,,,38.9375,-79.109375,1.578125
Raw,945814588,8024721000000,,,-1260194483713554688,0.0,104.72920257598162,-10.321195555757784,13.794565272031788,2650,27,0.0,15,404108351806540,47,22.2,333.5657653808594,2.7829999923706055,0,0.0,0.0,,,,,0,,1,,,38.9375,-79.109375,1.578125
Raw,945814588,8024721000000,,,-1260194483713554688,0.0,104.72920257598162,-10.321195555757784,13.794565272031788,2650,32,0.0,15,404108360426041,11,33.5,-400.6530456542969,0.05290000140666962,0,0.0,0.0,,,,,0,,1,,,38.9375,-79.109375,1.578125
Raw,945815617,8025721000000,,,-1260194483713554688,0.0,73.16100527532399,-9.451752262043378,12.296606799284433,2650,10,0.0,15,404109364031321,12,32.6,-343.7304992675781,0.029900001361966133,0,0.0,0.0,,,,,0,,1,,,92.6875,-81.84375,-7.78125
Raw,945815617,8025721000000,,,-1260194483713554688,0.0,73.16100527532399,-9.451752262043378,12.296606799284433,2650,12,0.0,15,404109350923531,80,16.6,-517.0469360351562,1.18149995803833,0,0.0,0.0,,,,,0,,1,,,92.6875,-81.84375,-7.78125
Raw,945815618,8025721000000,,,-1260194483713554688,0.0,73.16100527532399,-9.451752262043378,12.296606799284433,2650,14,0.0,15,404109353165257,13,31.1,-506.4554443359375,0.04470000043511391,0,0.0,0.0,,,,,0,,1,,,92.6875,-81.84375,-7.78125
Raw,945815619,8025721000000,,,-1260194483713554688,0.0,73.16100527532399,-9.451752262043378,12.296606799284433,2650,15,0.0,15,404109355360115,53,19.8,581.75634765625,0.9389999508857727,0,0.0,0.0,,,,,0,,1,,,92.6875,-81.84375,-7.78125
Raw,945815619,8025721000000,,,-1260194483713554688,0.0,73.16100527532399,-9.451752262043378,12.296606799284433,2650,20,0.0,15,404109367825781,27,24.8,-22.873300552368164,0.6270000338554382,0,0.0,0.0,,,,,0,,1,,,92.6875,-81.84375,-7.78125
Raw,945815620,8025721000000,,,-1260194483713554688,0.0,73.16100527532399,-9.451752262043378,12.296606799284433,2650,21,0.0,15,404109362253912,17,28.5,387.43695068359375,0.03629999980330467,0,0.0,0.0,,,,,0,,1,,,92.6875,-81.84375,-7.78125
Raw,945815621,8025721000000,,,-1260194483713554688,0.0,73.16100527532399,-9.451752262043378,12.296606799284433,2650,24,0.0,15,404109364925544,61,18.4,195.8978271484375,1.0824999809265137,0,0.0,0.0,,,,,0,,1,,,92.6875,-81.84375,-7.78125
Raw,945815621,8025721000000,,,-1260194483713554688,0.0,73.16100527532399,-9.451752262043378,12.296606799284433,2650,27,0.0,15,404109351805446,12,32.2,333.4007568359375,0.07039999961853027,0,0.0,0.0,,,,,0,,1,,,92.6875,-81.84375,-7.78125
Raw,945815622,8025721000000,,,-1260194483713554688,0.0,73.16100527532399,-9.451752262043378,12.296606799284433,2650,32,0.0,15,404109360427368,10,34.0,-401.3817138671875,0.022099999710917473,0,0.0,0.0,,,,,0,,1,,,92.6875,-81.84375,-7.78125
Raw,945816596,8026721000000,,,-1260194483713554688,0.0,69.6078350301832,-12.231413026329578,10.648986404208248,2650,10,0.0,15,404110364032469,8,36.7,-342.6875305175781,0.0272000003606081,0,0.0,0.0,,,,,0,,1,,,127.875,-84.953125,2.140625
Raw,945816597,8026721000000,,,-1260194483713554688,0.0,69.6078350301832,-12.231413026329578,10.648986404208248,2650,12,0.0,15,404110350925255,90,16.6,-517.0469360351562,2.68149995803833,0,0.0,0.0,,,,,0,,1,,,127.875,-84.953125,2.140625
Raw,945816597,8026721000000,,,-1260194483713554688,0.0,69.6078350301832,-12.231413026329578,10.648986404208248,2650,14,0.0,15,404110353166944,12,32.7,-505.05609130859375,0.04340000078082085,0,0.0,0.0,,,,,0,,1,,,127.875,-84.953125,2.140625
Raw,945816597,8026721000000,,,-1260194483713554688,0.0,69.6078350301832,-12.231413026329578,10.648986404208248,2650,15,0.0,15,404110355358535,61,18.6,582.38427734375,1.0190000534057617,0,0.0,0.0,,,,,0,,1,,,127.875,-84.953125,2.140625
Raw,945816598,8026721000000,,,-1260194483713554688,0.0,69.6078350301832,-12.231413026329578,10.648986404208248,2650,20,0.0,15,404110367825895,21,26.5,-21.723230361938477,0.12170000374317169,0,0.0,0.0,,,,,0,,1,,,127.875,-84.953125,2.140625
Raw,945816598,8026721000000,,,-1260194483713554688,0.0,69.6078350301832,-12.231413026329578,10.648986404208248,2650,21,0.0,15,404110362252604,19,27.3,389.0426940917969,0.04430000111460686,0,0.0,0.0,,,,,0,,1,,,127.875,-84.953125,2.140625
Raw,945816599,8026721000000,,,-1260194483713554688,0.0,69.6078350301832,-12.231413026329578,10.648986404208248,2650,24,0.0,15,404110364924851,35,22.8,196.32598876953125,0.7324999570846558,0,0.0,0.0,,,,,0,,1,,,127.875,-84.953125,2.140625
Raw,945816599,8026721000000,,,-1260194483713554688,0.0,69.6078350301832,-12.231413026329578,10.648986404208248,2650,27,0.0,15,404110351804314,13,31.2,334.6307678222656,0.04170000180602074,0,0.0,0.0,,,,,0,,1,,,127.875,-84.953125,2.140625
Raw,945816600,8026721000000,,,-1260194483713554688,0.0,69.6078350301832,-12.231413026329578,10.648986404208248,2650,32,0.0,15,404110360428705,10,34.6,-400.06005859375,0.022099999710917473,0,0.0,0.0,,,,,0,,1,,,127.875,-84.953125,2.140625
Raw,945817612,8027721000000,,,-1260194483713554688,0.0,71.16889173630625,-8.607754708051129,11.351475233884907,2650,8,0.0,15,404111349944826,562,19.6,64.10042572021484,1.2000000476837158,0,0.0,0.0,,,,,0,,1,,,186.07812,-86.515625,-2.90625
Raw,945817613,8027721000000,,,-1260194483713554688,0.0,71.16889173630625,-8.607754708051129,11.351475233884907,2650,10,0.0,15,404111364033638,10,34.5,-342.707275390625,0.02810000069439411,0,0.0,0.0,,,,,0,,1,,,186.07812,-86.515625,-2.90625
Raw,945817613,8027721000000,,,-1260194483713554688,0.0,71.16889173630625,-8.607754708051129,11.351475233884907,2650,12,0.0,15,404111350926997,126,13.9,-516.43798828125,2.24150013923645,0,0.0,0.0,,,,,0,,1,,,186.07812,-86.515625,-2.90625
Raw,945817614,8027721000000,,,-1260194483713554688,0.0,71.16889173630625,-8.607754708051129,11.351475233884907,2650,14,0.0,15,404111353168560,16,29.0,-505.3660583496094,0.04620000347495079,0,0.0,0.0,,,,,0,,1,,,186.07812,-86.515625,-2.90625
Raw,945817615,8027721000000,,,-1260194483713554688,0.0,71.16889173630625,-8.607754708051129,11.351475233884907,2650,15,0.0,15,404111355356638,9,35.8,582.5812377929688,0.04410000145435333,0,0.0,0.0,,,,,0,,1,,,186.07812,-86.515625,-2.90625
Raw,945817615,8027721000000,,,-1260194483713554688,0.0,71.16889173630625,-8.607754708051129,11.351475233884907,2650,20,0.0,15,404111367825903,16,29.3,-21.664966583251953,0.03720000013709068,0,0.0,0.0,,,,,0,,1,,,186.07812,-86.515625,-2.90625
Raw,945817616,8027721000000,,,-1260194483713554688,0.0,71.16889173630625,-8.607754708051129,11.351475233884907,2650,21,0.0,15,404111362251257,21,26.2,388.7025146484375,0.11420000344514847,0,0.0,0.0,,,,,0,,1,,,186.07812,-86.515625,-2.90625
Raw,945817617,8027721000000,,,-1260194483713554688,0.0,71.16889173630625,-8.607754708051129,11.351475233884907,2650,24,0.0,15,404111364924283,17,28.9,196.9356689453125,0.03930000215768814,0,0.0,0.0,,,,,0,,1,,,186.07812,-86.515625,-2.90625
Raw,945817617,8027721000000,,,-1260194483713554688,0.0,71.16889173630625,-8.607754708051129,11.351475233884907,2650,27,0.0,15,404111351803244,17,28.7,334.496337890625,0.049800001084804535,0,0.0,0.0,,,,,0,,1,,,186.07812,-86.515625,-2.90625
Raw,945817618,8027721000000,,,-1260194483713554688,0.0,71.16889173630625,-8.607754708051129,11.351475233884907,2650,32,0.0,15,404111360429999,14,30.6,-400.27386474609375,0.025800000876188278,0,0.0,0.0,,,,,0,,1,,,186.07812,-86.515625,-2.90625
Raw,945818609,8028721000000,,,-1260194483713554688,0.0,66.71643495792523,-9.010658841631544,13.625955037582065,2650,8,0.0,15,404112349944658,753,17.9,64.57615661621094,2.484999895095825,0,0.0,0.0,,,,,0,,1,,,223.0,-91.109375,0.140625
Raw,945818610,8028721000000,,,-1260194483713554688,0.0,66.71643495792523,-9.010658841631544,13.625955037582065,2650,10,0.0,15,404112364034766,10,34.4,-339.4951171875,0.02810000069439411,0,0.0,0.0,,,,,0,,1,,,223.0,-91.109375,0.140625
Raw,945818610,8028721000000,,,-1260194483713554688,0.0,66.71643495792523,-9.010658841631544,13.625955037582065,2650,12,0.0,15,404112350928649,35,22.0,-512.9556274414062,0.8014999628067017,0,0.0,0.0,,,,,0,,1,,,223.0,-91.109375,0.140625
Raw,945818611,8028721000000,,,-1260194483713554688,0.0,66.71643495792523,-9.010658841631544,13.625955037582065,2650,14,0.0,15,404112353170292,46,20.1,-501.84246826171875,0.9359999895095825,0,0.0,0.0,,,,,0,,1,,,223.0,-91.109375,0.140625
Raw,945818611,8028721000000,,,-1260194483713554688,0.0,66.71643495792523,-9.010658841631544,13.625955037582065,2650,15,0.0,15,404112355354704,6,38.5,585.5200805664062,0.04260000213980675,0,0.0,0.0,,,,,0,,1,,,223.0,-91.109375,0.140625
Raw,945818612,8028721000000,,,-1260194483713554688,0.0,66.71643495792523,-9.010658841631544,13.625955037582065,2650,20,0.0,15,404112367826041,17,28.6,-18.497459411621094,0.043800000101327896,0,0.0,0.0,,,,,0,,1,,,223.0,-91.109375,0.140625
Raw,945818613,8028721000000,,,-1260194483713554688,0.0,66.71643495792523,-9.010658841631544,13.625955037582065,2650,24,0.0,15,404112364923705,19,27.8,200.1354217529297,0.047300003468990326,0,0.0,0.0,,,,,0,,1,,,223.0,-91.109375,0.140625
Raw,945818613,8028721000000,,,-1260194483713554688,0.0,66.71643495792523,-9.010658841631544,13.625955037582065,2650,27,0.0,15,404112351802101,21,26.8,337.9410400390625,0.12770000100135803,0,0.0,0.0,,,,,0,,1,,,223.0,-91.109375,0.140625
Raw,945818614,8028721000000,,,-1260194483713554688,0.0,66.71643495792523,-9.010658841631544,13.625955037582065,2650,32,0.0,15,404112360431368,46,20.9,-396.61004638671875,0.8464999794960022,0,0.0,0.0,,,,,0,,1,,,223.0,-91.109375,0.140625
Raw,945819609,8029721000000,,,-1260194483713554688,0.0,66.3235186948441,0.3635331867499303,15.529052377270858,2650,8,0.0,15,404113349944442,771,17.9,64.57615661621094,3.9850001335144043,0,0.0,0.0,,,,,0,,1,,,272.15625,-95.1875,-1.140625
Raw,945819609,8029721000000,,,-1260194483713554688,0.0,66.3235186948441,0.3635331867499303,15.529052377270858,2650,10,0.0,15,404113364035861,14,30.6,-338.8757019042969,0.03180000185966492,0,0.0,0.0,,,,,0,,1,,,272.15625,-95.1875,-1.140625
Raw,945819610,8029721000000,,,-1260194483713554688,0.0,66.3235186948441,0.3635331867499303,15.529052377270858,2650,12,0.0,15,404113350930475,16,29.3,-512.7582397460938,0.04170000180602074,0,0.0,0.0,,,,,0,,1,,,272.15625,-95.1875,-1.140625
Raw,945819610,8029721000000,,,-1260194483713554688,0.0,66.3235186948441,0.3635331867499303,15.529052377270858,2650,14,0.0,15,404113353171966,54,20.1,-501.84246826171875,2.436000108718872,0,0.0,0.0,,,,,0,,1,,,272.15625,-95.1875,-1.140625
Raw,945819611,8029721000000,,,-1260194483713554688,0.0,66.3235186948441,0.3635331867499303,15.529052377270858,2650,15,0.0,15,404113355352737,9,35.9,586.2783813476562,0.04410000145435333,0,0.0,0.0,,,,,0,,1,,,272.15625,-95.1875,-1.140625
Raw,945819611,8029721000000,,,-1260194483713554688,0.0,66.3235186948441,0.3635331867499303,15.529052377270858,2650,20,0.0,15,404113367826027,16,29.3,-17.86102867126465,0.03720000013709068,0,0.0,0.0,,,,,0,,1,,,272.15625,-95.1875,-1.140625
Raw,945819612,8029721000000,,,-1260194483713554688,0.0,66.3235186948441,0.3635331867499303,15.529052377270858,2650,24,0.0,15,404113364922996,17,28.3,200.91810607910156,0.03930000215768814,0,0.0,0.0,,,,,0,,1,,,272.15625,-95.1875,-1.140625
Raw,945819612,8029721000000,,,-1260194483713554688,0.0,66.3235186948441,0.3635331867499303,15.529052377270858,2650,27,0.0,15,404113351800972,28,26.8,338.3421325683594,2.0429999828338623,0,0.0,0.0,,,,,0,,1,,,272.15625,-95.1875,-1.140625
Raw,945819613,8029721000000,,,-1260194483713554688,0.0,66.3235186948441,0.3635331867499303,15.529052377270858,2650,32,0.0,15,404113360432658,40,21.7,-396.4102783203125,0.7864999771118164,0,0.0,0.0,,,,,0,,1,,,272.15625,-95.1875,-1.140625
Raw,945820617,8030721000000,,,-1260194483713554688,0.0,58.28623034176417,2.940724598428899,14.2918896735911,2650,8,0.0,15,404114349944227,799,17.9,64.57615661621094,5.485000133514404,0,0.0,0.0,,,,,0,,1,,,317.42188,-97.578125,-0.21875
Raw,945820618,8030721000000,,,-1260194483713554688,0.0,58.28623034176417,2.940724598428899,14.2918896735911,2650,10,0.0,15,404114364037036,21,26.3,-339.7216491699219,0.11720000207424164,0,0.0,0.0,,,,,0,,1,,,317.42188,-97.578125,-0.21875
Raw,945820618,8030721000000,,,-1260194483713554688,0.0,58.28623034176417,2.940724598428899,14.2918896735911,2650,12,0.0,15,404114350932134,31,23.8,-513.5740966796875,0.6814999580383301,0,0.0,0.0,,,,,0,,1,,,317.42188,-97.578125,-0.21875
Raw,945820619,8030721000000,,,-1260194483713554688,0.0,58.28623034176417,2.940724598428899,14.2918896735911,2650,14,0.0,15,404114353173621,96,15.3,-502.432373046875,2.126000165939331,0,0.0,0.0,,,,,0,,1,,,317.42188,-97.578125,-0.21875
Raw,945820619,8030721000000,,,-1260194483713554688,0.0,58.28623034176417,2.940724598428899,14.2918896735911,2650,15,0.0,15,404114355350784,6,38.8,585.3452758789062,0.04260000213980675,0,0.0,0.0,,,,,0,,1,,,317.42188,-97.578125,-0.21875
Raw,945820620,8030721000000,,,-1260194483713554688,0.0,58.28623034176417,2.940724598428899,14.2918896735911,2650,20,0.0,15,404114367826102,21,26.4,-18.579679489135742,0.12170000374317169,0,0.0,0.0,,,,,0,,1,,,317.42188,-97.578125,-0.21875
Raw,945820621,8030721000000,,,-1260194483713554688,0.0,58.28623034176417,2.940724598428899,14.2918896735911,2650,21,0.0,15,404114362247410,13,32.6,391.4150695800781,0.765500009059906,0,0.0,0.0,,,,,0,,1,,,317.42188,-97.578125,-0.21875
Raw,945820621,8030721000000,,,-1260194483713554688,0.0,58.28623034176417,2.940724598428899,14.2918896735911,2650,24,0.0,15,404114364922349,10,34.4,200.07711791992188,0.02810000069439411,0,0.0,0.0,,,,,0,,1,,,317.42188,-97.578125,-0.21875
Raw,945820622,8030721000000,,,-1260194483713554688,0.0,58.28623034176417,2.940724598428899,14.2918896735911,2650,27,0.0,15,404114351799846,84,16.8,336.9244689941406,1.9329999685287476,0,0.0,0.0,,,,,0,,1,,,317.42188,-97.578125,-0.21875
Raw,945820623,8030721000000,,,-1260194483713554688,0.0,58.28623034176417,2.940724598428899,14.2918896735911,2650,32,0.0,15,404114360433950,40,21.2,-397.79937744140625,0.8464999794960022,0,0.0,0.0,,,,,0,,1,,,317.42188,-97.578125,-0.21875
Raw,945821622,8031721000000,,,-1260194483713554688,0.0,59.58802648819983,0.5935451806874467,16.9375992477716,2650,8,0.0,15,404115349944012,837,17.9,64.57615661621094,6.985000133514404,0,0.0,0.0,,,,,0,,1,,,4.703125,-99.0625,3.75
Raw,945821623,8031721000000,,,-1260194483713554688,0.0,59.58802648819983,0.5935451806874467,16.9375992477716,2650,10,0.0,15,404115364038075,24,25.3,-339.42071533203125,0.387800008058548,0,0.0,0.0,,,,,0,,1,,,4.703125,-99.0625,3.75
Raw,945821624,8031721000000,,,-1260194483713554688,0.0,59.58802648819983,0.5935451806874467,16.9375992477716,2650,12,0.0,15,404115350933858,70,17.6,-511.99462890625,1.091499924659729,0,0.0,0.0,,,,,0,,1,,,4.703125,-99.0625,3.75
Raw,945821625,8031721000000,,,-1260194483713554688,0.0,59.58802648819983,0.5935451806874467,16.9375992477716,2650,14,0.0,15,404115353175317,16,29.2,-502.14691162109375,0.04620000347495079,0,0.0,0.0,,,,,0,,1,,,4.703125,-99.0625,3.75
Raw,945821625,8031721000000,,,-1260194483713554688,0.0,59.58802648819983,0.5935451806874467,16.9375992477716,2650,15,0.0,15,404115355348819,11,33.7,586.1604614257812,0.04540000110864639,0,0.0,0.0,,,,,0,,1,,,4.703125,-99.0625,3.75
Raw,945821626,8031721000000,,,-1260194483713554688,0.0,59.58802648819983,0.5935451806874467,16.9375992477716,2650,20,0.0,15,404115367826172,19,27.7,-17.96548080444336,0.05180000141263008,0,0.0,0.0,,,,,0,,1,,,4.703125,-99.0625,3.75
Raw,945821626,8031721000000,,,-1260194483713554688,0.0,59.58802648819983,0.5935451806874467,16.9375992477716,2650,21,0.0,15,404115362246080,12,32.3,392.3944091796875,0.026900000870227814,0,0.0,0.0,,,,,0,,1,,,4.703125,-99.0625,3.75
Raw,945821627,8031721000000,,,-1260194483713554688,0.0,59.58802648819983,0.5935451806874467,16.9375992477716,2650,24,0.0,15,404115364921654,13,31.4,200.9510040283203,0.031200001016259193,0,0.0,0.0,,,,,0,,1,,,4.703125,-99.0625,3.75
Raw,945821627,8031721000000,,,-1260194483713554688,0.0,59.58802648819983,0.5935451806874467,16.9375992477716,2650,27,0.0,15,404115351798670,24,25.6,337.7902526855469,0.3982999920845032,0,0.0,0.0,,,,,0,,1,,,4.703125,-99.0625,3.75
Raw,945821628,8031721000000,,,-1260194483713554688,0.0,59.58802648819983,0.5935451806874467,16.9375992477716,2650,32,0.0,15,404115360435333,14,30.3,-396.91455078125,0.4165000021457672,0,0.0,0.0,,,,,0,,1,,,4.703125,-99.0625,3.75
Raw,945822610,8032941000000,,,-1260194483712886784,0.0,4126.091487705708,6.1195751467714405,5.1679199095710375,2651,10,0.0,15,404116583371425,13,31.3,-336.3792419433594,0.08959999680519104,0,0.0,0.0,,,,,0,,1,,,58.109375,-102.546875,-5.015625
Raw,945822611,8032941000000,,,-1260194483712886784,0.0,4126.091487705708,6.1195751467714405,5.1679199095710375,2651,14,0.0,15,404116572509353,9,35.6,-499.0890197753906,0.05250000208616257,0,0.0,0.0,,,,,0,,1,,,58.109375,-102.546875,-5.015625
Raw,945822612,8032941000000,,,-1260194483712886784,0.0,4126.091487705708,6.1195751467714405,5.1679199095710375,2651,15,0.0,15,404116574677904,31,23.6,588.0074462890625,0.67249995470047,0,0.0,0.0,,,,,0,,1,,,58.109375,-102.546875,-5.015625
Raw,945822613,8032941000000,,,-1260194483712886784,0.0,4126.091487705708,6.1195751467714405,5.1679199095710375,2651,20,0.0,15,404116587158172,19,27.9,-15.066282272338867,0.17419999837875366,0,0.0,0.0,,,,,0,,1,,,58.109375,-102.546875,-5.015625
Raw,945822614,8032941000000,,,-1260194483712886784,0.0,4126.091487705708,6.1195751467714405,5.1679199095710375,2651,21,0.0,15,404116581576483,11,33.6,395.15020751953125,0.0747000053524971,0,0.0,0.0,,,,,0,,1,,,58.109375,-102.546875,-5.015625
Raw,945822615,8032941000000,,,-1260194483712886784,0.0,4126.091487705708,6.1195751467714405,5.1679199095710375,2651,27,0.0,15,404116571129346,11,33.8,341.0018005371094,0.059700001031160355,0,0.0,0.0,,,,,0,,1,,,58.109375,-102.546875,-5.015625
Raw,945822615,8032941000000,,,-1260194483712886784,0.0,4126.091487705708,6.1195751467714405,5.1679199095710375,2651,32,0.0,15,404116579768918,8,36.6,-393.9519348144531,0.05900000035762787,0,0.0,0.0,,,,,0,,1,,,58.109375,-102.546875,-5.015625
Raw,945823610,8033933000000,,,-1260194483712856832,0.0,4200.647119432688,11.54075317316959,12.004999544591897,2652,10,0.0,15,404117575342649,11,33.6,-336.72528076171875,0.065700002014637,0,0.0,0.0,,,,,0,,1,,,114.734375,-96.734375,-4.6875
Raw,945823611,8033933000000,,,-1260194483712856832,0.0,4200.647119432688,11.54075317316959,12.004999544591897,2652,14,0.0,15,404117564481069,10,34.6,-499.44488525390625,0.044599998742341995,0,0.0,0.0,,,,,0,,1,,,114.734375,-96.734375,-4.6875
Raw,945823612,8033933000000,,,-1260194483712856832,0.0,4200.647119432688,11.54075317316959,12.004999544591897,2652,20,0.0,15,404117579128358,16,29.0,-15.451778411865234,0.10289999842643738,0,0.0,0.0,,,,,0,,1,,,114.734375,-96.734375,-4.6875
Raw,945823612,8033933000000,,,-1260194483712856832,0.0,4200.647119432688,11.54075317316959,12.004999544591897,2652,21,0.0,15,404117573545280,13,31.0,394.92230224609375,0.07459999620914459,0,0.0,0.0,,,,,0,,1,,,114.734375,-96.734375,-4.6875
Raw,945823613,8033933000000,,,-1260194483712856832,0.0,4200.647119432688,11.54075317316959,12.004999544591897,2652,24,0.0,15,404117576222286,27,24.7,202.28216552734375,0.6255000233650208,0,0.0,0.0,,,,,0,,1,,,114.734375,-96.734375,-4.6875
Raw,945823614,8033933000000,,,-1260194483712856832,0.0,4200.647119432688,11.54075317316959,12.004999544591897,2652,27,0.0,15,404117563098264,12,32.4,340.53009033203125,0.08299999684095383,0,0.0,0.0,,,,,0,,1,,,114.734375,-96.734375,-4.6875
Raw,945823615,8033933000000,,,-1260194483712856832,0.0,4200.647119432688,11.54075317316959,12.004999544591897,2652,32,0.0,15,404117571740285,10,34.5,-394.2513122558594,0.05509999766945839,0,0.0,0.0,,,,,0,,1,,,114.734375,-96.734375,-4.6875
Raw,945824608,8034921000000,,,-1260194483712560384,0.0,4212.814383208752,9.571864806165042,10.085532186574534,2653,10,0.0,15,404118563047669,10,34.0,-339.6794738769531,0.04309999942779541,0,0.0,0.0,,,,,0,,1,,,161.14062,-94.6875,-1.109375
Raw,945824609,8034921000000,,,-1260194483712560384,0.0,4212.814383208752,9.571864806165042,10.085532186574534,2653,14,0.0,15,404118552186555,12,32.0,-501.89263916015625,0.06650000065565109,0,0.0,0.0,,,,,0,,1,,,161.14062,-94.6875,-1.109375
Raw,945824610,8034921000000,,,-1260194483712560384,0.0,4212.814383208752,9.571864806165042,10.085532186574534,2653,15,0.0,15,404118554348438,14,30.9,585.0437622070312,0.08449999988079071,0,0.0,0.0,,,,,0,,1,,,161.14062,-94.6875,-1.109375
Raw,945824610,8034921000000,,,-1260194483712560384,0.0,4212.814383208752,9.571864806165042,10.085532186574534,2653,20,0.0,15,404118566832305,24,25.8,-18.402795791625977,1.1694999933242798,0,0.0,0.0,,,,,0,,1,,,161.14062,-94.6875,-1.109375
Raw,945824611,8034921000000,,,-1260194483712560384,0.0,4212.814383208752,9.571864806165042,10.085532186574534,2653,21,0.0,15,404118561247839,21,26.3,392.4599609375,0.28220000863075256,0,0.0,0.0,,,,,0,,1,,,161.14062,-94.6875,-1.109375
Raw,945824611,8034921000000,,,-1260194483712560384,0.0,4212.814383208752,9.571864806165042,10.085532186574534,2653,24,0.0,15,404118563925417,16,29.4,200.43568420410156,0.07889999449253082,0,0.0,0.0,,,,,0,,1,,,161.14062,-94.6875,-1.109375
Raw,945824612,8034921000000,,,-1260194483712560384,0.0,4212.814383208752,9.571864806165042,10.085532186574534,2653,27,0.0,15,404118550801018,16,29.4,338.2239074707031,0.08940000087022781,0,0.0,0.0,,,,,0,,1,,,161.14062,-94.6875,-1.109375
Raw,945824613,8034921000000,,,-1260194483712560384,0.0,4212.814383208752,9.571864806165042,10.085532186574534,2653,32,0.0,15,404118559445424,11,33.2,-396.8211975097656,0.07170000672340393,0,0.0,0.0,,,,,0,,1,,,161.14062,-94.6875,-1.109375
Raw,945825621,8035938000000,,,-1260194483712212992,0.0,4212.380852550268,0.5743034106981486,7.900278685169143,2654,10,0.0,15,404119579701540,7,37.0,-337.41192626953125,0.0560000017285347,0,0.0,0.0,,,,,0,,1,,,220.59375,-98.203125,2.21875
Raw,945825622,8035938000000,,,-1260194483712212992,0.0,4212.380852550268,0.5743034106981486,7.900278685169143,2654,12,0.0,15,404119566599208,27,24.3,-511.0336608886719,0.6604999899864197,0,0.0,0.0,,,,,0,,1,,,220.59375,-98.203125,2.21875
Raw,945825622,8035938000000,,,-1260194483712212992,0.0,4212.380852550268,0.5743034106981486,7.900278685169143,2654,14,0.0,15,404119568840926,19,27.4,-500.0060119628906,0.17570000886917114,0,0.0,0.0,,,,,0,,1,,,220.59375,-98.203125,2.21875
Raw,945825623,8035938000000,,,-1260194483712212992,0.0,4212.380852550268,0.5743034106981486,7.900278685169143,2654,15,0.0,15,404119570999218,6,39.8,587.8508911132812,0.036900002509355545,0,0.0,0.0,,,,,0,,1,,,220.59375,-98.203125,2.21875
Raw,945825624,8035938000000,,,-1260194483712212992,0.0,4212.380852550268,0.5743034106981486,7.900278685169143,2654,20,0.0,15,404119583485110,21,26.3,-15.817638397216797,0.25519999861717224,0,0.0,0.0,,,,,0,,1,,,220.59375,-98.203125,2.21875
Raw,945825624,8035938000000,,,-1260194483712212992,0.0,4212.380852550268,0.5743034106981486,7.900278685169143,2654,24,0.0,15,404119580577496,21,26.3,202.95668029785156,0.2806999981403351,0,0.0,0.0,,,,,0,,1,,,220.59375,-98.203125,2.21875
Raw,945825625,8035938000000,,,-1260194483712212992,0.0,4212.380852550268,0.5743034106981486,7.900278685169143,2654,27,0.0,15,404119567452642,16,29.9,339.9613037109375,0.08489999920129776,0,0.0,0.0,,,,,0,,1,,,220.59375,-98.203125,2.21875
Raw,945825625,8035938000000,,,-1260194483712212992,0.0,4212.380852550268,0.5743034106981486,7.900278685169143,2654,32,0.0,15,404119576099573,16,29.5,-394.9103698730469,0.09839999675750732,0,0.0,0.0,,,,,0,,1,,,220.59375,-98.203125,2.21875
Raw,945826610,8036931000000,,,-1260194483711984128,0.0,4218.145739287138,8.473774092630709,13.372887787661233,2655,10,0.0,15,404120572473611,11,33.1,-334.69464111328125,0.06120000407099724,0,0.0,0.0,,,,,0,,1,,,257.95312,-99.796875,3.640625
Raw,945826610,8036931000000,,,-1260194483711984128,0.0,4218.145739287138,8.473774092630709,13.372887787661233,2655,12,0.0,15,404120559372311,13,31.3,-509.4541931152344,0.4000000059604645,0,0.0,0.0,,,,,0,,1,,,257.95312,-99.796875,3.640625
Raw,945826611,8036931000000,,,-1260194483711984128,0.0,4218.145739287138,8.473774092630709,13.372887787661233,2655,15,0.0,15,404120563768228,7,37.0,589.931884765625,0.06200000271201134,0,0.0,0.0,,,,,0,,1,,,257.95312,-99.796875,3.640625
Raw,945826611,8036931000000,,,-1260194483711984128,0.0,4218.145739287138,8.473774092630709,13.372887787661233,2655,20,0.0,15,404120576256132,19,27.1,-13.771018028259277,0.18770000338554382,0,0.0,0.0,,,,,0,,1,,,257.95312,-99.796875,3.640625
Raw,945826612,8036931000000,,,-1260194483711984128,0.0,4218.145739287138,8.473774092630709,13.372887787661233,2655,21,0.0,15,404120570668857,31,23.0,396.69573974609375,0.7264999747276306,0,0.0,0.0,,,,,0,,1,,,257.95312,-99.796875,3.640625
Raw,945826612,8036931000000,,,-1260194483711984128,0.0,4218.145739287138,8.473774092630709,13.372887787661233,2655,24,0.0,15,404120573347754,17,28.9,205.50840759277344,0.1168999969959259,0,0.0,0.0,,,,,0,,1,,,257.95312,-99.796875,3.640625
Raw,945826613,8036931000000,,,-1260194483711984128,0.0,4218.145739287138,8.473774092630709,13.372887787661233,2655,32,0.0,15,404120568871738,13,31.0,-392.3832702636719,0.06709999591112137,0,0.0,0.0,,,,,0,,1,,,257.95312,-99.796875,3.640625
Raw,945827614,8038044000000,,,-1260194483711409920,0.0,4237.725865095854,15.509364455888132,14.996466905333966,2656,10,0.0,15,404121684900616,24,25.9,-335.4857482910156,0.18540000915527344,0,0.0,0.0,,,,,0,,1,,,309.95312,-107.921875,-7.125
Raw,945827615,8038044000000,,,-1260194483711409920,0.0,4237.725865095854,15.509364455888132,14.996466905333966,2656,12,0.0,15,404121671799986,27,24.2,-509.39715576171875,0.6679999828338623,0,0.0,0.0,,,,,0,,1,,,309.95312,-107.921875,-7.125
Raw,945827616,8038044000000,,,-1260194483711409920,0.0,4237.725865095854,15.509364455888132,14.996466905333966,2656,15,0.0,15,404121676191845,6,39.1,589.2464599609375,0.034299999475479126,0,0.0,0.0,,,,,0,,1,,,309.95312,-107.921875,-7.125
Raw,945827616,8038044000000,,,-1260194483711409920,0.0,4237.725865095854,15.509364455888132,14.996466905333966,2656,20,0.0,15,404121688681818,24,25.0,-13.735970497131348,0.19140000641345978,0,0.0,0.0,,,,,0,,1,,,309.95312,-107.921875,-7.125
Raw,945827618,8038044000000,,,-1260194483711409920,0.0,4237.725865095854,15.509364455888132,14.996466905333966,2656,21,0.0,15,404121683093237,19,27.2,396.47064208984375,0.09809999912977219,0,0.0,0.0,,,,,0,,1,,,309.95312,-107.921875,-7.125
Raw,945827619,8038044000000,,,-1260194483711409920,0.0,4237.725865095854,15.509364455888132,14.996466905333966,2656,24,0.0,15,404121685772787,10,34.4,204.9883270263672,0.02459999918937683,0,0.0,0.0,,,,,0,,1,,,309.95312,-107.921875,-7.125
Raw,945828604,8038833000000,,,-1260194483711197184,0.0,4207.189194858074,13.52144268193364,12.07814292419329,2657,10,0.0,15,404122473688337,31,23.0,-337.2479553222656,0.7310000061988831,0,0.0,0.0,,,,,0,,1,,,342.28125,-98.328125,1.359375
Raw,945828605,8038833000000,,,-1260194483711197184,0.0,4207.189194858074,13.52144268193364,12.07814292419329,2657,15,0.0,15,404122464977370,6,39.7,588.49267578125,0.1875000149011612,0,0.0,0.0,,,,,0,,1,,,342.28125,-98.328125,1.359375
Raw,945828606,8038833000000,,,-1260194483711197184,0.0,4207.189194858074,13.52144268193364,12.07814292419329,2657,24,0.0,15,404122474559352,19,27.2,204.08753967285156,0.08460000157356262,0,0.0,0.0,,,,,0,,1,,,342.28125,-98.328125,1.359375
Raw,945828607,8038833000000,,,-1260194483711197184,0.0,4207.189194858074,13.52144268193364,12.07814292419329,2657,27,0.0,15,404122461433068,40,21.5,339.7883605957031,0.8029999732971191,0,0.0,0.0,,,,,0,,1,,,342.28125,-98.328125,1.359375
Raw,945829618,8039829000000,,,-1260194483710244864,0.0,4240.753594785929,8.257766833679138,11.792570244854291,2658,10,0.0,15,404123468737237,21,26.5,-334.6716613769531,0.10969999432563782,0,0.0,0.0,,,,,0,,1,,,31.34375,-102.125,-4.75
Raw,945829619,8039829000000,,,-1260194483710244864,0.0,4240.753594785929,8.257766833679138,11.792570244854291,2658,14,0.0,15,404123457878936,14,30.5,-497.409912109375,0.05230000242590904,0,0.0,0.0,,,,,0,,1,,,31.34375,-102.125,-4.75
Raw,945829620,8039829000000,,,-1260194483710244864,0.0,4240.753594785929,8.257766833679138,11.792570244854291,2658,21,0.0,15,404123466925522,12,32.6,397.17498779296875,0.030400000512599945,0,0.0,0.0,,,,,0,,1,,,31.34375,-102.125,-4.75
Raw,945829620,8039829000000,,,-1260194483710244864,0.0,4240.753594785929,8.257766833679138,11.792570244854291,2658,24,0.0,15,404123469606286,11,33.8,205.83233642578125,0.0325000025331974,0,0.0,0.0,,,,,0,,1,,,31.34375,-102.125,-4.75
Raw,945829622,8039829000000,,,-1260194483710244864,0.0,4240.753594785929,8.257766833679138,11.792570244854291,2658,27,0.0,15,404123456479642,21,26.8,342.9983825683594,0.1216999962925911,0,0.0,0.0,,,,,0,,1,,,31.34375,-102.125,-4.75
Raw,945829623,8039829000000,,,-1260194483710244864,0.0,4240.753594785929,8.257766833679138,11.792570244854291,2658,32,0.0,15,404123465136098,10,34.4,-392.1604919433594,0.02459999918937683,0,0.0,0.0,,,,,0,,1,,,31.34375,-102.125,-4.75
Raw,945830612,8040843000000,,,-1260194483709423104,0.0,4221.608396619558,15.81369378516297,10.538450607109155,2659,8,0.0,15,404124467810325,40,21.7,73.50093078613281,0.7820000052452087,0,0.0,0.0,,,,,0,,1,,,82.703125,-92.6875,-1.328125
Raw,945830613,8040843000000,,,-1260194483709423104,0.0,4221.608396619558,15.81369378516297,10.538450607109155,2659,10,0.0,15,404124481916946,17,28.3,-334.7698059082031,0.0723000019788742,0,0.0,0.0,,,,,0,,1,,,82.703125,-92.6875,-1.328125
Raw,945830614,8040843000000,,,-1260194483709423104,0.0,4221.608396619558,15.81369378516297,10.538450607109155,2659,14,0.0,15,404124471059135,14,30.0,-497.4400939941406,0.043299999088048935,0,0.0,0.0,,,,,0,,1,,,82.703125,-92.6875,-1.328125
Raw,945830615,8040843000000,,,-1260194483709423104,0.0,4221.608396619558,15.81369378516297,10.538450607109155,2659,20,0.0,15,404124485695243,35,22.3,-11.845781326293945,0.7789999842643738,0,0.0,0.0,,,,,0,,1,,,82.703125,-92.6875,-1.328125
Raw,945830615,8040843000000,,,-1260194483709423104,0.0,4221.608396619558,15.81369378516297,10.538450607109155,2659,21,0.0,15,404124480102725,11,33.1,397.4750671386719,0.049000002443790436,0,0.0,0.0,,,,,0,,1,,,82.703125,-92.6875,-1.328125
Raw,945830616,8040843000000,,,-1260194483709423104,0.0,4221.608396619558,15.81369378516297,10.538450607109155,2659,27,0.0,15,404124469656977,13,31.1,342.7108154296875,0.037300001829862595,0,0.0,0.0,,,,,0,,1,,,82.703125,-92.6875,-1.328125
Raw,945830617,8040843000000,,,-1260194483709423104,0.0,4221.608396619558,15.81369378516297,10.538450607109155,2659,32,0.0,15,404124478315943,40,21.5,-391.02496337890625,0.7985000014305115,0,0.0,0.0,,,,,0,,1,,,82.703125,-92.6875,-1.328125
Raw,945831609,8041832000000,,,-1260194483709075968,0.0,4210.580606013536,15.810253409177282,13.299926526899581,2660,10,0.0,15,404125470571299,27,24.2,-335.3640441894531,0.6664999723434448,0,0.0,0.0,,,,,0,,1,,,118.015625,-99.21875,3.5
Raw,945831610,8041832000000,,,-1260194483709075968,0.0,4210.580606013536,15.810253409177282,13.299926526899581,2660,12,0.0,15,404125457472415,35,22.8,-509.5398864746094,0.7369999885559082,0,0.0,0.0,,,,,0,,1,,,118.015625,-99.21875,3.5
Raw,945831610,8041832000000,,,-1260194483709075968,0.0,4210.580606013536,15.810253409177282,13.299926526899581,2660,14,0.0,15,404125459713871,13,31.8,-497.33148193359375,0.05230000242590904,0,0.0,0.0,,,,,0,,1,,,118.015625,-99.21875,3.5
Raw,945831611,8041832000000,,,-1260194483709075968,0.0,4210.580606013536,15.810253409177282,13.299926526899581,2660,20,0.0,15,404125474348287,27,24.8,-13.035116195678711,0.6225000023841858,0,0.0,0.0,,,,,0,,1,,,118.015625,-99.21875,3.5
Raw,945831612,8041832000000,,,-1260194483709075968,0.0,4210.580606013536,15.810253409177282,13.299926526899581,2660,21,0.0,15,404125468754558,27,24.1,396.8955078125,0.6634999513626099,0,0.0,0.0,,,,,0,,1,,,118.015625,-99.21875,3.5
Raw,945831612,8041832000000,,,-1260194483709075968,0.0,4210.580606013536,15.810253409177282,13.299926526899581,2660,24,0.0,15,404125471436506,24,25.3,206.25608825683594,0.19590000808238983,0,0.0,0.0,,,,,0,,1,,,118.015625,-99.21875,3.5
Raw,945831613,8041832000000,,,-1260194483709075968,0.0,4210.580606013536,15.810253409177282,13.299926526899581,2660,27,0.0,15,404125458308978,31,23.6,342.28125,0.6784999966621399,0,0.0,0.0,,,,,0,,1,,,118.015625,-99.21875,3.5
Raw,945831614,8041832000000,,,-1260194483709075968,0.0,4210.580606013536,15.810253409177282,13.299926526899581,2660,32,0.0,15,404125466970307,11,33.8,-392.06146240234375,0.02800000086426735,0,0.0,0.0,,,,,0,,1,,,118.015625,-99.21875,3.5
Raw,945832611,8042741000000,,,-1260194483708839168,0.0,4219.885915517807,15.686770473602234,6.942235768838588,2661,10,0.0,15,404126379335276,11,33.2,-337.5677185058594,0.07170000672340393,0,0.0,0.0,,,,,0,,1,,,163.79688,-100.890625,-1.703125
Raw,945832611,8042741000000,,,-1260194483708839168,0.0,4219.885915517807,15.686770473602234,6.942235768838588,2661,14,0.0,15,404126368478447,12,32.6,-500.5274658203125,0.060499999672174454,0,0.0,0.0,,,,,0,,1,,,163.79688,-100.890625,-1.703125
Raw,945832613,8042741000000,,,-1260194483708839168,0.0,4219.885915517807,15.686770473602234,6.942235768838588,2661,15,0.0,15,404126370611819,27,24.4,586.466064453125,0.6664999723434448,0,0.0,0.0,,,,,0,,1,,,163.79688,-100.890625,-1.703125
Raw,945832614,8042741000000,,,-1260194483708839168,0.0,4219.885915517807,15.686770473602234,6.942235768838588,2661,20,0.0,15,404126383111518,21,26.3,-16.111398696899414,0.25519999861717224,0,0.0,0.0,,,,,0,,1,,,163.79688,-100.890625,-1.703125
Raw,945832615,8042741000000,,,-1260194483708839168,0.0,4219.885915517807,15.686770473602234,6.942235768838588,2661,21,0.0,15,404126377516321,21,26.8,393.94488525390625,0.27619999647140503,0,0.0,0.0,,,,,0,,1,,,163.79688,-100.890625,-1.703125
Raw,945832616,8042741000000,,,-1260194483708839168,0.0,4219.885915517807,15.686770473602234,6.942235768838588,2661,24,0.0,15,404126380199032,35,22.7,202.3107147216797,0.7414999604225159,0,0.0,0.0,,,,,0,,1,,,163.79688,-100.890625,-1.703125
Raw,945832616,8042741000000,,,-1260194483708839168,0.0,4219.885915517807,15.686770473602234,6.942235768838588,2661,27,0.0,15,404126367070965,21,26.6,339.9397277832031,0.2612000107765198,0,0.0,0.0,,,,,0,,1,,,163.79688,-100.890625,-1.703125
Raw,945832617,8042741000000,,,-1260194483708839168,0.0,4219.885915517807,15.686770473602234,6.942235768838588,2661,32,0.0,15,404126375734534,11,33.9,-395.1706237792969,0.065700002014637,0,0.0,0.0,,,,,0,,1,,,163.79688,-100.890625,-1.703125
Raw,945833621,8043940000000,,,-1260194483708012032,0.0,4292.958416044712,4.754750317547891,9.21804368809194,2662,10,0.0,15,404127577509485,14,30.1,-334.8168029785156,0.08900000154972076,0,0.0,0.0,,,,,0,,1,,,199.875,-96.859375,-1.484375
Raw,945833622,8043940000000,,,-1260194483708012032,0.0,4292.958416044712,4.754750317547891,9.21804368809194,2662,12,0.0,15,404127564412165,24,25.8,-509.6535949707031,1.1965000629425049,0,0.0,0.0,,,,,0,,1,,,199.875,-96.859375,-1.484375
Raw,945833623,8043940000000,,,-1260194483708012032,0.0,4292.958416044712,4.754750317547891,9.21804368809194,2662,14,0.0,15,404127566653305,27,24.0,-497.78924560546875,0.6604999899864197,0,0.0,0.0,,,,,0,,1,,,199.875,-96.859375,-1.484375
Raw,945833623,8043940000000,,,-1260194483708012032,0.0,4292.958416044712,4.754750317547891,9.21804368809194,2662,15,0.0,15,404127568782438,5,40.9,589.4463500976562,0.03189999982714653,0,0.0,0.0,,,,,0,,1,,,199.875,-96.859375,-1.484375
Raw,945833624,8043940000000,,,-1260194483708012032,0.0,4292.958416044712,4.754750317547891,9.21804368809194,2662,20,0.0,15,404127581284329,13,31.1,-13.352511405944824,0.08659999817609787,0,0.0,0.0,,,,,0,,1,,,199.875,-96.859375,-1.484375
Raw,945833625,8043940000000,,,-1260194483708012032,0.0,4292.958416044712,4.754750317547891,9.21804368809194,2662,24,0.0,15,404127578370914,8,36.0,205.74188232421875,0.057500001043081284,0,0.0,0.0,,,,,0,,1,,,199.875,-96.859375,-1.484375
Raw,945833625,8043940000000,,,-1260194483708012032,0.0,4292.958416044712,4.754750317547891,9.21804368809194,2662,27,0.0,15,404127565242385,12,32.1,343.015380859375,0.0559999980032444,0,0.0,0.0,,,,,0,,1,,,199.875,-96.859375,-1.484375
Raw,945833626,8043940000000,,,-1260194483708012032,0.0,4292.958416044712,4.754750317547891,9.21804368809194,2662,32,0.0,15,404127573908916,17,28.0,-392.2914733886719,0.1168999969959259,0,0.0,0.0,,,,,0,,1,,,199.875,-96.859375,-1.484375
Raw,945834623,8044948000000,,,-1260194483707993344,0.0,4229.907877743244,14.240226773733909,9.754234953999962,2663,10,0.0,15,404128585491931,10,34.3,-334.669189453125,0.04609999805688858,0,0.0,0.0,,,,,0,,1,,,242.76562,-99.203125,3.203125
Raw,945834623,8044948000000,,,-1260194483707993344,0.0,4229.907877743244,14.240226773733909,9.754234953999962,2663,12,0.0,15,404128572395239,14,30.0,-508.4016418457031,0.08150000125169754,0,0.0,0.0,,,,,0,,1,,,242.76562,-99.203125,3.203125
Raw,945834624,8044948000000,,,-1260194483707993344,0.0,4229.907877743244,14.240226773733909,9.754234953999962,2663,14,0.0,15,404128574636053,27,24.4,-498.8548583984375,0.67249995470047,0,0.0,0.0,,,,,0,,1,,,242.76562,-99.203125,3.203125
Raw,945834625,8044948000000,,,-1260194483707993344,0.0,4229.907877743244,14.240226773733909,9.754234953999962,2663,15,0.0,15,404128576761827,6,39.8,590.0841674804688,0.045900002121925354,0,0.0,0.0,,,,,0,,1,,,242.76562,-99.203125,3.203125
Raw,945834625,8044948000000,,,-1260194483707993344,0.0,4229.907877743244,14.240226773733909,9.754234953999962,2663,20,0.0,15,404128589265885,19,27.3,-12.84783935546875,0.17720000445842743,0,0.0,0.0,,,,,0,,1,,,242.76562,-99.203125,3.203125
Raw,945834626,8044948000000,,,-1260194483707993344,0.0,4229.907877743244,14.240226773733909,9.754234953999962,2663,24,0.0,15,404128586351670,9,35.9,206.53457641601562,0.04349999874830246,0,0.0,0.0,,,,,0,,1,,,242.76562,-99.203125,3.203125
Raw,945835626,8046046000000,,,-1260194483707229184,0.0,4244.925919920206,16.319753528799673,12.86986362311315,2664,10,0.0,15,404129682729066,14,30.8,-333.2644348144531,0.059800002723932266,0,0.0,0.0,,,,,0,,1,,,275.875,-105.25,7.71875
Raw,945835626,8046046000000,,,-1260194483707229184,0.0,4244.925919920206,16.319753528799673,12.86986362311315,2664,12,0.0,15,404129669633133,21,26.6,-507.4237365722656,0.1111999973654747,0,0.0,0.0,,,,,0,,1,,,275.875,-105.25,7.71875
Raw,945835627,8046046000000,,,-1260194483707229184,0.0,4244.925919920206,16.319753528799673,12.86986362311315,2664,14,0.0,15,404129671873744,40,21.7,-496.1051330566406,0.7879999876022339,0,0.0,0.0,,,,,0,,1,,,275.875,-105.25,7.71875
Raw,945835627,8046046000000,,,-1260194483707229184,0.0,4244.925919920206,16.319753528799673,12.86986362311315,2664,15,0.0,15,404129673995607,7,37.6,591.2382202148438,0.032099999487400055,0,0.0,0.0,,,,,0,,1,,,275.875,-105.25,7.71875
Raw,945835628,8046046000000,,,-1260194483707229184,0.0,4244.925919920206,16.319753528799673,12.86986362311315,2664,20,0.0,15,404129686501738,14,30.9,-11.592148780822754,0.03579999879002571,0,0.0,0.0,,,,,0,,1,,,275.875,-105.25,7.71875
Raw,945835628,8046046000000,,,-1260194483707229184,0.0,4244.925919920206,16.319753528799673,12.86986362311315,2664,21,0.0,15,404129680902046,19,27.9,398.7143859863281,0.09360000491142273,0,0.0,0.0,,,,,0,,1,,,275.875,-105.25,7.71875
Raw,945835629,8046046000000,,,-1260194483707229184,0.0,4244.925919920206,16.319753528799673,12.86986362311315,2664,24,0.0,15,404129683586792,10,34.4,207.78001403808594,0.051600001752376556,0,0.0,0.0,,,,,0,,1,,,275.875,-105.25,7.71875
Raw,945835629,8046046000000,,,-1260194483707229184,0.0,4244.925919920206,16.319753528799673,12.86986362311315,2664,27,0.0,15,404129670457005,31,23.5,343.89874267578125,0.6664999723434448,0,0.0,0.0,,,,,0,,1,,,275.875,-105.25,7.71875
Raw,945835630,8046046000000,,,-1260194483707229184,0.0,4244.925919920206,16.319753528799673,12.86986362311315,2664,32,0.0,15,404129679128676,27,24.4,-391.34844970703125,0.6800000071525574,0,0.0,0.0,,,,,0,,1,,,275.875,-105.25,7.71875
Raw,945836615,8046835000000,,,-1260194483706336512,0.0,4214.306827634573,20.247802412818725,10.199041531017706,2665,10,0.0,15,404130470837253,21,26.7,-336.060302734375,0.11270000040531158,0,0.0,0.0,,,,,0,,1,,,327.1875,-104.796875,-3.796875
Raw,945836615,8046835000000,,,-1260194483706336512,0.0,4214.306827634573,20.247802412818725,10.199041531017706,2665,12,0.0,15,404130457741819,27,24.3,-510.02508544921875,0.6769999861717224,0,0.0,0.0,,,,,0,,1,,,327.1875,-104.796875,-3.796875
Raw,945836616,8046835000000,,,-1260194483706336512,0.0,4214.306827634573,20.247802412818725,10.199041531017706,2665,15,0.0,15,404130462101419,6,39.5,588.2374267578125,0.04330000281333923,0,0.0,0.0,,,,,0,,1,,,327.1875,-104.796875,-3.796875
Raw,945836617,8046835000000,,,-1260194483706336512,0.0,4214.306827634573,20.247802412818725,10.199041531017706,2665,20,0.0,15,404130474609235,19,27.2,-14.346334457397461,0.08460000157356262,0,0.0,0.0,,,,,0,,1,,,327.1875,-104.796875,-3.796875
Raw,945836617,8046835000000,,,-1260194483706336512,0.0,4214.306827634573,20.247802412818725,10.199041531017706,2665,21,0.0,15,404130469008413,10,34.1,396.1390686035156,0.03060000017285347,0,0.0,0.0,,,,,0,,1,,,327.1875,-104.796875,-3.796875
Raw,945836618,8046835000000,,,-1260194483706336512,0.0,4214.306827634573,20.247802412818725,10.199041531017706,2665,24,0.0,15,404130471693586,8,36.5,205.04635620117188,0.030500000342726707,0,0.0,0.0,,,,,0,,1,,,327.1875,-104.796875,-3.796875
Raw,945836619,8046835000000,,,-1260194483706336512,0.0,4214.306827634573,20.247802412818725,10.199041531017706,2665,32,0.0,15,404130467237310,21,26.4,-393.5159606933594,0.10819999873638153,0,0.0,0.0,,,,,0,,1,,,327.1875,-104.796875,-3.796875
Raw,945837620,8047752000000,,,-1260194483705392128,0.0,4222.213756293058,10.408827324103342,8.878707777647897,2666,10,0.0,15,404131386894020,17,28.5,-335.1550598144531,0.10639999806880951,0,0.0,0.0,,,,,0,,1,,,335.0,-102.59375,8.421875
Raw,945837621,8047752000000,,,-1260194483705392128,0.0,4222.213756293058,10.408827324103342,8.878707777647897,2666,14,0.0,15,404131376039950,24,25.4,-498.38525390625,1.1845000982284546,0,0.0,0.0,,,,,0,,1,,,335.0,-102.59375,8.421875
Raw,945837622,8047752000000,,,-1260194483705392128,0.0,4222.213756293058,10.408827324103342,8.878707777647897,2666,15,0.0,15,404131378155253,7,37.0,589.5339965820312,0.05450000241398811,0,0.0,0.0,,,,,0,,1,,,335.0,-102.59375,8.421875
Raw,945837622,8047752000000,,,-1260194483705392128,0.0,4222.213756293058,10.408827324103342,8.878707777647897,2666,20,0.0,15,404131390664800,16,29.1,-13.19489860534668,0.08940000087022781,0,0.0,0.0,,,,,0,,1,,,335.0,-102.59375,8.421875
Raw,945837623,8047752000000,,,-1260194483705392128,0.0,4222.213756293058,10.408827324103342,8.878707777647897,2666,21,0.0,15,404131385062873,10,34.7,396.8724670410156,0.07609999924898148,0,0.0,0.0,,,,,0,,1,,,335.0,-102.59375,8.421875
Raw,945837624,8047752000000,,,-1260194483705392128,0.0,4222.213756293058,10.408827324103342,8.878707777647897,2666,24,0.0,15,404131387748637,12,32.4,206.29820251464844,0.05900000035762787,0,0.0,0.0,,,,,0,,1,,,335.0,-102.59375,8.421875
Raw,945837625,8047752000000,,,-1260194483705392128,0.0,4222.213756293058,10.408827324103342,8.878707777647897,2666,27,0.0,15,404131374618073,27,24.7,342.6427917480469,0.6225000023841858,0,0.0,0.0,,,,,0,,1,,,335.0,-102.59375,8.421875
Raw,945837626,8047752000000,,,-1260194483705392128,0.0,4222.213756293058,10.408827324103342,8.878707777647897,2666,32,0.0,15,404131383294306,21,26.7,-392.742431640625,0.28519999980926514,0,0.0,0.0,,,,,0,,1,,,335.0,-102.59375,8.421875
Raw,945838619,8049044000000,,,-1260194483704625408,0.0,4281.737841665745,13.601676767103317,16.918630258402526,2667,10,0.0,15,404132678128532,13,31.7,-332.9358825683594,0.05079999938607216,0,0.0,0.0,,,,,0,,1,,,34.953125,-102.484375,-3.546875
Raw,945838620,8049044000000,,,-1260194483704625408,0.0,4281.737841665745,13.601676767103317,16.918630258402526,2667,14,0.0,15,404132667275156,8,36.3,-495.74505615234375,0.024500001221895218,0,0.0,0.0,,,,,0,,1,,,34.953125,-102.484375,-3.546875
Raw,945838621,8049044000000,,,-1260194483704625408,0.0,4281.737841665745,13.601676767103317,16.918630258402526,2667,15,0.0,15,404132669385873,35,22.0,590.7476806640625,0.7849999666213989,0,0.0,0.0,,,,,0,,1,,,34.953125,-102.484375,-3.546875
Raw,945838622,8049044000000,,,-1260194483704625408,0.0,4281.737841665745,13.601676767103317,16.918630258402526,2667,20,0.0,15,404132681898112,24,25.3,-10.988859176635742,0.21090000867843628,0,0.0,0.0,,,,,0,,1,,,34.953125,-102.484375,-3.546875
Raw,945838622,8049044000000,,,-1260194483704625408,0.0,4281.737841665745,13.601676767103317,16.918630258402526,2667,21,0.0,15,404132676294262,10,34.2,399.50958251953125,0.041099999099969864,0,0.0,0.0,,,,,0,,1,,,34.953125,-102.484375,-3.546875
Raw,945838623,8049044000000,,,-1260194483704625408,0.0,4281.737841665745,13.601676767103317,16.918630258402526,2667,24,0.0,15,404132678980369,35,22.0,208.39059448242188,0.7985000014305115,0,0.0,0.0,,,,,0,,1,,,34.953125,-102.484375,-3.546875
Raw,945838624,8049044000000,,,-1260194483704625408,0.0,4281.737841665745,13.601676767103317,16.918630258402526,2667,27,0.0,15,404132665850023,13,31.8,344.7752685546875,0.031300000846385956,0,0.0,0.0,,,,,0,,1,,,34.953125,-102.484375,-3.546875
Raw,945838625,8049044000000,,,-1260194483704625408,0.0,4281.737841665745,13.601676767103317,16.918630258402526,2667,32,0.0,15,404132674529130,9,35.4,-390.3359069824219,0.036000002175569534,0,0.0,0.0,,,,,0,,1,,,34.953125,-102.484375,-3.546875
Raw,945839608,8049829000000,,,-1260194483704502272,0.0,4210.854880511761,20.79207530165013,8.18756678082833,2668,10,0.0,15,404133463006138,21,26.4,-335.25640869140625,0.1021999940276146,0,0.0,0.0,,,,,0,,1,,,36.671875,-102.265625,10.734375
Raw,945839609,8049829000000,,,-1260194483704502272,0.0,4210.854880511761,20.79207530165013,8.18756678082833,2668,14,0.0,15,404133452153097,10,34.5,-498.0912780761719,0.035100001841783524,0,0.0,0.0,,,,,0,,1,,,36.671875,-102.265625,10.734375
Raw,945839609,8049829000000,,,-1260194483704502272,0.0,4210.854880511761,20.79207530165013,8.18756678082833,2668,20,0.0,15,404133466774652,19,27.2,-13.198989868164062,0.07259999960660934,0,0.0,0.0,,,,,0,,1,,,36.671875,-102.265625,10.734375
Raw,945839610,8049829000000,,,-1260194483704502272,0.0,4210.854880511761,20.79207530165013,8.18756678082833,2668,21,0.0,15,404133461169822,8,36.7,397.2350769042969,0.045500002801418304,0,0.0,0.0,,,,,0,,1,,,36.671875,-102.265625,10.734375
Raw,945839610,8049829000000,,,-1260194483704502272,0.0,4210.854880511761,20.79207530165013,8.18756678082833,2668,24,0.0,15,404133463856919,35,22.4,206.04046630859375,0.7759999632835388,0,0.0,0.0,,,,,0,,1,,,36.671875,-102.265625,10.734375
Raw,945839611,8049829000000,,,-1260194483704502272,0.0,4210.854880511761,20.79207530165013,8.18756678082833,2668,27,0.0,15,404133450725770,12,32.9,342.464111328125,0.036400001496076584,0,0.0,0.0,,,,,0,,1,,,36.671875,-102.265625,10.734375
Raw,945839611,8049829000000,,,-1260194483704502272,0.0,4210.854880511761,20.79207530165013,8.18756678082833,2668,32,0.0,15,404133459406734,7,37.7,-392.6408386230469,0.04110000282526016,0,0.0,0.0,,,,,0,,1,,,36.671875,-102.265625,10.734375
Raw,945840606,8050742000000,,,-1260194483703546880,0.0,4216.743633151054,12.966617239021312,9.66872101303533,2669,10,0.0,15,404134375052099,14,30.2,-339.1271667480469,0.0860000029206276,0,0.0,0.0,,,,,0,,1,,,93.75,-97.90625,-1.015625
Raw,945840607,8050742000000,,,-1260194483703546880,0.0,4216.743633151054,12.966617239021312,9.66872101303533,2669,14,0.0,15,404134364199511,13,31.3,-501.8580322265625,0.06109999865293503,0,0.0,0.0,,,,,0,,1,,,93.75,-97.90625,-1.015625
Raw,945840608,8050742000000,,,-1260194483703546880,0.0,4216.743633151054,12.966617239021312,9.66872101303533,2669,21,0.0,15,404134373213605,12,32.5,393.42919921875,0.06799999624490738,0,0.0,0.0,,,,,0,,1,,,93.75,-97.90625,-1.015625
Raw,945840608,8050742000000,,,-1260194483703546880,0.0,4216.743633151054,12.966617239021312,9.66872101303533,2669,24,0.0,15,404134375900916,19,27.4,202.5233154296875,0.18620000779628754,0,0.0,0.0,,,,,0,,1,,,93.75,-97.90625,-1.015625
Raw,945840609,8050742000000,,,-1260194483703546880,0.0,4216.743633151054,12.966617239021312,9.66872101303533,2669,27,0.0,15,404134362769595,13,31.2,338.6424865722656,0.05810000002384186,0,0.0,0.0,,,,,0,,1,,,93.75,-97.90625,-1.015625
Raw,945840610,8050742000000,,,-1260194483703546880,0.0,4216.743633151054,12.966617239021312,9.66872101303533,2669,32,0.0,15,404134371452853,7,37.0,-396.4673767089844,0.04399999976158142,0,0.0,0.0,,,,,0,,1,,,93.75,-97.90625,-1.015625
Raw,945841618,8051943000000,,,-1260194483703540736,0.0,4262.909758836031,-0.25625047748473845,9.005014748157107,2670,10,0.0,15,404135576047036,10,34.7,-333.0747985839844,0.06260000169277191,0,0.0,0.0,,,,,0,,1,,,135.17188,-99.828125,5.171875
Raw,945841619,8051943000000,,,-1260194483703540736,0.0,4262.909758836031,-0.25625047748473845,9.005014748157107,2670,14,0.0,15,404135565195247,16,29.5,-496.05694580078125,0.11190000176429749,0,0.0,0.0,,,,,0,,1,,,135.17188,-99.828125,5.171875
Raw,945841620,8051943000000,,,-1260194483703540736,0.0,4262.909758836031,-0.25625047748473845,9.005014748157107,2670,15,0.0,15,404135567295388,16,29.1,591.354248046875,0.08489999920129776,0,0.0,0.0,,,,,0,,1,,,135.17188,-99.828125,5.171875
Raw,945841621,8051943000000,,,-1260194483703540736,0.0,4262.909758836031,-0.25625047748473845,9.005014748157107,2670,20,0.0,15,404135579813392,31,23.2,-11.370046615600586,0.7400000095367432,0,0.0,0.0,,,,,0,,1,,,135.17188,-99.828125,5.171875
Raw,945841621,8051943000000,,,-1260194483703540736,0.0,4262.909758836031,-0.25625047748473845,9.005014748157107,2670,21,0.0,15,404135574205633,19,27.8,399.335205078125,0.18470001220703125,0,0.0,0.0,,,,,0,,1,,,135.17188,-99.828125,5.171875
Raw,945841622,8051943000000,,,-1260194483703540736,0.0,4262.909758836031,-0.25625047748473845,9.005014748157107,2670,27,0.0,15,404135563761938,14,30.2,344.66229248046875,0.09799999743700027,0,0.0,0.0,,,,,0,,1,,,135.17188,-99.828125,5.171875
Raw,945841623,8051943000000,,,-1260194483703540736,0.0,4262.909758836031,-0.25625047748473845,9.005014748157107,2670,32,0.0,15,404135572448126,8,36.5,-390.5538330078125,0.048500001430511475,0,0.0,0.0,,,,,0,,1,,,135.17188,-99.828125,5.171875
Raw,945842616,8052946000000,,,-1260194483703414272,0.0,4231.717903167009,19.635067155262433,13.047131262320198,2671,10,0.0,15,404136578922245,10,34.3,-339.0588684082031,0.06560000032186508,0,0.0,0.0,,,,,0,,1,,,164.85938,-94.703125,0.78125
Raw,945842617,8052946000000,,,-1260194483703414272,0.0,4231.717903167009,19.635067155262433,13.047131262320198,2671,14,0.0,15,404136568070953,14,30.0,-501.93621826171875,0.0754999965429306,0,0.0,0.0,,,,,0,,1,,,164.85938,-94.703125,0.78125
Raw,945842618,8052946000000,,,-1260194483703414272,0.0,4231.717903167009,19.635067155262433,13.047131262320198,2671,15,0.0,15,404136570167483,9,35.2,584.8045043945312,0.0494999997317791,0,0.0,0.0,,,,,0,,1,,,164.85938,-94.703125,0.78125
Raw,945842618,8052946000000,,,-1260194483703414272,0.0,4231.717903167009,19.635067155262433,13.047131262320198,2671,20,0.0,15,404136582687517,31,23.9,-16.71729850769043,0.6544999480247498,0,0.0,0.0,,,,,0,,1,,,164.85938,-94.703125,0.78125
Raw,945842619,8052946000000,,,-1260194483703414272,0.0,4231.717903167009,19.635067155262433,13.047131262320198,2671,21,0.0,15,404136577078235,21,26.7,393.1567687988281,0.27619999647140503,0,0.0,0.0,,,,,0,,1,,,164.85938,-94.703125,0.78125
Raw,945842620,8052946000000,,,-1260194483703414272,0.0,4231.717903167009,19.635067155262433,13.047131262320198,2671,24,0.0,15,404136579767402,24,25.9,201.78060913085938,1.1890000104904175,0,0.0,0.0,,,,,0,,1,,,164.85938,-94.703125,0.78125
Raw,945842620,8052946000000,,,-1260194483703414272,0.0,4231.717903167009,19.635067155262433,13.047131262320198,2671,27,0.0,15,404136566634878,19,27.5,339.9363098144531,0.17270000278949738,0,0.0,0.0,,,,,0,,1,,,164.85938,-94.703125,0.78125
Raw,945842622,8052946000000,,,-1260194483703414272,0.0,4231.717903167009,19.635067155262433,13.047131262320198,2671,32,0.0,15,404136575323534,13,31.5,-395.6482238769531,0.07760000228881836,0,0.0,0.0,,,,,0,,1,,,164.85938,-94.703125,0.78125
Raw,945843612,8053946000000,,,-1260194483702569984,0.0,4215.389955788851,-0.6442516584064548,14.059692129314376,2672,10,0.0,15,404137578078977,14,30.8,-331.0419616699219,0.09049999713897705,0,0.0,0.0,,,,,0,,1,,,221.53125,-97.25,3.75
