# 
# Header Description:
# 
# Version: v2.0.0.1 Platform: 8.0.0 Manufacturer: Xiaomi Model: MIX 2
# 
# Raw,ElapsedRealtimeMillis,TimeNanos,LeapSecond,TimeUncertaintyNanos,FullBiasNanos,BiasNanos,BiasUncertaintyNanos,DriftNanosPerSecond,DriftUncertaintyNanosPerSecond,HardwareClockDiscontinuityCount,Svid,TimeOffsetNanos,State,ReceivedSvTimeNanos,ReceivedSvTimeUncertaintyNanos,Cn0DbHz,PseudorangeRateMetersPerSecond,PseudorangeRateUncertaintyMetersPerSecond,AccumulatedDeltaRangeState,AccumulatedDeltaRangeMeters,AccumulatedDeltaRangeUncertaintyMeters,CarrierFrequencyHz,CarrierCycles,CarrierPhase,CarrierPhaseUncertainty,MultipathIndicator,SnrInDb,ConstellationType,AgcDb,CarrierFrequencyHz,AngleZ,AngleX,AngleY
# 
# Fix,Provider,Latitude,Longitude,Altitude,Speed,Accuracy,SpeedAccuracy,BearingAccuracy,TimeInMs
# 
# Nav,Svid,Type,Status,MessageId,Sub-messageId,Data(Bytes)
# 
Raw,946452850,8631739000000,,,-1260194515000793088,0.0,5458.219442516565,0.0,35.759239365197544,3165,27,0.0,15,404746656283647,8,37.2,377.01934814453125,0.6395000219345093,0,0.0,0.0,,,,,0,,1,,,288.17188,-83.65625,1.4375
Raw,946453616,8632439000000,,,-1260194515000793344,0.0,108.95630839513615,1.1589601581437936,11.91992221167538,3165,8,0.0,15,404747354974118,366,22.5,128.05812072753906,0.8224999904632568,0,0.0,0.0,,,,,0,,1,,,65.734375,-80.984375,-4.5625
Raw,946453616,8632439000000,,,-1260194515000793344,0.0,108.95630839513615,1.1589601581437936,11.91992221167538,3165,10,0.0,15,404747369962221,18,28.9,-311.8247375488281,0.7700000405311584,0,0.0,0.0,,,,,0,,1,,,65.734375,-80.984375,-4.5625
Raw,946453617,8632439000000,,,-1260194515000793344,0.0,108.95630839513615,1.1589601581437936,11.91992221167538,3165,12,0.0,15,404747357245905,561,20.4,-503.6692810058594,1.0169999599456787,0,0.0,0.0,,,,,0,,1,,,65.734375,-80.984375,-4.5625
Raw,946453617,8632439000000,,,-1260194515000793344,0.0,108.95630839513615,1.1589601581437936,11.91992221167538,3165,14,0.0,15,404747359450641,22,26.9,-483.08905029296875,0.824999988079071,0,0.0,0.0,,,,,0,,1,,,65.734375,-80.984375,-4.5625
Raw,946453618,8632439000000,,,-1260194515000793344,0.0,108.95630839513615,1.1589601581437936,11.91992221167538,3165,15,0.0,15,404747359352082,422,22.4,585.0673828125,0.8899999856948853,0,0.0,0.0,,,,,0,,1,,,65.734375,-80.984375,-4.5625
Raw,946453618,8632439000000,,,-1260194515000793344,0.0,108.95630839513615,1.1589601581437936,11.91992221167538,3165,20,0.0,15,404747373047943,647,18.9,33.82469940185547,1.0910000801086426,0,0.0,0.0,,,,,0,,1,,,65.734375,-80.984375,-4.5625
Raw,946453619,8632439000000,,,-1260194515000793344,0.0,108.95630839513615,1.1589601581437936,11.91992221167538,3165,21,0.0,15,404747366604893,18,28.9,439.97802734375,0.7745000123977661,0,0.0,0.0,,,,,0,,1,,,65.734375,-80.984375,-4.5625
Raw,946453619,8632439000000,,,-1260194515000793344,0.0,108.95630839513615,1.1589601581437936,11.91992221167538,3165,24,0.0,15,404747369655546,647,19.0,276.7155456542969,1.0850000381469727,0,0.0,0.0,,,,,0,,1,,,65.734375,-80.984375,-4.5625
Raw,946453620,8632439000000,,,-1260194515000793344,0.0,108.95630839513615,1.1589601581437936,11.91992221167538,3165,27,0.0,15,404747356282775,7,37.0,375.2591247558594,0.41449999809265137,0,0.0,0.0,,,,,0,,1,,,65.734375,-80.984375,-4.5625
Raw,946453620,8632439000000,,,-1260194515000793344,0.0,108.95630839513615,1.1589601581437936,11.91992221167538,3165,32,0.0,15,404747366478374,15,30.5,-367.1621398925781,0.7045000195503235,0,0.0,0.0,,,,,0,,1,,,65.734375,-80.984375,-4.5625
Raw,946454623,8633439000000,,,-1260194515000793344,0.0,93.38356903754175,-3.726843751288843,15.748377539276586,3165,8,0.0,15,404748354973785,41,21.4,129.01910400390625,1.152500033378601,0,0.0,0.0,,,,,0,,1,,,103.359375,-82.765625,0.359375
Raw,946454624,8633439000000,,,-1260194515000793344,0.0,93.38356903754175,-3.726843751288843,15.748377539276586,3165,10,0.0,15,404748369963269,13,31.5,-310.4029846191406,0.038700003176927567,0,0.0,0.0,,,,,0,,1,,,103.359375,-82.765625,0.359375
Raw,946454624,8633439000000,,,-1260194515000793344,0.0,93.38356903754175,-3.726843751288843,15.748377539276586,3165,12,0.0,15,404748357247493,650,19.2,-503.7739562988281,1.847000002861023,0,0.0,0.0,,,,,0,,1,,,103.359375,-82.765625,0.359375
Raw,946454625,8633439000000,,,-1260194515000793344,0.0,93.38356903754175,-3.726843751288843,15.748377539276586,3165,14,0.0,15,404748359452250,35,22.1,-481.59521484375,0.8149999976158142,0,0.0,0.0,,,,,0,,1,,,103.359375,-82.765625,0.359375
Raw,946454625,8633439000000,,,-1260194515000793344,0.0,93.38356903754175,-3.726843751288843,15.748377539276586,3165,15,0.0,15,404748359350084,490,20.6,585.0864868164062,1.7000000476837158,0,0.0,0.0,,,,,0,,1,,,103.359375,-82.765625,0.359375
Raw,946454626,8633439000000,,,-1260194515000793344,0.0,93.38356903754175,-3.726843751288843,15.748377539276586,3165,20,0.0,15,404748373047792,34,23.8,34.671504974365234,1.5110000371932983,0,0.0,0.0,,,,,0,,1,,,103.359375,-82.765625,0.359375
Raw,946454626,8633439000000,,,-1260194515000793344,0.0,93.38356903754175,-3.726843751288843,15.748377539276586,3165,21,0.0,15,404748366603360,14,30.1,441.5501708984375,0.03480000048875809,0,0.0,0.0,,,,,0,,1,,,103.359375,-82.765625,0.359375
Raw,946454627,8633439000000,,,-1260194515000793344,0.0,93.38356903754175,-3.726843751288843,15.748377539276586,3165,24,0.0,15,404748369654746,490,21.3,276.60137939453125,1.6850000619888306,0,0.0,0.0,,,,,0,,1,,,103.359375,-82.765625,0.359375
Raw,946454627,8633439000000,,,-1260194515000793344,0.0,93.38356903754175,-3.726843751288843,15.748377539276586,3165,27,0.0,15,404748356281508,12,32.7,376.3119201660156,0.0479000024497509,0,0.0,0.0,,,,,0,,1,,,103.359375,-82.765625,0.359375
Raw,946454628,8633439000000,,,-1260194515000793344,0.0,93.38356903754175,-3.726843751288843,15.748377539276586,3165,32,0.0,15,404748366479560,12,32.9,-366.48199462890625,0.03290000185370445,0,0.0,0.0,,,,,0,,1,,,103.359375,-82.765625,0.359375
Raw,946455615,8634439000000,,,-1260194515000793344,0.0,87.54213195061311,-2.422063066124788,13.616955662950987,3165,8,0.0,15,404749354973322,93,15.4,128.79075622558594,1.377500057220459,0,0.0,0.0,,,,,0,,1,,,143.57812,-85.828125,-1.765625
Raw,946455616,8634439000000,,,-1260194515000793344,0.0,87.54213195061311,-2.422063066124788,13.616955662950987,3165,10,0.0,15,404749369964327,13,31.7,-308.36859130859375,0.038700003176927567,0,0.0,0.0,,,,,0,,1,,,143.57812,-85.828125,-1.765625
Raw,946455616,8634439000000,,,-1260194515000793344,0.0,87.54213195061311,-2.422063066124788,13.616955662950987,3165,12,0.0,15,404749357249151,755,18.1,-503.9832458496094,2.677000045776367,0,0.0,0.0,,,,,0,,1,,,143.57812,-85.828125,-1.765625
Raw,946455617,8634439000000,,,-1260194515000793344,0.0,87.54213195061311,-2.422063066124788,13.616955662950987,3165,14,0.0,15,404749359453880,17,28.6,-479.1499328613281,0.48500001430511475,0,0.0,0.0,,,,,0,,1,,,143.57812,-85.828125,-1.765625
Raw,946455617,8634439000000,,,-1260194515000793344,0.0,87.54213195061311,-2.422063066124788,13.616955662950987,3165,15,0.0,15,404749359348115,570,19.9,585.9998168945312,2.5199999809265137,0,0.0,0.0,,,,,0,,1,,,143.57812,-85.828125,-1.765625
Raw,946455618,8634439000000,,,-1260194515000793344,0.0,87.54213195061311,-2.422063066124788,13.616955662950987,3165,20,0.0,15,404749373047684,19,27.3,37.137367248535156,0.07580000162124634,0,0.0,0.0,,,,,0,,1,,,143.57812,-85.828125,-1.765625
Raw,946455618,8634439000000,,,-1260194515000793344,0.0,87.54213195061311,-2.422063066124788,13.616955662950987,3165,21,0.0,15,404749366601847,21,26.5,443.54412841796875,0.12020000070333481,0,0.0,0.0,,,,,0,,1,,,143.57812,-85.828125,-1.765625
Raw,946455619,8634439000000,,,-1260194515000793344,0.0,87.54213195061311,-2.422063066124788,13.616955662950987,3165,24,0.0,15,404749369654065,22,26.3,281.17791748046875,0.89000004529953,0,0.0,0.0,,,,,0,,1,,,143.57812,-85.828125,-1.765625
Raw,946455619,8634439000000,,,-1260194515000793344,0.0,87.54213195061311,-2.422063066124788,13.616955662950987,3165,27,0.0,15,404749356280249,13,31.6,378.3105773925781,0.04920000210404396,0,0.0,0.0,,,,,0,,1,,,143.57812,-85.828125,-1.765625
Raw,946455620,8634439000000,,,-1260194515000793344,0.0,87.54213195061311,-2.422063066124788,13.616955662950987,3165,32,0.0,15,404749366480782,11,33.9,-364.4403076171875,0.03189999982714653,0,0.0,0.0,,,,,0,,1,,,143.57812,-85.828125,-1.765625
Raw,946456625,8635439000000,,,-1260194515000793344,0.0,91.61641355603933,4.803519197938621,12.746165166989758,3165,8,0.0,15,404750354972908,61,18.8,132.54905700683594,1.0175000429153442,0,0.0,0.0,,,,,0,,1,,,181.21875,-79.765625,-7.609375
Raw,946456625,8635439000000,,,-1260194515000793344,0.0,91.61641355603933,4.803519197938621,12.746165166989758,3165,10,0.0,15,404750369965334,11,33.7,-306.12701416015625,0.036400001496076584,0,0.0,0.0,,,,,0,,1,,,181.21875,-79.765625,-7.609375
Raw,946456626,8635439000000,,,-1260194515000793344,0.0,91.61641355603933,4.803519197938621,12.746165166989758,3165,12,0.0,15,404750357250793,878,17.0,-503.2696533203125,3.517000198364258,0,0.0,0.0,,,,,0,,1,,,181.21875,-79.765625,-7.609375
Raw,946456627,8635439000000,,,-1260194515000793344,0.0,91.61641355603933,4.803519197938621,12.746165166989758,3165,14,0.0,15,404750359455468,16,29.8,-477.3404846191406,0.0552000030875206,0,0.0,0.0,,,,,0,,1,,,181.21875,-79.765625,-7.609375
Raw,946456627,8635439000000,,,-1260194515000793344,0.0,91.61641355603933,4.803519197938621,12.746165166989758,3165,15,0.0,15,404750359346378,12,32.9,588.86376953125,0.6349999904632568,0,0.0,0.0,,,,,0,,1,,,181.21875,-79.765625,-7.609375
Raw,946456628,8635439000000,,,-1260194515000793344,0.0,91.61641355603933,4.803519197938621,12.746165166989758,3165,20,0.0,15,404750373047620,31,23.7,38.030189514160156,0.6859999895095825,0,0.0,0.0,,,,,0,,1,,,181.21875,-79.765625,-7.609375
Raw,946456628,8635439000000,,,-1260194515000793344,0.0,91.61641355603933,4.803519197938621,12.746165166989758,3165,21,0.0,15,404750366600368,53,19.5,445.67730712890625,0.9254999756813049,0,0.0,0.0,,,,,0,,1,,,181.21875,-79.765625,-7.609375
Raw,946456629,8635439000000,,,-1260194515000793344,0.0,91.61641355603933,4.803519197938621,12.746165166989758,3165,24,0.0,15,404750369653221,12,32.4,281.25250244140625,0.03739999979734421,0,0.0,0.0,,,,,0,,1,,,181.21875,-79.765625,-7.609375
Raw,946456630,8635439000000,,,-1260194515000793344,0.0,91.61641355603933,4.803519197938621,12.746165166989758,3165,27,0.0,15,404750356278986,10,34.9,380.6453552246094,0.04610000178217888,0,0.0,0.0,,,,,0,,1,,,181.21875,-79.765625,-7.609375
Raw,946456630,8635439000000,,,-1260194515000793344,0.0,91.61641355603933,4.803519197938621,12.746165166989758,3165,32,0.0,15,404750366481991,13,31.3,-362.1524963378906,0.03420000150799751,0,0.0,0.0,,,,,0,,1,,,181.21875,-79.765625,-7.609375
Raw,946457617,8636439000000,,,-1260194515000793344,0.0,62.322025769390166,10.917321416073884,9.861068728396008,3165,8,0.0,15,404751354972466,69,18.8,132.54905700683594,2.517500162124634,0,0.0,0.0,,,,,0,,1,,,207.6875,-82.75,-4.5
Raw,946457617,8636439000000,,,-1260194515000793344,0.0,62.322025769390166,10.917321416073884,9.861068728396008,3165,10,0.0,15,404751369966351,8,36.0,-306.92999267578125,0.034700002521276474,0,0.0,0.0,,,,,0,,1,,,207.6875,-82.75,-4.5
Raw,946457618,8636439000000,,,-1260194515000793344,0.0,62.322025769390166,10.917321416073884,9.861068728396008,3165,14,0.0,15,404751359457029,40,21.3,-478.4173278808594,0.875,0,0.0,0.0,,,,,0,,1,,,207.6875,-82.75,-4.5
Raw,946457619,8636439000000,,,-1260194515000793344,0.0,62.322025769390166,10.917321416073884,9.861068728396008,3165,15,0.0,15,404751359344443,10,34.4,588.6054077148438,0.05060000345110893,0,0.0,0.0,,,,,0,,1,,,207.6875,-82.75,-4.5
Raw,946457619,8636439000000,,,-1260194515000793344,0.0,62.322025769390166,10.917321416073884,9.861068728396008,3165,20,0.0,15,404751373047368,16,29.6,38.01906204223633,0.04620000347495079,0,0.0,0.0,,,,,0,,1,,,207.6875,-82.75,-4.5
Raw,946457620,8636439000000,,,-1260194515000793344,0.0,62.322025769390166,10.917321416073884,9.861068728396008,3165,21,0.0,15,404751366598890,35,22.9,445.04931640625,0.7354999780654907,0,0.0,0.0,,,,,0,,1,,,207.6875,-82.75,-4.5
Raw,946457621,8636439000000,,,-1260194515000793344,0.0,62.322025769390166,10.917321416073884,9.861068728396008,3165,24,0.0,15,404751369652292,9,35.1,280.5029296875,0.035100001841783524,0,0.0,0.0,,,,,0,,1,,,207.6875,-82.75,-4.5
Raw,946457621,8636439000000,,,-1260194515000793344,0.0,62.322025769390166,10.917321416073884,9.861068728396008,3165,27,0.0,15,404751356277725,14,30.1,379.8254699707031,0.049800001084804535,0,0.0,0.0,,,,,0,,1,,,207.6875,-82.75,-4.5
Raw,946457622,8636439000000,,,-1260194515000793344,0.0,62.322025769390166,10.917321416073884,9.861068728396008,3165,32,0.0,15,404751366483187,14,30.7,-363.0312194824219,0.03480000048875809,0,0.0,0.0,,,,,0,,1,,,207.6875,-82.75,-4.5
Raw,946458620,8637439000000,,,-1260194515000793344,0.0,54.21678724815138,7.99716193151782,10.599858853089467,3165,8,0.0,15,404752354971925,110,14.3,131.47390747070312,2.24750018119812,0,0.0,0.0,,,,,0,,1,,,234.48438,-87.671875,-2.15625
Raw,946458620,8637439000000,,,-1260194515000793344,0.0,54.21678724815138,7.99716193151782,10.599858853089467,3165,10,0.0,15,404752369967342,9,35.4,-306.3565673828125,0.035100001841783524,0,0.0,0.0,,,,,0,,1,,,234.48438,-87.671875,-2.15625
Raw,946458621,8637439000000,,,-1260194515000793344,0.0,54.21678724815138,7.99716193151782,10.599858853089467,3165,12,0.0,15,404752357254220,318,24.4,-499.1878662109375,0.9919999837875366,0,0.0,0.0,,,,,0,,1,,,234.48438,-87.671875,-2.15625
Raw,946458621,8637439000000,,,-1260194515000793344,0.0,54.21678724815138,7.99716193151782,10.599858853089467,3165,15,0.0,15,404752359342470,9,35.2,588.9822387695312,0.05010000243782997,0,0.0,0.0,,,,,0,,1,,,234.48438,-87.671875,-2.15625
Raw,946458622,8637439000000,,,-1260194515000793344,0.0,54.21678724815138,7.99716193151782,10.599858853089467,3165,20,0.0,15,404752373047307,21,26.7,38.558738708496094,0.1307000070810318,0,0.0,0.0,,,,,0,,1,,,234.48438,-87.671875,-2.15625
Raw,946458622,8637439000000,,,-1260194515000793344,0.0,54.21678724815138,7.99716193151782,10.599858853089467,3165,21,0.0,15,404752366597352,21,26.7,445.31024169921875,0.12020000070333481,0,0.0,0.0,,,,,0,,1,,,234.48438,-87.671875,-2.15625
Raw,946458623,8637439000000,,,-1260194515000793344,0.0,54.21678724815138,7.99716193151782,10.599858853089467,3165,24,0.0,15,404752369651330,6,38.1,281.018310546875,0.03360000252723694,0,0.0,0.0,,,,,0,,1,,,234.48438,-87.671875,-2.15625
Raw,946458623,8637439000000,,,-1260194515000793344,0.0,54.21678724815138,7.99716193151782,10.599858853089467,3165,27,0.0,15,404752356276383,27,24.9,380.5778503417969,0.640500009059906,0,0.0,0.0,,,,,0,,1,,,234.48438,-87.671875,-2.15625
Raw,946458624,8637439000000,,,-1260194515000793344,0.0,54.21678724815138,7.99716193151782,10.599858853089467,3165,32,0.0,15,404752366484380,14,30.5,-362.40545654296875,0.03480000048875809,0,0.0,0.0,,,,,0,,1,,,234.48438,-87.671875,-2.15625
Raw,946459613,8638439000000,,,-1260194515000793088,0.0,54.60686224978417,9.48388788683063,12.78485707000771,3165,8,0.0,15,404753354971487,125,14.3,131.47390747070312,3.74750018119812,0,0.0,0.0,,,,,0,,1,,,281.70312,-82.59375,-7.296875
Raw,946459613,8638439000000,,,-1260194515000793088,0.0,54.60686224978417,9.48388788683063,12.78485707000771,3165,10,0.0,15,404753369968316,13,31.5,-305.7351989746094,0.038700003176927567,0,0.0,0.0,,,,,0,,1,,,281.70312,-82.59375,-7.296875
Raw,946459614,8638439000000,,,-1260194515000793088,0.0,54.60686224978417,9.48388788683063,12.78485707000771,3165,12,0.0,15,404753357255841,12,32.9,-499.569580078125,0.02540000155568123,0,0.0,0.0,,,,,0,,1,,,281.70312,-82.59375,-7.296875
Raw,946459615,8638439000000,,,-1260194515000793088,0.0,54.60686224978417,9.48388788683063,12.78485707000771,3165,15,0.0,15,404753359340508,14,30.9,589.4246215820312,0.05430000275373459,0,0.0,0.0,,,,,0,,1,,,281.70312,-82.59375,-7.296875
Raw,946459615,8638439000000,,,-1260194515000793088,0.0,54.60686224978417,9.48388788683063,12.78485707000771,3165,20,0.0,15,404753373047118,12,32.7,39.007381439208984,0.04340000078082085,0,0.0,0.0,,,,,0,,1,,,281.70312,-82.59375,-7.296875
Raw,946459616,8638439000000,,,-1260194515000793088,0.0,54.60686224978417,9.48388788683063,12.78485707000771,3165,21,0.0,15,404753366595968,24,25.9,445.9964599609375,0.39079999923706055,0,0.0,0.0,,,,,0,,1,,,281.70312,-82.59375,-7.296875
Raw,946459616,8638439000000,,,-1260194515000793088,0.0,54.60686224978417,9.48388788683063,12.78485707000771,3165,24,0.0,15,404753369650384,7,37.8,281.52313232421875,0.0340999998152256,0,0.0,0.0,,,,,0,,1,,,281.70312,-82.59375,-7.296875
Raw,946459617,8638439000000,,,-1260194515000793088,0.0,54.60686224978417,9.48388788683063,12.78485707000771,3165,27,0.0,15,404753356274972,46,20.1,380.2067565917969,0.9404999613761902,0,0.0,0.0,,,,,0,,1,,,281.70312,-82.59375,-7.296875
Raw,946459617,8638439000000,,,-1260194515000793088,0.0,54.60686224978417,9.48388788683063,12.78485707000771,3165,32,0.0,15,404753366485627,40,21.7,-362.4523620605469,0.7954999804496765,0,0.0,0.0,,,,,0,,1,,,281.70312,-82.59375,-7.296875
Raw,946460625,8639439000000,,,-1260194515000793088,0.0,52.18068326939829,11.928030078798376,12.350595889561907,3165,8,0.0,15,404754354971048,150,14.3,131.47390747070312,5.247500419616699,0,0.0,0.0,,,,,0,,1,,,304.20312,-85.703125,-1.875
Raw,946460625,8639439000000,,,-1260194515000793088,0.0,52.18068326939829,11.928030078798376,12.350595889561907,3165,10,0.0,15,404754369969211,27,24.6,-307.3623352050781,0.6300000548362732,0,0.0,0.0,,,,,0,,1,,,304.20312,-85.703125,-1.875
Raw,946460626,8639439000000,,,-1260194515000793088,0.0,52.18068326939829,11.928030078798376,12.350595889561907,3165,12,0.0,15,404754357257511,16,29.0,-500.9531555175781,0.05220000073313713,0,0.0,0.0,,,,,0,,1,,,304.20312,-85.703125,-1.875
Raw,946460626,8639439000000,,,-1260194515000793088,0.0,52.18068326939829,11.928030078798376,12.350595889561907,3165,15,0.0,15,404754359338527,12,32.8,588.2670288085938,0.052400000393390656,0,0.0,0.0,,,,,0,,1,,,304.20312,-85.703125,-1.875
Raw,946460627,8639439000000,,,-1260194515000793088,0.0,52.18068326939829,11.928030078798376,12.350595889561907,3165,20,0.0,15,404754373047027,16,29.9,37.806095123291016,0.04620000347495079,0,0.0,0.0,,,,,0,,1,,,304.20312,-85.703125,-1.875
Raw,946460627,8639439000000,,,-1260194515000793088,0.0,52.18068326939829,11.928030078798376,12.350595889561907,3165,21,0.0,15,404754366594486,13,31.9,444.4489440917969,0.03420000150799751,0,0.0,0.0,,,,,0,,1,,,304.20312,-85.703125,-1.875
Raw,946460627,8639439000000,,,-1260194515000793088,0.0,52.18068326939829,11.928030078798376,12.350595889561907,3165,24,0.0,15,404754369649464,8,36.4,280.4156494140625,0.034700002521276474,0,0.0,0.0,,,,,0,,1,,,304.20312,-85.703125,-1.875
Raw,946460628,8639439000000,,,-1260194515000793088,0.0,52.18068326939829,11.928030078798376,12.350595889561907,3165,27,0.0,15,404754356273813,81,16.2,377.9042053222656,1.280500054359436,0,0.0,0.0,,,,,0,,1,,,304.20312,-85.703125,-1.875
Raw,946460628,8639439000000,,,-1260194515000793088,0.0,52.18068326939829,11.928030078798376,12.350595889561907,3165,32,0.0,15,404754366486701,35,22.7,-363.6036376953125,0.7354999780654907,0,0.0,0.0,,,,,0,,1,,,304.20312,-85.703125,-1.875
Raw,946461620,8640439000000,,,-1260194515000793088,0.0,47.91557148564607,6.604644700029449,12.428223050903314,3165,8,0.0,15,404755354970610,185,14.3,131.47390747070312,6.747500419616699,0,0.0,0.0,,,,,0,,1,,,350.26562,-82.984375,-6.046875
Raw,946461621,8640439000000,,,-1260194515000793088,0.0,47.91557148564607,6.604644700029449,12.428223050903314,3165,10,0.0,15,404755369970350,80,16.8,-311.4060974121094,1.1799999475479126,0,0.0,0.0,,,,,0,,1,,,350.26562,-82.984375,-6.046875
Raw,946461621,8640439000000,,,-1260194515000793088,0.0,47.91557148564607,6.604644700029449,12.428223050903314,3165,12,0.0,15,404755357259243,24,25.6,-502.9291076660156,0.4072999954223633,0,0.0,0.0,,,,,0,,1,,,350.26562,-82.984375,-6.046875
Raw,946461622,8640439000000,,,-1260194515000793088,0.0,47.91557148564607,6.604644700029449,12.428223050903314,3165,15,0.0,15,404755359336569,14,30.8,586.1768188476562,0.05430000275373459,0,0.0,0.0,,,,,0,,1,,,350.26562,-82.984375,-6.046875
Raw,946461622,8640439000000,,,-1260194515000793088,0.0,47.91557148564607,6.604644700029449,12.428223050903314,3165,20,0.0,15,404755373046896,19,27.3,35.994197845458984,0.06080000102519989,0,0.0,0.0,,,,,0,,1,,,350.26562,-82.984375,-6.046875
Raw,946461623,8640439000000,,,-1260194515000793088,0.0,47.91557148564607,6.604644700029449,12.428223050903314,3165,21,0.0,15,404755366592994,11,33.0,442.78814697265625,0.03189999982714653,0,0.0,0.0,,,,,0,,1,,,350.26562,-82.984375,-6.046875
Raw,946461624,8640439000000,,,-1260194515000793088,0.0,47.91557148564607,6.604644700029449,12.428223050903314,3165,24,0.0,15,404755369648557,12,32.2,278.5146789550781,0.03739999979734421,0,0.0,0.0,,,,,0,,1,,,350.26562,-82.984375,-6.046875
Raw,946461624,8640439000000,,,-1260194515000793088,0.0,47.91557148564607,6.604644700029449,12.428223050903314,3165,27,0.0,15,404755356272466,40,21.8,378.37042236328125,0.8104999661445618,0,0.0,0.0,,,,,0,,1,,,350.26562,-82.984375,-6.046875
Raw,946461625,8640439000000,,,-1260194515000793088,0.0,47.91557148564607,6.604644700029449,12.428223050903314,3165,32,0.0,15,404755366487986,16,29.6,-365.25244140625,0.0357000008225441,0,0.0,0.0,,,,,0,,1,,,350.26562,-82.984375,-6.046875
Raw,946462617,8641243000000,,,-1260194515000793088,0.0,44.57558679860085,0.14090891015113152,7.995723272211739,3165,8,0.0,15,404756158970257,221,14.3,131.47390747070312,7.953500270843506,0,0.0,0.0,,,,,0,,1,,,24.578125,-81.578125,-6.859375
Raw,946462618,8641243000000,,,-1260194515000793088,0.0,44.57558679860085,0.14090891015113152,7.995723272211739,3165,12,0.0,15,404756161260512,17,28.3,-502.1700439453125,0.0723000019788742,0,0.0,0.0,,,,,0,,1,,,24.578125,-81.578125,-6.859375
Raw,946462618,8641243000000,,,-1260194515000793088,0.0,44.57558679860085,0.14090891015113152,7.995723272211739,3165,14,0.0,15,404756163464718,16,29.6,-479.8236389160156,0.03420000150799751,0,0.0,0.0,,,,,0,,1,,,24.578125,-81.578125,-6.859375
Raw,946462619,8641243000000,,,-1260194515000793088,0.0,44.57558679860085,0.14090891015113152,7.995723272211739,3165,15,0.0,15,404756163334997,19,30.8,586.1768188476562,1.2603000402450562,0,0.0,0.0,,,,,0,,1,,,24.578125,-81.578125,-6.859375
Raw,946462620,8641243000000,,,-1260194515000793088,0.0,44.57558679860085,0.14090891015113152,7.995723272211739,3165,20,0.0,15,404756177046829,19,27.9,36.730716705322266,0.08910000324249268,0,0.0,0.0,,,,,0,,1,,,24.578125,-81.578125,-6.859375
Raw,946462620,8641243000000,,,-1260194515000793088,0.0,44.57558679860085,0.14090891015113152,7.995723272211739,3165,21,0.0,15,404756170591820,10,34.8,443.5208435058594,0.032099999487400055,0,0.0,0.0,,,,,0,,1,,,24.578125,-81.578125,-6.859375
Raw,946462621,8641243000000,,,-1260194515000793088,0.0,44.57558679860085,0.14090891015113152,7.995723272211739,3165,24,0.0,15,404756173647760,21,26.8,279.3768310546875,0.11719999462366104,0,0.0,0.0,,,,,0,,1,,,24.578125,-81.578125,-6.859375
Raw,946462622,8641243000000,,,-1260194515000793088,0.0,44.57558679860085,0.14090891015113152,7.995723272211739,3165,27,0.0,15,404756160271677,17,28.3,378.2788391113281,0.07079999893903732,0,0.0,0.0,,,,,0,,1,,,24.578125,-81.578125,-6.859375
Raw,946462622,8641243000000,,,-1260194515000793088,0.0,44.57558679860085,0.14090891015113152,7.995723272211739,3165,32,0.0,15,404756170489083,17,28.8,-364.54034423828125,0.055799998342990875,0,0.0,0.0,,,,,0,,1,,,24.578125,-81.578125,-6.859375
Raw,946463605,8642450000000,,,-1260194515000336896,0.0,4203.922115266323,2.1854763782824116,7.806404773709471,3166,10,0.0,15,404757380516103,27,24.3,-305.3071594238281,0.6814999580383301,0,0.0,0.0,,,,,0,,1,,,49.53125,-79.484375,-8.25
Raw,946463605,8642450000000,,,-1260194515000336896,0.0,4203.922115266323,2.1854763782824116,7.806404773709471,3166,14,0.0,15,404757370010453,12,32.6,-476.6698913574219,0.06350000202655792,0,0.0,0.0,,,,,0,,1,,,49.53125,-79.484375,-8.25
Raw,946463606,8642450000000,,,-1260194515000336896,0.0,4203.922115266323,2.1854763782824116,7.806404773709471,3166,20,0.0,15,404757383590437,19,27.3,39.87874221801758,0.16820000112056732,0,0.0,0.0,,,,,0,,1,,,49.53125,-79.484375,-8.25
Raw,946463606,8642450000000,,,-1260194515000336896,0.0,4203.922115266323,2.1854763782824116,7.806404773709471,3166,21,0.0,15,404757377133810,9,35.1,446.5943908691406,0.06000000238418579,0,0.0,0.0,,,,,0,,1,,,49.53125,-79.484375,-8.25
Raw,946463608,8642450000000,,,-1260194515000336896,0.0,4203.922115266323,2.1854763782824116,7.806404773709471,3166,24,0.0,15,404757380190422,14,30.1,282.5320129394531,0.09350000321865082,0,0.0,0.0,,,,,0,,1,,,49.53125,-79.484375,-8.25
Raw,946463609,8642450000000,,,-1260194515000336896,0.0,4203.922115266323,2.1854763782824116,7.806404773709471,3166,27,0.0,15,404757366813926,8,36.8,381.510009765625,0.03949999809265137,0,0.0,0.0,,,,,0,,1,,,49.53125,-79.484375,-8.25
Raw,946463609,8642450000000,,,-1260194515000336896,0.0,4203.922115266323,2.1854763782824116,7.806404773709471,3166,32,0.0,15,404757377034320,9,35.5,-361.3719177246094,0.06000000238418579,0,0.0,0.0,,,,,0,,1,,,49.53125,-79.484375,-8.25
Raw,946464618,8643642000000,,,-1260194515000118272,0.0,4246.172495186329,12.443952074538295,9.19336380183123,3167,8,0.0,15,404758557294426,24,25.4,132.0936737060547,1.1859999895095825,0,0.0,0.0,,,,,0,,1,,,82.78125,-82.734375,-5.34375
Raw,946464619,8643642000000,,,-1260194515000118272,0.0,4246.172495186329,12.443952074538295,9.19336380183123,3167,10,0.0,15,404758572298892,13,31.0,-306.5403137207031,0.0731000006198883,0,0.0,0.0,,,,,0,,1,,,82.78125,-82.734375,-5.34375
Raw,946464619,8643642000000,,,-1260194515000118272,0.0,4246.172495186329,12.443952074538295,9.19336380183123,3167,14,0.0,15,404758561793801,17,28.1,-478.0771789550781,0.12890000641345978,0,0.0,0.0,,,,,0,,1,,,82.78125,-82.734375,-5.34375
Raw,946464620,8643642000000,,,-1260194515000118272,0.0,4246.172495186329,12.443952074538295,9.19336380183123,3167,20,0.0,15,404758575371881,24,25.1,38.95253372192383,1.183000087738037,0,0.0,0.0,,,,,0,,1,,,82.78125,-82.734375,-5.34375
Raw,946464621,8643642000000,,,-1260194515000118272,0.0,4246.172495186329,12.443952074538295,9.19336380183123,3167,21,0.0,15,404758568913546,11,33.5,445.78656005859375,0.0552000030875206,0,0.0,0.0,,,,,0,,1,,,82.78125,-82.734375,-5.34375
Raw,946464621,8643642000000,,,-1260194515000118272,0.0,4246.172495186329,12.443952074538295,9.19336380183123,3167,24,0.0,15,404758571970560,31,23.6,281.9676513671875,0.6679999828338623,0,0.0,0.0,,,,,0,,1,,,82.78125,-82.734375,-5.34375
Raw,946464622,8643642000000,,,-1260194515000118272,0.0,4246.172495186329,12.443952074538295,9.19336380183123,3167,27,0.0,15,404758558593874,8,36.0,380.1924133300781,0.057500001043081284,0,0.0,0.0,,,,,0,,1,,,82.78125,-82.734375,-5.34375
Raw,946464623,8643642000000,,,-1260194515000118272,0.0,4246.172495186329,12.443952074538295,9.19336380183123,3167,32,0.0,15,404758568817221,11,33.9,-362.605224609375,0.0552000030875206,0,0.0,0.0,,,,,0,,1,,,82.78125,-82.734375,-5.34375
Raw,946465610,8644633000000,,,-1260194515000018176,0.0,4232.4489913880825,8.493539156054723,11.629384606936785,3168,10,0.0,15,404759563199625,19,27.7,-305.44677734375,0.16820000112056732,0,0.0,0.0,,,,,0,,1,,,131.20312,-80.890625,-8.6875
Raw,946465611,8644633000000,,,-1260194515000018176,0.0,4232.4489913880825,8.493539156054723,11.629384606936785,3168,14,0.0,15,404759552695037,19,27.7,-477.06182861328125,0.18170000612735748,0,0.0,0.0,,,,,0,,1,,,131.20312,-80.890625,-8.6875
Raw,946465612,8644633000000,,,-1260194515000018176,0.0,4232.4489913880825,8.493539156054723,11.629384606936785,3168,20,0.0,15,404759566271241,24,25.2,39.73130798339844,1.1694999933242798,0,0.0,0.0,,,,,0,,1,,,131.20312,-80.890625,-8.6875
Raw,946465613,8644633000000,,,-1260194515000018176,0.0,4232.4489913880825,8.493539156054723,11.629384606936785,3168,21,0.0,15,404759559811624,24,25.5,446.346435546875,1.1890000104904175,0,0.0,0.0,,,,,0,,1,,,131.20312,-80.890625,-8.6875
Raw,946465613,8644633000000,,,-1260194515000018176,0.0,4232.4489913880825,8.493539156054723,11.629384606936785,3168,24,0.0,15,404759562869123,16,29.3,282.47198486328125,0.07739999890327454,0,0.0,0.0,,,,,0,,1,,,131.20312,-80.890625,-8.6875
Raw,946465614,8644633000000,,,-1260194515000018176,0.0,4232.4489913880825,8.493539156054723,11.629384606936785,3168,27,0.0,15,404759549492166,16,29.7,381.1824645996094,0.08789999783039093,0,0.0,0.0,,,,,0,,1,,,131.20312,-80.890625,-8.6875
Raw,946465614,8644633000000,,,-1260194515000018176,0.0,4232.4489913880825,8.493539156054723,11.629384606936785,3168,32,0.0,15,404759559717940,9,35.4,-361.6448669433594,0.06300000101327896,0,0.0,0.0,,,,,0,,1,,,131.20312,-80.890625,-8.6875
Raw,946466624,8645655000000,,,-1260194514999088384,0.0,4252.010956406593,11.986623833189842,13.069574029383556,3169,10,0.0,15,404760584270927,10,34.3,-304.1308288574219,0.07460000365972519,0,0.0,0.0,,,,,0,,1,,,157.57812,-85.1875,-3.875
Raw,946466625,8645655000000,,,-1260194514999088384,0.0,4252.010956406593,11.986623833189842,13.069574029383556,3169,12,0.0,15,404760571562806,27,24.4,-497.90338134765625,0.6679999828338623,0,0.0,0.0,,,,,0,,1,,,157.57812,-85.1875,-3.875
Raw,946466625,8645655000000,,,-1260194514999088384,0.0,4252.010956406593,11.986623833189842,13.069574029383556,3169,14,0.0,15,404760573766937,14,30.0,-475.1694641113281,0.08299999684095383,0,0.0,0.0,,,,,0,,1,,,157.57812,-85.1875,-3.875
Raw,946466626,8645655000000,,,-1260194514999088384,0.0,4252.010956406593,11.986623833189842,13.069574029383556,3169,15,0.0,15,404760573621367,35,22.9,590.4527587890625,0.7310000061988831,0,0.0,0.0,,,,,0,,1,,,157.57812,-85.1875,-3.875
Raw,946466627,8645655000000,,,-1260194514999088384,0.0,4252.010956406593,11.986623833189842,13.069574029383556,3169,20,0.0,15,404760587341453,17,28.0,41.3632698059082,0.10790000110864639,0,0.0,0.0,,,,,0,,1,,,157.57812,-85.1875,-3.875
Raw,946466627,8645655000000,,,-1260194514999088384,0.0,4252.010956406593,11.986623833189842,13.069574029383556,3169,21,0.0,15,404760580880480,31,23.9,447.1330261230469,0.6814999580383301,0,0.0,0.0,,,,,0,,1,,,157.57812,-85.1875,-3.875
Raw,946466628,8645655000000,,,-1260194514999088384,0.0,4252.010956406593,11.986623833189842,13.069574029383556,3169,24,0.0,15,404760583938709,17,28.3,283.9539489746094,0.13189999759197235,0,0.0,0.0,,,,,0,,1,,,157.57812,-85.1875,-3.875
Raw,946466628,8645655000000,,,-1260194514999088384,0.0,4252.010956406593,11.986623833189842,13.069574029383556,3169,27,0.0,15,404760570561255,11,33.6,383.01043701171875,0.05820000171661377,0,0.0,0.0,,,,,0,,1,,,157.57812,-85.1875,-3.875
Raw,946466629,8645655000000,,,-1260194514999088384,0.0,4252.010956406593,11.986623833189842,13.069574029383556,3169,32,0.0,15,404760580789520,11,33.4,-359.900390625,0.07320000231266022,0,0.0,0.0,,,,,0,,1,,,157.57812,-85.1875,-3.875
Raw,946467614,8646642000000,,,-1260194514998294016,0.0,4246.07889726758,16.572704668019185,9.327503473006882,3170,10,0.0,15,404761570477323,10,34.5,-302.59637451171875,0.053599998354911804,0,0.0,0.0,,,,,0,,1,,,218.89062,-102.265625,-12.21875
Raw,946467615,8646642000000,,,-1260194514998294016,0.0,4246.07889726758,16.572704668019185,9.327503473006882,3170,15,0.0,15,404761559825007,13,31.0,592.50732421875,0.0835999995470047,0,0.0,0.0,,,,,0,,1,,,218.89062,-102.265625,-12.21875
Raw,946467616,8646642000000,,,-1260194514998294016,0.0,4246.07889726758,16.572704668019185,9.327503473006882,3170,20,0.0,15,404761573546718,21,26.6,42.69896697998047,0.2702000141143799,0,0.0,0.0,,,,,0,,1,,,218.89062,-102.265625,-12.21875
Raw,946467617,8646642000000,,,-1260194514998294016,0.0,4246.07889726758,16.572704668019185,9.327503473006882,3170,24,0.0,15,404761570143175,16,29.1,285.65350341796875,0.08940000087022781,0,0.0,0.0,,,,,0,,1,,,218.89062,-102.265625,-12.21875
Raw,946467618,8646642000000,,,-1260194514998294016,0.0,4246.07889726758,16.572704668019185,9.327503473006882,3170,27,0.0,15,404761556765326,17,28.7,384.1514892578125,0.12139999866485596,0,0.0,0.0,,,,,0,,1,,,218.89062,-102.265625,-12.21875
Raw,946467619,8646642000000,,,-1260194514998294016,0.0,4246.07889726758,16.572704668019185,9.327503473006882,3170,32,0.0,15,404761566996080,21,26.6,-358.6552734375,0.2597000002861023,0,0.0,0.0,,,,,0,,1,,,218.89062,-102.265625,-12.21875
Raw,946468619,8647752000000,,,-1260194514997363968,0.0,4264.752380549908,20.90524506205588,8.499957851057145,3171,10,0.0,15,404762679548529,12,32.1,-307.7875671386719,0.04990000277757645,0,0.0,0.0,,,,,0,,1,,,232.42188,-86.09375,-3.421875
Raw,946468620,8647752000000,,,-1260194514997363968,0.0,4264.752380549908,20.90524506205588,8.499957851057145,3171,12,0.0,15,404762666842040,11,33.2,-501.906982421875,0.02800000086426735,0,0.0,0.0,,,,,0,,1,,,232.42188,-86.09375,-3.421875
Raw,946468621,8647752000000,,,-1260194514997363968,0.0,4264.752380549908,20.90524506205588,8.499957851057145,3171,20,0.0,15,404762682616631,19,27.0,37.392581939697266,0.066600002348423,0,0.0,0.0,,,,,0,,1,,,232.42188,-86.09375,-3.421875
Raw,946468622,8647752000000,,,-1260194514997363968,0.0,4264.752380549908,20.90524506205588,8.499957851057145,3171,24,0.0,15,404762679212344,10,34.2,280.3095703125,0.04560000076889992,0,0.0,0.0,,,,,0,,1,,,232.42188,-86.09375,-3.421875
Raw,946468623,8647752000000,,,-1260194514997363968,0.0,4264.752380549908,20.90524506205588,8.499957851057145,3171,27,0.0,15,404762665833980,27,24.6,379.4931640625,0.609000027179718,0,0.0,0.0,,,,,0,,1,,,232.42188,-86.09375,-3.421875
Raw,946468624,8647752000000,,,-1260194514997363968,0.0,4264.752380549908,20.90524506205588,8.499957851057145,3171,32,0.0,15,404762676067539,24,25.2,-363.8657531738281,0.20340000092983246,0,0.0,0.0,,,,,0,,1,,,232.42188,-86.09375,-3.421875
Raw,946469620,8648549000000,,,-1260194514997362176,0.0,4221.9082824885845,3.050392746383196,9.713394207728815,3172,10,0.0,15,404763476547685,14,30.9,-308.5633850097656,0.05079999938607216,0,0.0,0.0,,,,,0,,1,,,277.0,-104.75,-14.421875
Raw,946469620,8648549000000,,,-1260194514997362176,0.0,4221.9082824885845,3.050392746383196,9.713394207728815,3172,12,0.0,15,404763463841724,14,30.8,-502.3533020019531,0.031300000846385956,0,0.0,0.0,,,,,0,,1,,,277.0,-104.75,-14.421875
Raw,946469621,8648549000000,,,-1260194514997362176,0.0,4221.9082824885845,3.050392746383196,9.713394207728815,3172,15,0.0,15,404763465889692,21,26.0,586.5302124023438,0.10520000010728836,0,0.0,0.0,,,,,0,,1,,,277.0,-104.75,-14.421875
Raw,946469622,8648549000000,,,-1260194514997362176,0.0,4221.9082824885845,3.050392746383196,9.713394207728815,3172,20,0.0,15,404763479614895,14,30.2,36.89921569824219,0.05530000105500221,0,0.0,0.0,,,,,0,,1,,,277.0,-104.75,-14.421875
Raw,946469623,8648549000000,,,-1260194514997362176,0.0,4221.9082824885845,3.050392746383196,9.713394207728815,3172,21,0.0,15,404763473149932,40,21.4,444.9161376953125,0.8510000109672546,0,0.0,0.0,,,,,0,,1,,,277.0,-104.75,-14.421875
Raw,946469623,8648549000000,,,-1260194514997362176,0.0,4221.9082824885845,3.050392746383196,9.713394207728815,3172,24,0.0,15,404763476209926,8,36.1,279.6324462890625,0.03800000250339508,0,0.0,0.0,,,,,0,,1,,,277.0,-104.75,-14.421875
Raw,946469626,8648549000000,,,-1260194514997362176,0.0,4221.9082824885845,3.050392746383196,9.713394207728815,3172,27,0.0,15,404763462831246,27,24.2,378.70343017578125,0.684499979019165,0,0.0,0.0,,,,,0,,1,,,277.0,-104.75,-14.421875
Raw,946470620,8649542000000,,,-1260194514996939776,0.0,4239.634610712528,1.0315537147265375,9.966353299736086,3173,10,0.0,15,404764469126400,16,29.4,-303.6062927246094,0.04320000112056732,0,0.0,0.0,,,,,0,,1,,,270.60938,-89.0,-0.734375
Raw,946470620,8649542000000,,,-1260194514996939776,0.0,4239.634610712528,1.0315537147265375,9.966353299736086,3173,12,0.0,15,404764456421031,10,34.4,-497.7499694824219,0.041099999099969864,0,0.0,0.0,,,,,0,,1,,,270.60938,-89.0,-0.734375
Raw,946470621,8649542000000,,,-1260194514996939776,0.0,4239.634610712528,1.0315537147265375,9.966353299736086,3173,15,0.0,15,404764458465388,27,24.6,591.0140991210938,0.6285000443458557,0,0.0,0.0,,,,,0,,1,,,270.60938,-89.0,-0.734375
Raw,946470622,8649542000000,,,-1260194514996939776,0.0,4239.634610712528,1.0315537147265375,9.966353299736086,3173,20,0.0,15,404764472192401,14,30.3,41.73869323730469,0.04480000212788582,0,0.0,0.0,,,,,0,,1,,,270.60938,-89.0,-0.734375
Raw,946470622,8649542000000,,,-1260194514996939776,0.0,4239.634610712528,1.0315537147265375,9.966353299736086,3173,21,0.0,15,404764465726124,14,30.4,448.4060363769531,0.034299999475479126,0,0.0,0.0,,,,,0,,1,,,270.60938,-89.0,-0.734375
Raw,946470623,8649542000000,,,-1260194514996939776,0.0,4239.634610712528,1.0315537147265375,9.966353299736086,3173,24,0.0,15,404764468786617,6,38.6,284.63232421875,0.023200001567602158,0,0.0,0.0,,,,,0,,1,,,270.60938,-89.0,-0.734375
Raw,946471619,8650556000000,,,-1260194514996732928,0.0,4216.964822262526,16.737855439792593,11.172735533663177,3174,10,0.0,15,404765482920310,19,27.3,-302.7423400878906,0.0966000035405159,0,0.0,0.0,,,,,0,,1,,,330.35938,-82.09375,-7.265625
Raw,946471619,8650556000000,,,-1260194514996732928,0.0,4216.964822262526,16.737855439792593,11.172735533663177,3174,12,0.0,15,404765470215808,17,28.5,-496.48785400390625,0.055799998342990875,0,0.0,0.0,,,,,0,,1,,,330.35938,-82.09375,-7.265625
Raw,946471620,8650556000000,,,-1260194514996732928,0.0,4216.964822262526,16.737855439792593,11.172735533663177,3174,15,0.0,15,404765472256444,13,31.8,592.3717041015625,0.04179999977350235,0,0.0,0.0,,,,,0,,1,,,330.35938,-82.09375,-7.265625
Raw,946471621,8650556000000,,,-1260194514996732928,0.0,4216.964822262526,16.737855439792593,11.172735533663177,3174,20,0.0,15,404765485985313,19,27.6,42.763126373291016,0.07110000401735306,0,0.0,0.0,,,,,0,,1,,,330.35938,-82.09375,-7.265625
Raw,946471622,8650556000000,,,-1260194514996732928,0.0,4216.964822262526,16.737855439792593,11.172735533663177,3174,21,0.0,15,404765479517711,12,32.6,449.5750732421875,0.04990000277757645,0,0.0,0.0,,,,,0,,1,,,330.35938,-82.09375,-7.265625
Raw,946471622,8650556000000,,,-1260194514996732928,0.0,4216.964822262526,16.737855439792593,11.172735533663177,3174,24,0.0,15,404765482578773,7,37.1,285.8791809082031,0.04560000076889992,0,0.0,0.0,,,,,0,,1,,,330.35938,-82.09375,-7.265625
Raw,946471623,8650556000000,,,-1260194514996732928,0.0,4216.964822262526,16.737855439792593,11.172735533663177,3174,32,0.0,15,404765479439922,21,26.4,-359.0143127441406,0.12620000541210175,0,0.0,0.0,,,,,0,,1,,,330.35938,-82.09375,-7.265625
Raw,946472611,8651444000000,,,-1260194514996354048,0.0,4188.828635960817,20.32813829367175,8.554329470425955,3175,10,0.0,15,404766370542518,31,23.5,-303.5279235839844,0.6664999723434448,0,0.0,0.0,,,,,0,,1,,,10.5625,-79.84375,-10.15625
Raw,946472611,8651444000000,,,-1260194514996354048,0.0,4188.828635960817,20.32813829367175,8.554329470425955,3175,12,0.0,15,404766357838435,14,30.6,-497.75555419921875,0.08900000154972076,0,0.0,0.0,,,,,0,,1,,,10.5625,-79.84375,-10.15625
Raw,946472612,8651444000000,,,-1260194514996354048,0.0,4188.828635960817,20.32813829367175,8.554329470425955,3175,14,0.0,15,404766360041868,35,22.8,-474.8588562011719,0.7414999604225159,0,0.0,0.0,,,,,0,,1,,,10.5625,-79.84375,-10.15625
Raw,946472613,8651444000000,,,-1260194514996354048,0.0,4188.828635960817,20.32813829367175,8.554329470425955,3175,15,0.0,15,404766359875793,16,29.9,591.2621459960938,0.10289999842643738,0,0.0,0.0,,,,,0,,1,,,10.5625,-79.84375,-10.15625
Raw,946472614,8651444000000,,,-1260194514996354048,0.0,4188.828635960817,20.32813829367175,8.554329470425955,3175,20,0.0,15,404766373606454,21,26.3,42.15556716918945,0.2702000141143799,0,0.0,0.0,,,,,0,,1,,,10.5625,-79.84375,-10.15625
Raw,946472615,8651444000000,,,-1260194514996354048,0.0,4188.828635960817,20.32813829367175,8.554329470425955,3175,21,0.0,15,404766367137492,8,36.4,448.61151123046875,0.04100000113248825,0,0.0,0.0,,,,,0,,1,,,10.5625,-79.84375,-10.15625
Raw,946472615,8651444000000,,,-1260194514996354048,0.0,4188.828635960817,20.32813829367175,8.554329470425955,3175,24,0.0,15,404766370199015,11,33.7,284.9023742675781,0.05820000171661377,0,0.0,0.0,,,,,0,,1,,,10.5625,-79.84375,-10.15625
Raw,946472616,8651444000000,,,-1260194514996354048,0.0,4188.828635960817,20.32813829367175,8.554329470425955,3175,32,0.0,15,404766367062213,14,30.5,-359.5567321777344,0.07400000095367432,0,0.0,0.0,,,,,0,,1,,,10.5625,-79.84375,-10.15625
Raw,946473624,8652658000000,,,-1260194514996286464,0.0,4245.762713253498,16.723171412469494,12.60660248983944,3176,10,0.0,15,404767584476007,21,26.5,-303.4239501953125,0.2567000091075897,0,0.0,0.0,,,,,0,,1,,,40.359375,-84.765625,-3.8125
Raw,946473624,8652658000000,,,-1260194514996286464,0.0,4245.762713253498,16.723171412469494,12.60660248983944,3176,12,0.0,15,404767571772708,24,25.6,-496.4219665527344,1.1770000457763672,0,0.0,0.0,,,,,0,,1,,,40.359375,-84.765625,-3.8125
Raw,946473625,8652658000000,,,-1260194514996286464,0.0,4245.762713253498,16.723171412469494,12.60660248983944,3176,14,0.0,15,404767573976156,11,33.9,-475.2587585449219,0.06270000338554382,0,0.0,0.0,,,,,0,,1,,,40.359375,-84.765625,-3.8125
Raw,946473625,8652658000000,,,-1260194514996286464,0.0,4245.762713253498,16.723171412469494,12.60660248983944,3176,20,0.0,15,404767587538646,21,26.9,42.230499267578125,0.2612000107765198,0,0.0,0.0,,,,,0,,1,,,40.359375,-84.765625,-3.8125
Raw,946473626,8652658000000,,,-1260194514996286464,0.0,4245.762713253498,16.723171412469494,12.60660248983944,3176,21,0.0,15,404767581068039,8,36.1,448.9344482421875,0.06199999898672104,0,0.0,0.0,,,,,0,,1,,,40.359375,-84.765625,-3.8125
Raw,946473627,8652658000000,,,-1260194514996286464,0.0,4245.762713253498,16.723171412469494,12.60660248983944,3176,24,0.0,15,404767584130220,24,25.4,285.3406066894531,1.1665000915527344,0,0.0,0.0,,,,,0,,1,,,40.359375,-84.765625,-3.8125
Raw,946473627,8652658000000,,,-1260194514996286464,0.0,4245.762713253498,16.723171412469494,12.60660248983944,3176,27,0.0,15,404767570750382,7,37.0,383.0391845703125,0.042500000447034836,0,0.0,0.0,,,,,0,,1,,,40.359375,-84.765625,-3.8125
Raw,946473628,8652658000000,,,-1260194514996286464,0.0,4245.762713253498,16.723171412469494,12.60660248983944,3176,32,0.0,15,404767580996054,8,36.6,-359.7489929199219,0.060499999672174454,0,0.0,0.0,,,,,0,,1,,,40.359375,-84.765625,-3.8125
Raw,946474615,8653653000000,,,-1260194514995725312,0.0,4201.696254312992,16.986545475329415,9.435905537149525,3177,8,0.0,15,404768563896893,24,25.8,134.30821228027344,1.1950000524520874,0,0.0,0.0,,,,,0,,1,,,99.21875,-78.6875,-11.125
Raw,946474615,8653653000000,,,-1260194514995725312,0.0,4201.696254312992,16.986545475329415,9.435905537149525,3177,10,0.0,15,404768578916018,13,31.5,-304.9764404296875,0.08209999650716782,0,0.0,0.0,,,,,0,,1,,,99.21875,-78.6875,-11.125
Raw,946474616,8653653000000,,,-1260194514995725312,0.0,4201.696254312992,16.986545475329415,9.435905537149525,3177,14,0.0,15,404768568416645,19,27.4,-476.64801025390625,0.17570000886917114,0,0.0,0.0,,,,,0,,1,,,99.21875,-78.6875,-11.125
Raw,946474616,8653653000000,,,-1260194514995725312,0.0,4201.696254312992,16.986545475329415,9.435905537149525,3177,20,0.0,15,404768581977223,19,27.7,40.69960403442383,0.19520001113414764,0,0.0,0.0,,,,,0,,1,,,99.21875,-78.6875,-11.125
Raw,946474617,8653653000000,,,-1260194514995725312,0.0,4201.696254312992,16.986545475329415,9.435905537149525,3177,21,0.0,15,404768575505535,19,27.7,447.1396789550781,0.18620000779628754,0,0.0,0.0,,,,,0,,1,,,99.21875,-78.6875,-11.125
Raw,946474617,8653653000000,,,-1260194514995725312,0.0,4201.696254312992,16.986545475329415,9.435905537149525,3177,27,0.0,15,404768565187988,9,35.1,381.7935485839844,0.041999999433755875,0,0.0,0.0,,,,,0,,1,,,99.21875,-78.6875,-11.125
Raw,946474618,8653653000000,,,-1260194514995725312,0.0,4201.696254312992,16.986545475329415,9.435905537149525,3177,32,0.0,15,404768575436116,8,36.3,-361.0382995605469,0.05299999937415123,0,0.0,0.0,,,,,0,,1,,,99.21875,-78.6875,-11.125
Raw,946475608,8654639000000,,,-1260194514995567104,0.0,4200.511611998081,11.724481657154199,10.175460720025654,3178,10,0.0,15,404769564758767,8,36.8,-305.44720458984375,0.0364999994635582,0,0.0,0.0,,,,,0,,1,,,122.140625,-86.9375,-0.8125
Raw,946475608,8654639000000,,,-1260194514995567104,0.0,4200.511611998081,11.724481657154199,10.175460720025654,3178,14,0.0,15,404769554259943,14,30.7,-476.7173156738281,0.08449999988079071,0,0.0,0.0,,,,,0,,1,,,122.140625,-86.9375,-0.8125
Raw,946475609,8654639000000,,,-1260194514995567104,0.0,4200.511611998081,11.724481657154199,10.175460720025654,3178,20,0.0,15,404769567819005,21,26.4,40.39281463623047,0.2612000107765198,0,0.0,0.0,,,,,0,,1,,,122.140625,-86.9375,-0.8125
Raw,946475609,8654639000000,,,-1260194514995567104,0.0,4200.511611998081,11.724481657154199,10.175460720025654,3178,24,0.0,15,404769564408910,31,23.3,284.44146728515625,0.7174999713897705,0,0.0,0.0,,,,,0,,1,,,122.140625,-86.9375,-0.8125
Raw,946475610,8654639000000,,,-1260194514995567104,0.0,4200.511611998081,11.724481657154199,10.175460720025654,3178,27,0.0,15,404769551028503,10,34.0,381.51953125,0.05509999766945839,0,0.0,0.0,,,,,0,,1,,,122.140625,-86.9375,-0.8125
Raw,946475611,8654639000000,,,-1260194514995567104,0.0,4200.511611998081,11.724481657154199,10.175460720025654,3178,32,0.0,15,404769561279066,9,35.6,-361.3340759277344,0.06599999964237213,0,0.0,0.0,,,,,0,,1,,,122.140625,-86.9375,-0.8125
Raw,946476616,8655651000000,,,-1260194514994788352,0.0,4193.125758320093,10.414891324771595,9.492892033134362,3179,10,0.0,15,404770575981027,8,36.6,-308.2498474121094,0.05299999937415123,0,0.0,0.0,,,,,0,,1,,,164.85938,-80.40625,-8.875
Raw,946476617,8655651000000,,,-1260194514994788352,0.0,4193.125758320093,10.414891324771595,9.492892033134362,3179,14,0.0,15,404770565482714,14,30.8,-479.8045959472656,0.07100000232458115,0,0.0,0.0,,,,,0,,1,,,164.85938,-80.40625,-8.875
Raw,946476618,8655651000000,,,-1260194514994788352,0.0,4193.125758320093,10.414891324771595,9.492892033134362,3179,15,0.0,15,404770565301749,16,29.2,586.1719970703125,0.08190000057220459,0,0.0,0.0,,,,,0,,1,,,164.85938,-80.40625,-8.875
Raw,946476619,8655651000000,,,-1260194514994788352,0.0,4193.125758320093,10.414891324771595,9.492892033134362,3179,21,0.0,15,404770572565413,19,27.2,444.1750793457031,0.18170000612735748,0,0.0,0.0,,,,,0,,1,,,164.85938,-80.40625,-8.875
Raw,946476619,8655651000000,,,-1260194514994788352,0.0,4193.125758320093,10.414891324771595,9.492892033134362,3179,24,0.0,15,404770575629327,14,30.5,280.3952331542969,0.0860000029206276,0,0.0,0.0,,,,,0,,1,,,164.85938,-80.40625,-8.875
Raw,946476620,8655651000000,,,-1260194514994788352,0.0,4193.125758320093,10.414891324771595,9.492892033134362,3179,27,0.0,15,404770562248468,11,33.9,378.7102966308594,0.07620000094175339,0,0.0,0.0,,,,,0,,1,,,164.85938,-80.40625,-8.875
Raw,946476621,8655651000000,,,-1260194514994788352,0.0,4193.125758320093,10.414891324771595,9.492892033134362,3179,32,0.0,15,404770572501512,11,33.3,-364.2540588378906,0.06120000407099724,0,0.0,0.0,,,,,0,,1,,,164.85938,-80.40625,-8.875
Raw,946477606,8656647000000,,,-1260194514994416128,0.0,4182.533826678991,0.2723109584021466,7.318034415890993,3180,10,0.0,15,404771571610025,7,37.8,-305.86846923828125,0.04399999976158142,0,0.0,0.0,,,,,0,,1,,,185.60938,-84.546875,-3.046875
Raw,946477607,8656647000000,,,-1260194514994416128,0.0,4182.533826678991,0.2723109584021466,7.318034415890993,3180,14,0.0,15,404771561112237,21,26.8,-477.59747314453125,0.28220000863075256,0,0.0,0.0,,,,,0,,1,,,185.60938,-84.546875,-3.046875
Raw,946477607,8656647000000,,,-1260194514994416128,0.0,4182.533826678991,0.2723109584021466,7.318034415890993,3180,15,0.0,15,404771560927778,12,32.7,588.7076416015625,0.07850000262260437,0,0.0,0.0,,,,,0,,1,,,185.60938,-84.546875,-3.046875
Raw,946477608,8656647000000,,,-1260194514994416128,0.0,4182.533826678991,0.2723109584021466,7.318034415890993,3180,20,0.0,15,404771574667853,21,26.6,39.912750244140625,0.271699994802475,0,0.0,0.0,,,,,0,,1,,,185.60938,-84.546875,-3.046875
Raw,946477609,8656647000000,,,-1260194514994416128,0.0,4182.533826678991,0.2723109584021466,7.318034415890993,3180,21,0.0,15,404771568191918,31,23.5,446.55267333984375,0.6634999513626099,0,0.0,0.0,,,,,0,,1,,,185.60938,-84.546875,-3.046875
Raw,946477609,8656647000000,,,-1260194514994416128,0.0,4182.533826678991,0.2723109584021466,7.318034415890993,3180,24,0.0,15,404771571256323,11,33.8,282.999267578125,0.059700001031160355,0,0.0,0.0,,,,,0,,1,,,185.60938,-84.546875,-3.046875
Raw,946477610,8656647000000,,,-1260194514994416128,0.0,4182.533826678991,0.2723109584021466,7.318034415890993,3180,27,0.0,15,404771557875144,13,31.9,380.9783020019531,0.08060000091791153,0,0.0,0.0,,,,,0,,1,,,185.60938,-84.546875,-3.046875
Raw,946477610,8656647000000,,,-1260194514994416128,0.0,4182.533826678991,0.2723109584021466,7.318034415890993,3180,32,0.0,15,404771568130602,11,33.5,-361.9469299316406,0.0552000030875206,0,0.0,0.0,,,,,0,,1,,,185.60938,-84.546875,-3.046875
Raw,946478617,8657763000000,,,-1260194514993926656,0.0,4194.407258182764,8.347494161599888,8.2711776196816,3181,8,0.0,15,404772672096585,31,23.2,134.55665588378906,0.8794999718666077,0,0.0,0.0,,,,,0,,1,,,221.76562,-79.625,-10.296875
Raw,946478618,8657763000000,,,-1260194514993926656,0.0,4194.407258182764,8.347494161599888,8.2711776196816,3181,10,0.0,15,404772687121815,8,36.1,-305.0887756347656,0.024500001221895218,0,0.0,0.0,,,,,0,,1,,,221.76562,-79.625,-10.296875
Raw,946478619,8657763000000,,,-1260194514993926656,0.0,4194.407258182764,8.347494161599888,8.2711776196816,3181,12,0.0,15,404772674421697,40,21.8,-499.9966125488281,0.7924999594688416,0,0.0,0.0,,,,,0,,1,,,221.76562,-79.625,-10.296875
Raw,946478620,8657763000000,,,-1260194514993926656,0.0,4194.407258182764,8.347494161599888,8.2711776196816,3181,15,0.0,15,404772676436301,8,36.9,589.1181640625,0.03800000250339508,0,0.0,0.0,,,,,0,,1,,,221.76562,-79.625,-10.296875
Raw,946478621,8657763000000,,,-1260194514993926656,0.0,4194.407258182764,8.347494161599888,8.2711776196816,3181,20,0.0,15,404772690178346,31,23.5,41.20809555053711,0.6664999723434448,0,0.0,0.0,,,,,0,,1,,,221.76562,-79.625,-10.296875
Raw,946478621,8657763000000,,,-1260194514993926656,0.0,4194.407258182764,8.347494161599888,8.2711776196816,3181,24,0.0,15,404772686765944,6,39.1,283.5729064941406,0.019300000742077827,0,0.0,0.0,,,,,0,,1,,,221.76562,-79.625,-10.296875
Raw,946478622,8657763000000,,,-1260194514993926656,0.0,4194.407258182764,8.347494161599888,8.2711776196816,3181,27,0.0,15,404772673384273,27,24.2,382.0811462402344,0.6710000038146973,0,0.0,0.0,,,,,0,,1,,,221.76562,-79.625,-10.296875
Raw,946478623,8657763000000,,,-1260194514993926656,0.0,4194.407258182764,8.347494161599888,8.2711776196816,3181,32,0.0,15,404772683642625,14,30.1,-361.27655029296875,0.06130000203847885,0,0.0,0.0,,,,,0,,1,,,221.76562,-79.625,-10.296875
Raw,946479625,8658551000000,,,-1260194514993131776,0.0,4143.584053963423,9.923308835976188,8.583444626421334,3182,10,0.0,15,404773474327830,12,32.1,-303.40460205078125,0.04240000247955322,0,0.0,0.0,,,,,0,,1,,,241.21875,-83.5625,-6.0
Raw,946479626,8658551000000,,,-1260194514993131776,0.0,4143.584053963423,9.923308835976188,8.583444626421334,3182,12,0.0,15,404773461628228,31,23.9,-497.57037353515625,0.6829999685287476,0,0.0,0.0,,,,,0,,1,,,241.21875,-83.5625,-6.0
Raw,946479626,8658551000000,,,-1260194514993131776,0.0,4143.584053963423,9.923308835976188,8.583444626421334,3182,15,0.0,15,404773463639917,13,31.7,591.00537109375,0.028300000354647636,0,0.0,0.0,,,,,0,,1,,,241.21875,-83.5625,-6.0
Raw,946479627,8658551000000,,,-1260194514993131776,0.0,4143.584053963423,9.923308835976188,8.583444626421334,3182,20,0.0,15,404773477383438,17,28.2,42.33784484863281,0.06629999727010727,0,0.0,0.0,,,,,0,,1,,,241.21875,-83.5625,-6.0
Raw,946479627,8658551000000,,,-1260194514993131776,0.0,4143.584053963423,9.923308835976188,8.583444626421334,3182,24,0.0,15,404773473970369,6,38.1,285.5177307128906,0.03070000186562538,0,0.0,0.0,,,,,0,,1,,,241.21875,-83.5625,-6.0
Raw,946479628,8658551000000,,,-1260194514993131776,0.0,4143.584053963423,9.923308835976188,8.583444626421334,3182,27,0.0,15,404773460588379,40,21.7,382.8518371582031,0.8014999628067017,0,0.0,0.0,,,,,0,,1,,,241.21875,-83.5625,-6.0
Raw,946479629,8658551000000,,,-1260194514993131776,0.0,4143.584053963423,9.923308835976188,8.583444626421334,3182,32,0.0,15,404773470848777,21,26.3,-359.4576721191406,0.11270000040531158,0,0.0,0.0,,,,,0,,1,,,241.21875,-83.5625,-6.0
Raw,946480627,8659568000000,,,-1260194514992144896,0.0,4164.921585470438,15.950680554357291,11.51053496551167,3183,10,0.0,15,404774490341795,24,25.0,-303.7032775878906,0.19439999759197235,0,0.0,0.0,,,,,0,,1,,,276.14062,-84.296875,-5.5625
Raw,946480627,8659568000000,,,-1260194514992144896,0.0,4164.921585470438,15.950680554357291,11.51053496551167,3183,12,0.0,15,404774477642936,21,26.7,-497.88201904296875,0.12319999933242798,0,0.0,0.0,,,,,0,,1,,,276.14062,-84.296875,-5.5625
Raw,946480628,8659568000000,,,-1260194514992144896,0.0,4164.921585470438,15.950680554357291,11.51053496551167,3183,15,0.0,15,404774479650847,11,33.9,590.78466796875,0.04750000312924385,0,0.0,0.0,,,,,0,,1,,,276.14062,-84.296875,-5.5625
Raw,946480628,8659568000000,,,-1260194514992144896,0.0,4164.921585470438,15.950680554357291,11.51053496551167,3183,20,0.0,15,404774493396256,17,28.9,42.164329528808594,0.06030000001192093,0,0.0,0.0,,,,,0,,1,,,276.14062,-84.296875,-5.5625
Raw,946480628,8659568000000,,,-1260194514992144896,0.0,4164.921585470438,15.950680554357291,11.51053496551167,3183,21,0.0,15,404774486916290,35,22.5,448.73150634765625,0.7204999923706055,0,0.0,0.0,,,,,0,,1,,,276.14062,-84.296875,-5.5625
Raw,946480629,8659568000000,,,-1260194514992144896,0.0,4164.921585470438,15.950680554357291,11.51053496551167,3183,24,0.0,15,404774489982343,6,39.0,285.4212646484375,0.023800000548362732,0,0.0,0.0,,,,,0,,1,,,276.14062,-84.296875,-5.5625
Raw,946480629,8659568000000,,,-1260194514992144896,0.0,4164.921585470438,15.950680554357291,11.51053496551167,3183,32,0.0,15,404774486862710,31,23.9,-360.1497802734375,0.6604999899864197,0,0.0,0.0,,,,,0,,1,,,276.14062,-84.296875,-5.5625
Raw,946481622,8660462000000,,,-1260194514991413760,0.0,4156.6276922822,14.509477946749685,7.809152461881119,3184,12,0.0,15,404775370913276,14,30.4,-496.0823974609375,0.07850000262260437,0,0.0,0.0,,,,,0,,1,,,309.9375,-81.234375,-8.75
Raw,946481622,8660462000000,,,-1260194514991413760,0.0,4156.6276922822,14.509477946749685,7.809152461881119,3184,15,0.0,15,404775372917989,13,31.1,592.3379516601562,0.0731000006198883,0,0.0,0.0,,,,,0,,1,,,309.9375,-81.234375,-8.75
Raw,946481623,8660462000000,,,-1260194514991413760,0.0,4156.6276922822,14.509477946749685,7.809152461881119,3184,20,0.0,15,404775386664948,16,29.7,44.02675247192383,0.08339999616146088,0,0.0,0.0,,,,,0,,1,,,309.9375,-81.234375,-8.75
Raw,946481624,8660462000000,,,-1260194514991413760,0.0,4156.6276922822,14.509477946749685,7.809152461881119,3184,21,0.0,15,404775380183872,13,31.4,450.6588134765625,0.08510000258684158,0,0.0,0.0,,,,,0,,1,,,309.9375,-81.234375,-8.75
Raw,946481624,8660462000000,,,-1260194514991413760,0.0,4156.6276922822,14.509477946749685,7.809152461881119,3184,24,0.0,15,404775383250364,8,36.8,287.1287841796875,0.06499999761581421,0,0.0,0.0,,,,,0,,1,,,309.9375,-81.234375,-8.75
Raw,946481625,8660462000000,,,-1260194514991413760,0.0,4156.6276922822,14.509477946749685,7.809152461881119,3184,32,0.0,15,404775380132847,31,23.4,-358.62744140625,0.7414999604225159,0,0.0,0.0,,,,,0,,1,,,309.9375,-81.234375,-8.75
Raw,946482619,8661749000000,,,-1260194514991139072,0.0,4215.093795210123,20.425785802924324,12.36487034831528,3185,10,0.0,15,404776670337993,17,28.0,-304.9513244628906,0.055799998342990875,0,0.0,0.0,,,,,0,,1,,,317.75,-82.796875,-6.828125
Raw,946482620,8661749000000,,,-1260194514991139072,0.0,4215.093795210123,20.425785802924324,12.36487034831528,3185,12,0.0,15,404776657640631,21,26.6,-499.58758544921875,0.12319999933242798,0,0.0,0.0,,,,,0,,1,,,317.75,-82.796875,-6.828125
Raw,946482621,8661749000000,,,-1260194514991139072,0.0,4215.093795210123,20.425785802924324,12.36487034831528,3185,15,0.0,15,404776659640608,13,31.2,588.7686157226562,0.4000000059604645,0,0.0,0.0,,,,,0,,1,,,317.75,-82.796875,-6.828125
Raw,946482622,8661749000000,,,-1260194514991139072,0.0,4215.093795210123,20.425785802924324,12.36487034831528,3185,20,0.0,15,404776673389983,17,28.8,40.38276672363281,0.06030000001192093,0,0.0,0.0,,,,,0,,1,,,317.75,-82.796875,-6.828125
Raw,946482622,8661749000000,,,-1260194514991139072,0.0,4215.093795210123,20.425785802924324,12.36487034831528,3185,21,0.0,15,404776666907178,11,33.5,446.72308349609375,0.02800000086426735,0,0.0,0.0,,,,,0,,1,,,317.75,-82.796875,-6.828125
Raw,946482623,8661749000000,,,-1260194514991139072,0.0,4215.093795210123,20.425785802924324,12.36487034831528,3185,24,0.0,15,404776669974323,10,34.7,283.7955627441406,0.03060000017285347,0,0.0,0.0,,,,,0,,1,,,317.75,-82.796875,-6.828125
Raw,946482624,8661749000000,,,-1260194514991139072,0.0,4215.093795210123,20.425785802924324,12.36487034831528,3185,27,0.0,15,404776656591341,40,21.4,380.3780212402344,0.8554999828338623,0,0.0,0.0,,,,,0,,1,,,317.75,-82.796875,-6.828125
Raw,946483616,8662460000000,,,-1260194514990140928,0.0,4129.3553076684475,9.5523542319494,8.207505215025547,3186,10,0.0,15,404777380340921,19,27.0,-308.49072265625,0.19370000064373016,0,0.0,0.0,,,,,0,,1,,,359.14062,-78.546875,-11.265625
Raw,946483616,8662460000000,,,-1260194514990140928,0.0,4129.3553076684475,9.5523542319494,8.207505215025547,3186,12,0.0,15,404777367643918,19,27.5,-502.91796875,0.17419999837875366,0,0.0,0.0,,,,,0,,1,,,359.14062,-78.546875,-11.265625
Raw,946483616,8662460000000,,,-1260194514990140928,0.0,4129.3553076684475,9.5523542319494,8.207505215025547,3186,15,0.0,15,404777369641414,16,29.5,585.6729736328125,0.08789999783039093,0,0.0,0.0,,,,,0,,1,,,359.14062,-78.546875,-11.265625
Raw,946483617,8662460000000,,,-1260194514990140928,0.0,4129.3553076684475,9.5523542319494,8.207505215025547,3186,20,0.0,15,404777383391975,16,29.7,37.40786361694336,0.07889999449253082,0,0.0,0.0,,,,,0,,1,,,359.14062,-78.546875,-11.265625
Raw,946483617,8662460000000,,,-1260194514990140928,0.0,4129.3553076684475,9.5523542319494,8.207505215025547,3186,21,0.0,15,404777376908292,10,34.1,443.9599304199219,0.06260000169277191,0,0.0,0.0,,,,,0,,1,,,359.14062,-78.546875,-11.265625
Raw,946483617,8662460000000,,,-1260194514990140928,0.0,4129.3553076684475,9.5523542319494,8.207505215025547,3186,24,0.0,15,404777379975819,16,29.7,280.56658935546875,0.10289999842643738,0,0.0,0.0,,,,,0,,1,,,359.14062,-78.546875,-11.265625
Raw,946483618,8662460000000,,,-1260194514990140928,0.0,4129.3553076684475,9.5523542319494,8.207505215025547,3186,27,0.0,15,404777366592553,31,23.0,378.91278076171875,0.7204999923706055,0,0.0,0.0,,,,,0,,1,,,359.14062,-78.546875,-11.265625
Raw,946483618,8662460000000,,,-1260194514990140928,0.0,4129.3553076684475,9.5523542319494,8.207505215025547,3186,32,0.0,15,404777376862627,17,28.8,-364.4853820800781,0.12139999866485596,0,0.0,0.0,,,,,0,,1,,,359.14062,-78.546875,-11.265625
Raw,946484626,8663658000000,,,-1260194514989148672,0.0,4221.756476908922,-1.341663130146538,8.276917941887953,3187,12,0.0,15,404778564653330,21,26.8,-495.9797668457031,0.2567000091075897,0,0.0,0.0,,,,,0,,1,,,19.859375,-85.234375,-4.296875
Raw,946484626,8663658000000,,,-1260194514989148672,0.0,4221.756476908922,-1.341663130146538,8.276917941887953,3187,14,0.0,15,404778566855812,12,32.8,-473.84716796875,0.057499997317790985,0,0.0,0.0,,,,,0,,1,,,19.859375,-85.234375,-4.296875
Raw,946484627,8663658000000,,,-1260194514989148672,0.0,4221.756476908922,-1.341663130146538,8.276917941887953,3187,15,0.0,15,404778566645677,24,25.7,592.3461303710938,0.6604999899864197,0,0.0,0.0,,,,,0,,1,,,19.859375,-85.234375,-4.296875
Raw,946484628,8663658000000,,,-1260194514989148672,0.0,4221.756476908922,-1.341663130146538,8.276917941887953,3187,20,0.0,15,404778580399277,16,29.7,44.12422561645508,0.10440000146627426,0,0.0,0.0,,,,,0,,1,,,19.859375,-85.234375,-4.296875
Raw,946484628,8663658000000,,,-1260194514989148672,0.0,4221.756476908922,-1.341663130146538,8.276917941887953,3187,21,0.0,15,404778573913801,10,34.2,450.6837158203125,0.05810000002384186,0,0.0,0.0,,,,,0,,1,,,19.859375,-85.234375,-4.296875
