# 
# Header Description:
# 
# Version: v2.0.0.1 Platform: 8.0.0 Manufacturer: Xiaomi Model: MIX 2
# 
# Raw,ElapsedRealtimeMillis,TimeNanos,LeapSecond,TimeUncertaintyNanos,FullBiasNanos,BiasNanos,BiasUncertaintyNanos,DriftNanosPerSecond,DriftUncertaintyNanosPerSecond,HardwareClockDiscontinuityCount,Svid,TimeOffsetNanos,State,ReceivedSvTimeNanos,ReceivedSvTimeUncertaintyNanos,Cn0DbHz,PseudorangeRateMetersPerSecond,PseudorangeRateUncertaintyMetersPerSecond,AccumulatedDeltaRangeState,AccumulatedDeltaRangeMeters,AccumulatedDeltaRangeUncertaintyMeters,CarrierFrequencyHz,CarrierCycles,CarrierPhase,CarrierPhaseUncertainty,MultipathIndicator,SnrInDb,ConstellationType,AgcDb,CarrierFrequencyHz,AngleZ,AngleX,AngleY
# 
# Fix,Provider,Latitude,Longitude,Altitude,Speed,Accuracy,SpeedAccuracy,BearingAccuracy,TimeInMs
# 
# Nav,Svid,Type,Status,MessageId,Sub-messageId,Data(Bytes)
# 
Raw,946151636,8330294000000,,,-1260194515138701824,0.0,82.7433104859665,-60.31963021811655,17.27794516226137,2923,8,0.0,15,404445347998096,658,19.3,83.07270812988281,2.807000160217285,0,0.0,0.0,,,,,0,,1,,,199.07812,-78.90625,-10.546875
Raw,946151636,8330294000000,,,-1260194515138701824,0.0,82.7433104859665,-60.31963021811655,17.27794516226137,2923,10,0.0,15,404445362551027,9,35.6,-341.2588195800781,0.02460000105202198,0,0.0,0.0,,,,,0,,1,,,199.07812,-78.90625,-10.546875
Raw,946151637,8330294000000,,,-1260194515138701824,0.0,82.7433104859665,-60.31963021811655,17.27794516226137,2923,14,0.0,15,404445351869363,16,29.0,-507.9520263671875,0.04320000112056732,0,0.0,0.0,,,,,0,,1,,,199.07812,-78.90625,-10.546875
Raw,946151637,8330294000000,,,-1260194515138701824,0.0,82.7433104859665,-60.31963021811655,17.27794516226137,2923,15,0.0,15,404445352850826,53,19.6,569.5679931640625,0.934499979019165,0,0.0,0.0,,,,,0,,1,,,199.07812,-78.90625,-10.546875
Raw,946151638,8330294000000,,,-1260194515138701824,0.0,82.7433104859665,-60.31963021811655,17.27794516226137,2923,20,0.0,15,404445365978606,27,24.6,-7.91621732711792,0.6240000128746033,0,0.0,0.0,,,,,0,,1,,,199.07812,-78.90625,-10.546875
Raw,946151638,8330294000000,,,-1260194515138701824,0.0,82.7433104859665,-60.31963021811655,17.27794516226137,2923,21,0.0,15,404445359946915,16,29.1,402.07147216796875,0.025200001895427704,0,0.0,0.0,,,,,0,,1,,,199.07812,-78.90625,-10.546875
Raw,946151638,8330294000000,,,-1260194515138701824,0.0,82.7433104859665,-60.31963021811655,17.27794516226137,2923,24,0.0,15,404445362825631,48,21.9,223.49041748046875,2.2894999980926514,0,0.0,0.0,,,,,0,,1,,,199.07812,-78.90625,-10.546875
Raw,946151638,8330294000000,,,-1260194515138701824,0.0,82.7433104859665,-60.31963021811655,17.27794516226137,2923,27,0.0,15,404445349562150,14,30.3,342.531005859375,0.03930000215768814,0,0.0,0.0,,,,,0,,1,,,199.07812,-78.90625,-10.546875
Raw,946151638,8330294000000,,,-1260194515138701824,0.0,82.7433104859665,-60.31963021811655,17.27794516226137,2923,32,0.0,15,404445359010666,11,33.3,-397.53076171875,0.05140000209212303,0,0.0,0.0,,,,,0,,1,,,199.07812,-78.90625,-10.546875
Raw,946152614,8331294000000,,,-1260194515138701824,0.0,79.56782792462036,-56.039713420698654,15.484938263557018,2923,8,0.0,15,404446347997842,22,26.6,82.53987884521484,0.9179999828338623,0,0.0,0.0,,,,,0,,1,,,83.765625,-81.6875,-1.421875
Raw,946152615,8331294000000,,,-1260194515138701824,0.0,79.56782792462036,-56.039713420698654,15.484938263557018,2923,10,0.0,15,404446362552179,11,33.3,-339.8930358886719,0.33949998021125793,0,0.0,0.0,,,,,0,,1,,,83.765625,-81.6875,-1.421875
Raw,946152616,8331294000000,,,-1260194515138701824,0.0,79.56782792462036,-56.039713420698654,15.484938263557018,2923,14,0.0,15,404446351871067,19,27.5,-506.5617370605469,0.5130000114440918,0,0.0,0.0,,,,,0,,1,,,83.765625,-81.6875,-1.421875
Raw,946152616,8331294000000,,,-1260194515138701824,0.0,79.56782792462036,-56.039713420698654,15.484938263557018,2923,15,0.0,15,404446352848926,61,19.6,569.5679931640625,2.434499979019165,0,0.0,0.0,,,,,0,,1,,,83.765625,-81.6875,-1.421875
Raw,946152616,8331294000000,,,-1260194515138701824,0.0,79.56782792462036,-56.039713420698654,15.484938263557018,2923,20,0.0,15,404446365978519,24,25.0,-6.612705230712891,0.6240000128746033,0,0.0,0.0,,,,,0,,1,,,83.765625,-81.6875,-1.421875
Raw,946152617,8331294000000,,,-1260194515138701824,0.0,79.56782792462036,-56.039713420698654,15.484938263557018,2923,21,0.0,15,404446359945573,17,28.1,403.375,0.4950000047683716,0,0.0,0.0,,,,,0,,1,,,83.765625,-81.6875,-1.421875
Raw,946152617,8331294000000,,,-1260194515138701824,0.0,79.56782792462036,-56.039713420698654,15.484938263557018,2923,27,0.0,15,404446349560987,16,29.4,343.92724609375,0.4699999988079071,0,0.0,0.0,,,,,0,,1,,,83.765625,-81.6875,-1.421875
Raw,946152618,8331294000000,,,-1260194515138701824,0.0,79.56782792462036,-56.039713420698654,15.484938263557018,2923,32,0.0,15,404446359012002,14,30.4,-395.8013000488281,0.445000022649765,0,0.0,0.0,,,,,0,,1,,,83.765625,-81.6875,-1.421875
Raw,946153607,8332294000000,,,-1260194515138701824,0.0,69.75177529966459,-52.518530749122874,14.840286878155693,2923,8,0.0,15,404447347997588,31,23.5,82.36861419677734,0.6769999861717224,0,0.0,0.0,,,,,0,,1,,,109.5,-83.046875,0.984375
Raw,946153608,8332294000000,,,-1260194515138701824,0.0,69.75177529966459,-52.518530749122874,14.840286878155693,2923,10,0.0,15,404447362553311,13,31.5,-343.2422180175781,0.36949998140335083,0,0.0,0.0,,,,,0,,1,,,109.5,-83.046875,0.984375
Raw,946153608,8332294000000,,,-1260194515138701824,0.0,69.75177529966459,-52.518530749122874,14.840286878155693,2923,14,0.0,15,404447351872739,14,30.2,-510.90997314453125,0.43299999833106995,0,0.0,0.0,,,,,0,,1,,,109.5,-83.046875,0.984375
Raw,946153609,8332294000000,,,-1260194515138701824,0.0,69.75177529966459,-52.518530749122874,14.840286878155693,2923,15,0.0,15,404447352846875,64,18.5,569.5869750976562,1.7645000219345093,0,0.0,0.0,,,,,0,,1,,,109.5,-83.046875,0.984375
Raw,946153609,8332294000000,,,-1260194515138701824,0.0,69.75177529966459,-52.518530749122874,14.840286878155693,2923,20,0.0,15,404447365978510,24,25.1,-9.704977035522461,0.6240000128746033,0,0.0,0.0,,,,,0,,1,,,109.5,-83.046875,0.984375
Raw,946153610,8332294000000,,,-1260194515138701824,0.0,69.75177529966459,-52.518530749122874,14.840286878155693,2923,21,0.0,15,404447359944232,24,25.9,399.71185302734375,0.574999988079071,0,0.0,0.0,,,,,0,,1,,,109.5,-83.046875,0.984375
Raw,946153610,8332294000000,,,-1260194515138701824,0.0,69.75177529966459,-52.518530749122874,14.840286878155693,2923,27,0.0,15,404447349559832,35,22.3,340.13092041015625,0.800000011920929,0,0.0,0.0,,,,,0,,1,,,109.5,-83.046875,0.984375
Raw,946153611,8332294000000,,,-1260194515138701824,0.0,69.75177529966459,-52.518530749122874,14.840286878155693,2923,32,0.0,15,404447359013326,12,32.4,-399.3503112792969,0.39500001072883606,0,0.0,0.0,,,,,0,,1,,,109.5,-83.046875,0.984375
Raw,946154622,8333294000000,,,-1260194515138701824,0.0,73.12487286981195,-62.70100662323307,13.179231838713765,2923,8,0.0,15,404448347997230,70,17.9,85.9080810546875,1.0869998931884766,0,0.0,0.0,,,,,0,,1,,,167.26562,-84.8125,-3.75
Raw,946154623,8333294000000,,,-1260194515138701824,0.0,73.12487286981195,-62.70100662323307,13.179231838713765,2923,10,0.0,15,404448362554460,11,33.1,-339.890869140625,0.02590000070631504,0,0.0,0.0,,,,,0,,1,,,167.26562,-84.8125,-3.75
Raw,946154624,8333294000000,,,-1260194515138701824,0.0,73.12487286981195,-62.70100662323307,13.179231838713765,2923,14,0.0,15,404448351874424,12,32.7,-506.73187255859375,0.040400002151727676,0,0.0,0.0,,,,,0,,1,,,167.26562,-84.8125,-3.75
Raw,946154624,8333294000000,,,-1260194515138701824,0.0,73.12487286981195,-62.70100662323307,13.179231838713765,2923,15,0.0,15,404448352845435,17,28.3,571.4132690429688,0.05130000039935112,0,0.0,0.0,,,,,0,,1,,,167.26562,-84.8125,-3.75
Raw,946154625,8333294000000,,,-1260194515138701824,0.0,73.12487286981195,-62.70100662323307,13.179231838713765,2923,20,0.0,15,404448365978562,24,25.3,-4.828991889953613,0.38929998874664307,0,0.0,0.0,,,,,0,,1,,,167.26562,-84.8125,-3.75
Raw,946154625,8333294000000,,,-1260194515138701824,0.0,73.12487286981195,-62.70100662323307,13.179231838713765,2923,21,0.0,15,404448359942961,24,25.2,402.93731689453125,0.6150000095367432,0,0.0,0.0,,,,,0,,1,,,167.26562,-84.8125,-3.75
Raw,946154626,8333294000000,,,-1260194515138701824,0.0,73.12487286981195,-62.70100662323307,13.179231838713765,2923,24,0.0,15,404448362823586,367,22.7,225.85003662109375,0.9994999766349792,0,0.0,0.0,,,,,0,,1,,,167.26562,-84.8125,-3.75
Raw,946154627,8333294000000,,,-1260194515138701824,0.0,73.12487286981195,-62.70100662323307,13.179231838713765,2923,27,0.0,15,404448349558725,21,26.2,344.640869140625,0.5900000333786011,0,0.0,0.0,,,,,0,,1,,,167.26562,-84.8125,-3.75
Raw,946154627,8333294000000,,,-1260194515138701824,0.0,73.12487286981195,-62.70100662323307,13.179231838713765,2923,32,0.0,15,404448359014675,13,31.5,-396.2665100097656,0.053700003772974014,0,0.0,0.0,,,,,0,,1,,,167.26562,-84.8125,-3.75
Raw,946155611,8334504000000,,,-1260194515138293248,0.0,4148.939158767462,-43.55612067556245,9.153096451557698,2924,10,0.0,15,404449572147324,8,36.2,-337.16748046875,0.048500001430511475,0,0.0,0.0,,,,,0,,1,,,188.96875,-82.640625,4.390625
Raw,946155612,8334504000000,,,-1260194515138293248,0.0,4148.939158767462,-43.55612067556245,9.153096451557698,2924,14,0.0,15,404449561468029,17,28.7,-503.7643127441406,0.12890000641345978,0,0.0,0.0,,,,,0,,1,,,188.96875,-82.640625,4.390625
Raw,946155612,8334504000000,,,-1260194515138293248,0.0,4148.939158767462,-43.55612067556245,9.153096451557698,2924,15,0.0,15,404449562434661,7,37.5,573.17041015625,0.06050000339746475,0,0.0,0.0,,,,,0,,1,,,188.96875,-82.640625,4.390625
Raw,946155613,8334504000000,,,-1260194515138293248,0.0,4148.939158767462,-43.55612067556245,9.153096451557698,2924,20,0.0,15,404449575570183,19,27.7,-3.2464632987976074,0.18620000779628754,0,0.0,0.0,,,,,0,,1,,,188.96875,-82.640625,4.390625
Raw,946155613,8334504000000,,,-1260194515138293248,0.0,4148.939158767462,-43.55612067556245,9.153096451557698,2924,21,0.0,15,404449569532690,21,26.1,406.1767883300781,0.26420000195503235,0,0.0,0.0,,,,,0,,1,,,188.96875,-82.640625,4.390625
Raw,946155614,8334504000000,,,-1260194515138293248,0.0,4148.939158767462,-43.55612067556245,9.153096451557698,2924,24,0.0,15,404449572414111,10,34.0,228.81817626953125,0.05660000070929527,0,0.0,0.0,,,,,0,,1,,,188.96875,-82.640625,4.390625
Raw,946155615,8334504000000,,,-1260194515138293248,0.0,4148.939158767462,-43.55612067556245,9.153096451557698,2924,27,0.0,15,404449559148830,16,29.3,346.8185119628906,0.10289999842643738,0,0.0,0.0,,,,,0,,1,,,188.96875,-82.640625,4.390625
Raw,946156616,8335602000000,,,-1260194515137512448,0.0,4231.985192745924,-43.84719906986883,16.439570229216606,2925,10,0.0,15,404450669367381,9,35.4,-334.0916748046875,0.02850000187754631,0,0.0,0.0,,,,,0,,1,,,246.39062,-83.84375,0.328125
Raw,946156617,8335602000000,,,-1260194515137512448,0.0,4231.985192745924,-43.84719906986883,16.439570229216606,2925,12,0.0,15,404450656463573,31,23.0,-519.17822265625,0.7354999780654907,0,0.0,0.0,,,,,0,,1,,,246.39062,-83.84375,0.328125
Raw,946156617,8335602000000,,,-1260194515137512448,0.0,4231.985192745924,-43.84719906986883,16.439570229216606,2925,15,0.0,15,404450659651375,6,38.5,576.182861328125,0.03970000147819519,0,0.0,0.0,,,,,0,,1,,,246.39062,-83.84375,0.328125
Raw,946156618,8335602000000,,,-1260194515137512448,0.0,4231.985192745924,-43.84719906986883,16.439570229216606,2925,20,0.0,15,404450672788958,17,28.9,-0.2967612147331238,0.058800000697374344,0,0.0,0.0,,,,,0,,1,,,246.39062,-83.84375,0.328125
Raw,946156619,8335602000000,,,-1260194515137512448,0.0,4231.985192745924,-43.84719906986883,16.439570229216606,2925,21,0.0,15,404450666750137,19,27.1,409.13818359375,0.07259999960660934,0,0.0,0.0,,,,,0,,1,,,246.39062,-83.84375,0.328125
Raw,946156619,8335602000000,,,-1260194515137512448,0.0,4231.985192745924,-43.84719906986883,16.439570229216606,2925,24,0.0,15,404450669632114,11,33.8,231.93605041503906,0.0325000025331974,0,0.0,0.0,,,,,0,,1,,,246.39062,-83.84375,0.328125
Raw,946156620,8335602000000,,,-1260194515137512448,0.0,4231.985192745924,-43.84719906986883,16.439570229216606,2925,32,0.0,15,404450665827855,24,25.7,-390.2620849609375,0.18690000474452972,0,0.0,0.0,,,,,0,,1,,,246.39062,-83.84375,0.328125
Raw,946157602,8336411000000,,,-1260194515136523008,0.0,4203.678574413061,-33.63539967672389,13.488928504448936,2926,10,0.0,15,404451477379201,35,22.8,-335.8112487792969,0.7369999885559082,0,0.0,0.0,,,,,0,,1,,,294.10938,-85.859375,-1.09375
Raw,946157603,8336411000000,,,-1260194515136523008,0.0,4203.678574413061,-33.63539967672389,13.488928504448936,2926,15,0.0,15,404451467660729,8,36.2,573.2041625976562,0.024500001221895218,0,0.0,0.0,,,,,0,,1,,,294.10938,-85.859375,-1.09375
Raw,946157604,8336411000000,,,-1260194515136523008,0.0,4203.678574413061,-33.63539967672389,13.488928504448936,2926,20,0.0,15,404451480799934,21,26.9,-2.967240810394287,0.12770000100135803,0,0.0,0.0,,,,,0,,1,,,294.10938,-85.859375,-1.09375
Raw,946157605,8336411000000,,,-1260194515136523008,0.0,4203.678574413061,-33.63539967672389,13.488928504448936,2926,21,0.0,15,404451474759898,13,31.5,406.6803283691406,0.04480000212788582,0,0.0,0.0,,,,,0,,1,,,294.10938,-85.859375,-1.09375
Raw,946157605,8336411000000,,,-1260194515136523008,0.0,4203.678574413061,-33.63539967672389,13.488928504448936,2926,24,0.0,15,404451477642342,11,33.1,229.2034454345703,0.04450000077486038,0,0.0,0.0,,,,,0,,1,,,294.10938,-85.859375,-1.09375
Raw,946158608,8337401000000,,,-1260194515136266240,0.0,4217.5957933068275,-42.796874390188485,9.764136970041985,2927,14,0.0,15,404452456445513,24,25.3,-506.31732177734375,0.20340000092983246,0,0.0,0.0,,,,,0,,1,,,317.71875,-83.296875,5.859375
Raw,946158609,8337401000000,,,-1260194515136266240,0.0,4217.5957933068275,-42.796874390188485,9.764136970041985,2927,15,0.0,15,404452457401874,8,36.0,571.4225463867188,0.039500001817941666,0,0.0,0.0,,,,,0,,1,,,317.71875,-83.296875,5.859375
Raw,946158609,8337401000000,,,-1260194515136266240,0.0,4217.5957933068275,-42.796874390188485,9.764136970041985,2927,20,0.0,15,404452470542950,17,28.0,-5.079848766326904,0.055799998342990875,0,0.0,0.0,,,,,0,,1,,,317.71875,-83.296875,5.859375
Raw,946158610,8337401000000,,,-1260194515136266240,0.0,4217.5957933068275,-42.796874390188485,9.764136970041985,2927,21,0.0,15,404452464501658,13,31.3,404.2248840332031,0.02979999966919422,0,0.0,0.0,,,,,0,,1,,,317.71875,-83.296875,5.859375
Raw,946158611,8337401000000,,,-1260194515136266240,0.0,4217.5957933068275,-42.796874390188485,9.764136970041985,2927,24,0.0,15,404452467384646,12,32.0,227.25811767578125,0.03189999982714653,0,0.0,0.0,,,,,0,,1,,,317.71875,-83.296875,5.859375
Raw,946158611,8337401000000,,,-1260194515136266240,0.0,4217.5957933068275,-42.796874390188485,9.764136970041985,2927,32,0.0,15,404452463584333,24,25.0,-395.478515625,0.18389999866485596,0,0.0,0.0,,,,,0,,1,,,317.71875,-83.296875,5.859375
Raw,946159611,8338320000000,,,-1260194515135357952,0.0,4204.039927572012,-49.74613803757204,7.565562549135839,2928,10,0.0,15,404453385215769,21,26.4,-335.8869934082031,0.2581999897956848,0,0.0,0.0,,,,,0,,1,,,3.5625,-94.875,-4.859375
Raw,946159611,8338320000000,,,-1260194515135357952,0.0,4204.039927572012,-49.74613803757204,7.565562549135839,2928,14,0.0,15,404453374538653,13,31.7,-502.8104553222656,0.07609999924898148,0,0.0,0.0,,,,,0,,1,,,3.5625,-94.875,-4.859375
Raw,946159612,8338320000000,,,-1260194515135357952,0.0,4204.039927572012,-49.74613803757204,7.565562549135839,2928,15,0.0,15,404453375491530,11,33.0,574.1749267578125,0.065700002014637,0,0.0,0.0,,,,,0,,1,,,3.5625,-94.875,-4.859375
Raw,946159612,8338320000000,,,-1260194515135357952,0.0,4204.039927572012,-49.74613803757204,7.565562549135839,2928,20,0.0,15,404453388634443,19,27.1,-2.0544419288635254,0.17570000886917114,0,0.0,0.0,,,,,0,,1,,,3.5625,-94.875,-4.859375
Raw,946159613,8338320000000,,,-1260194515135357952,0.0,4204.039927572012,-49.74613803757204,7.565562549135839,2928,21,0.0,15,404453382591913,12,32.4,407.53558349609375,0.08150000125169754,0,0.0,0.0,,,,,0,,1,,,3.5625,-94.875,-4.859375
Raw,946159613,8338320000000,,,-1260194515135357952,0.0,4204.039927572012,-49.74613803757204,7.565562549135839,2928,24,0.0,15,404453385475461,14,30.0,230.28746032714844,0.07100000232458115,0,0.0,0.0,,,,,0,,1,,,3.5625,-94.875,-4.859375
Raw,946159614,8338320000000,,,-1260194515135357952,0.0,4204.039927572012,-49.74613803757204,7.565562549135839,2928,32,0.0,15,404453381676977,17,28.1,-392.1518249511719,0.12890000641345978,0,0.0,0.0,,,,,0,,1,,,3.5625,-94.875,-4.859375
Raw,946160614,8339512000000,,,-1260194515134907904,0.0,4247.778560966253,-39.7017384645795,10.844962976624565,2929,14,0.0,15,404454566090658,8,36.8,-501.0355224609375,0.03949999809265137,0,0.0,0.0,,,,,0,,1,,,42.109375,-94.765625,-4.59375
Raw,946160614,8339512000000,,,-1260194515134907904,0.0,4247.778560966253,-39.7017384645795,10.844962976624565,2929,15,0.0,15,404454567039176,31,23.5,576.6278686523438,0.6620000004768372,0,0.0,0.0,,,,,0,,1,,,42.109375,-94.765625,-4.59375
Raw,946160615,8339512000000,,,-1260194515134907904,0.0,4247.778560966253,-39.7017384645795,10.844962976624565,2929,20,0.0,15,404454580184382,16,29.6,-0.1964319944381714,0.10440000146627426,0,0.0,0.0,,,,,0,,1,,,42.109375,-94.765625,-4.59375
Raw,946160616,8339512000000,,,-1260194515134907904,0.0,4247.778560966253,-39.7017384645795,10.844962976624565,2929,21,0.0,15,404454574140267,10,34.1,409.30078125,0.05959999933838844,0,0.0,0.0,,,,,0,,1,,,42.109375,-94.765625,-4.59375
Raw,946160617,8339512000000,,,-1260194515134907904,0.0,4247.778560966253,-39.7017384645795,10.844962976624565,2929,24,0.0,15,404454577024557,17,28.7,232.06983947753906,0.12290000170469284,0,0.0,0.0,,,,,0,,1,,,42.109375,-94.765625,-4.59375
Raw,946160618,8339512000000,,,-1260194515134907904,0.0,4247.778560966253,-39.7017384645795,10.844962976624565,2929,27,0.0,15,404454563757337,12,32.5,349.7640380859375,0.05299999937415123,0,0.0,0.0,,,,,0,,1,,,42.109375,-94.765625,-4.59375
Raw,946160619,8339512000000,,,-1260194515134907904,0.0,4247.778560966253,-39.7017384645795,10.844962976624565,2929,32,0.0,15,404454573228621,10,34.2,-390.4248962402344,0.05810000002384186,0,0.0,0.0,,,,,0,,1,,,42.109375,-94.765625,-4.59375
Raw,946161608,8340500000000,,,-1260194515134061056,0.0,4231.697414070368,-33.55320920576486,7.827969553003945,2930,8,0.0,15,404455549354182,31,23.2,86.57410430908203,0.7249999642372131,0,0.0,0.0,,,,,0,,1,,,74.015625,-91.796875,1.390625
Raw,946161609,8340500000000,,,-1260194515134061056,0.0,4231.697414070368,-33.55320920576486,7.827969553003945,2930,10,0.0,15,404455563921575,24,25.0,-338.2727966308594,1.165000081062317,0,0.0,0.0,,,,,0,,1,,,74.015625,-91.796875,1.390625
Raw,946161609,8340500000000,,,-1260194515134061056,0.0,4231.697414070368,-33.55320920576486,7.827969553003945,2930,14,0.0,15,404455553245620,7,37.0,-505.1491394042969,0.04700000211596489,0,0.0,0.0,,,,,0,,1,,,74.015625,-91.796875,1.390625
Raw,946161610,8340500000000,,,-1260194515134061056,0.0,4231.697414070368,-33.55320920576486,7.827969553003945,2930,20,0.0,15,404455567337809,21,26.5,-3.8296797275543213,0.2612000107765198,0,0.0,0.0,,,,,0,,1,,,74.015625,-91.796875,1.390625
Raw,946161610,8340500000000,,,-1260194515134061056,0.0,4231.697414070368,-33.55320920576486,7.827969553003945,2930,21,0.0,15,404455561292246,12,32.8,405.5517272949219,0.07999999821186066,0,0.0,0.0,,,,,0,,1,,,74.015625,-91.796875,1.390625
Raw,946161611,8340500000000,,,-1260194515134061056,0.0,4231.697414070368,-33.55320920576486,7.827969553003945,2930,27,0.0,15,404455550909500,9,35.4,345.48406982421875,0.0494999997317791,0,0.0,0.0,,,,,0,,1,,,74.015625,-91.796875,1.390625
Raw,946161612,8340500000000,,,-1260194515134061056,0.0,4231.697414070368,-33.55320920576486,7.827969553003945,2930,32,0.0,15,404455560383189,9,35.8,-394.5822448730469,0.06450000405311584,0,0.0,0.0,,,,,0,,1,,,74.015625,-91.796875,1.390625
Raw,946162609,8341517000000,,,-1260194515133614848,0.0,4226.403310894966,-47.23458722125782,9.162459268589481,2931,8,0.0,15,404456565907351,24,25.6,92.32198333740234,1.1679999828338623,0,0.0,0.0,,,,,0,,1,,,118.421875,-85.59375,-4.203125
Raw,946162610,8341517000000,,,-1260194515133614848,0.0,4226.403310894966,-47.23458722125782,9.162459268589481,2931,10,0.0,15,404456580476128,13,31.0,-333.0276184082031,0.08510000258684158,0,0.0,0.0,,,,,0,,1,,,118.421875,-85.59375,-4.203125
Raw,946162610,8341517000000,,,-1260194515133614848,0.0,4226.403310894966,-47.23458722125782,9.162459268589481,2931,14,0.0,15,404456569800680,11,33.6,-499.69146728515625,0.056700002402067184,0,0.0,0.0,,,,,0,,1,,,118.421875,-85.59375,-4.203125
Raw,946162611,8341517000000,,,-1260194515133614848,0.0,4226.403310894966,-47.23458722125782,9.162459268589481,2931,21,0.0,15,404456577844152,17,28.9,410.92510986328125,0.12290000170469284,0,0.0,0.0,,,,,0,,1,,,118.421875,-85.59375,-4.203125
Raw,946162611,8341517000000,,,-1260194515133614848,0.0,4226.403310894966,-47.23458722125782,9.162459268589481,2931,27,0.0,15,404456567461628,21,26.1,350.8484191894531,0.2612000107765198,0,0.0,0.0,,,,,0,,1,,,118.421875,-85.59375,-4.203125
Raw,946162612,8341517000000,,,-1260194515133614848,0.0,4226.403310894966,-47.23458722125782,9.162459268589481,2931,32,0.0,15,404456576937841,12,32.8,-389.1360168457031,0.07249999791383743,0,0.0,0.0,,,,,0,,1,,,118.421875,-85.59375,-4.203125
Raw,946163623,8342609000000,,,-1260194515132776704,0.0,4222.567193210125,-29.44374928011494,12.931197908167277,2932,10,0.0,15,404457671639300,8,36.8,-335.0352478027344,0.030500000342726707,0,0.0,0.0,,,,,0,,1,,,178.39062,-98.84375,-8.171875
Raw,946163625,8342609000000,,,-1260194515132776704,0.0,4222.567193210125,-29.44374928011494,12.931197908167277,2932,14,0.0,15,404457660964510,12,32.3,-502.07550048828125,0.05140000209212303,0,0.0,0.0,,,,,0,,1,,,178.39062,-98.84375,-8.171875
Raw,946163626,8342609000000,,,-1260194515132776704,0.0,4222.567193210125,-29.44374928011494,12.931197908167277,2932,15,0.0,15,404457661902055,11,33.2,575.3505249023438,0.05050000175833702,0,0.0,0.0,,,,,0,,1,,,178.39062,-98.84375,-8.171875
Raw,946163627,8342609000000,,,-1260194515132776704,0.0,4222.567193210125,-29.44374928011494,12.931197908167277,2932,20,0.0,15,404457675053145,35,22.3,2.1503186225891113,0.9440000057220459,0,0.0,0.0,,,,,0,,1,,,178.39062,-98.84375,-8.171875
Raw,946163627,8342609000000,,,-1260194515132776704,0.0,4222.567193210125,-29.44374928011494,12.931197908167277,2932,21,0.0,15,404457669004658,21,26.3,408.7569885253906,0.1111999973654747,0,0.0,0.0,,,,,0,,1,,,178.39062,-98.84375,-8.171875
Raw,946163628,8342609000000,,,-1260194515132776704,0.0,4222.567193210125,-29.44374928011494,12.931197908167277,2932,24,0.0,15,404457671890713,13,31.0,231.8439178466797,0.040300000458955765,0,0.0,0.0,,,,,0,,1,,,178.39062,-98.84375,-8.171875
Raw,946163629,8342609000000,,,-1260194515132776704,0.0,4222.567193210125,-29.44374928011494,12.931197908167277,2932,27,0.0,15,404457658622318,12,32.9,348.7745056152344,0.04839999973773956,0,0.0,0.0,,,,,0,,1,,,178.39062,-98.84375,-8.171875
Raw,946163629,8342609000000,,,-1260194515132776704,0.0,4222.567193210125,-29.44374928011494,12.931197908167277,2932,32,0.0,15,404457668101279,14,30.5,-391.3478088378906,0.03880000114440918,0,0.0,0.0,,,,,0,,1,,,178.39062,-98.84375,-8.171875
Raw,946164617,8343322000000,,,-1260194515131809792,0.0,4170.07552459836,-36.663041883157355,4.787497909353401,2933,10,0.0,15,404458383673155,8,36.1,-334.993408203125,0.06499999761581421,0,0.0,0.0,,,,,0,,1,,,195.6875,-93.046875,0.515625
Raw,946164617,8343322000000,,,-1260194515131809792,0.0,4170.07552459836,-36.663041883157355,4.787497909353401,2933,14,0.0,15,404458372998795,21,26.1,-501.884033203125,0.2687000036239624,0,0.0,0.0,,,,,0,,1,,,195.6875,-93.046875,0.515625
Raw,946164618,8343322000000,,,-1260194515131809792,0.0,4170.07552459836,-36.663041883157355,4.787497909353401,2933,15,0.0,15,404458373933712,8,36.1,574.8099975585938,0.05000000074505806,0,0.0,0.0,,,,,0,,1,,,195.6875,-93.046875,0.515625
Raw,946164619,8343322000000,,,-1260194515131809792,0.0,4170.07552459836,-36.663041883157355,4.787497909353401,2933,20,0.0,15,404458387086148,27,24.2,-0.29495519399642944,0.6620000004768372,0,0.0,0.0,,,,,0,,1,,,195.6875,-93.046875,0.515625
Raw,946164619,8343322000000,,,-1260194515131809792,0.0,4170.07552459836,-36.663041883157355,4.787497909353401,2933,24,0.0,15,404458383923222,14,30.7,231.48606872558594,0.09799999743700027,0,0.0,0.0,,,,,0,,1,,,195.6875,-93.046875,0.515625
Raw,946164620,8343322000000,,,-1260194515131809792,0.0,4170.07552459836,-36.663041883157355,4.787497909353401,2933,27,0.0,15,404458370654621,12,32.8,349.2057800292969,0.06350000202655792,0,0.0,0.0,,,,,0,,1,,,195.6875,-93.046875,0.515625
Raw,946164621,8343322000000,,,-1260194515131809792,0.0,4170.07552459836,-36.663041883157355,4.787497909353401,2933,32,0.0,15,404458380135296,27,24.5,-391.51971435546875,0.6315000057220459,0,0.0,0.0,,,,,0,,1,,,195.6875,-93.046875,0.515625
Raw,946165607,8344611000000,,,-1260194515131030528,0.0,4248.258657753468,-36.98695574757402,14.713374700497823,2934,10,0.0,15,404459671895349,13,31.2,-337.2521057128906,0.040300000458955765,0,0.0,0.0,,,,,0,,1,,,248.1875,-95.203125,-4.25
Raw,946165607,8344611000000,,,-1260194515131030528,0.0,4248.258657753468,-36.98695574757402,14.713374700497823,2934,12,0.0,15,404459658997140,27,24.2,-522.0326538085938,0.6784999966621399,0,0.0,0.0,,,,,0,,1,,,248.1875,-95.203125,-4.25
Raw,946165608,8344611000000,,,-1260194515131030528,0.0,4248.258657753468,-36.98695574757402,14.713374700497823,2934,15,0.0,15,404459662151983,8,36.0,572.6139526367188,0.04700000211596489,0,0.0,0.0,,,,,0,,1,,,248.1875,-95.203125,-4.25
Raw,946165608,8344611000000,,,-1260194515131030528,0.0,4248.258657753468,-36.98695574757402,14.713374700497823,2934,20,0.0,15,404459675306895,24,25.0,-3.103809356689453,0.20190000534057617,0,0.0,0.0,,,,,0,,1,,,248.1875,-95.203125,-4.25
Raw,946165609,8344611000000,,,-1260194515131030528,0.0,4248.258657753468,-36.98695574757402,14.713374700497823,2934,24,0.0,15,404459672142996,14,30.2,229.56590270996094,0.04480000212788582,0,0.0,0.0,,,,,0,,1,,,248.1875,-95.203125,-4.25
Raw,946165609,8344611000000,,,-1260194515131030528,0.0,4248.258657753468,-36.98695574757402,14.713374700497823,2934,27,0.0,15,404459658873721,31,23.5,347.79974365234375,0.6784999966621399,0,0.0,0.0,,,,,0,,1,,,248.1875,-95.203125,-4.25
Raw,946165610,8344611000000,,,-1260194515131030528,0.0,4248.258657753468,-36.98695574757402,14.713374700497823,2934,32,0.0,15,404459668357603,27,24.6,-393.6415100097656,0.6134999990463257,0,0.0,0.0,,,,,0,,1,,,248.1875,-95.203125,-4.25
Raw,946166616,8345404000000,,,-1260194515130139648,0.0,4185.558762401342,-44.64136763686172,11.056186633737505,2935,10,0.0,15,404460464005329,16,29.7,-338.6399841308594,0.0357000008225441,0,0.0,0.0,,,,,0,,1,,,278.78125,-95.5625,-0.578125
Raw,946166618,8345404000000,,,-1260194515130139648,0.0,4185.558762401342,-44.64136763686172,11.056186633737505,2935,12,0.0,15,404460451107663,27,24.4,-522.6796264648438,0.6679999828338623,0,0.0,0.0,,,,,0,,1,,,278.78125,-95.5625,-0.578125
Raw,946166618,8345404000000,,,-1260194515130139648,0.0,4185.558762401342,-44.64136763686172,11.056186633737505,2935,15,0.0,15,404460454259530,12,32.7,571.23388671875,0.04240000247955322,0,0.0,0.0,,,,,0,,1,,,278.78125,-95.5625,-0.578125
Raw,946166619,8345404000000,,,-1260194515130139648,0.0,4185.558762401342,-44.64136763686172,11.056186633737505,2935,20,0.0,15,404460467416011,17,28.8,-4.298935890197754,0.05130000039935112,0,0.0,0.0,,,,,0,,1,,,278.78125,-95.5625,-0.578125
Raw,946166620,8345404000000,,,-1260194515130139648,0.0,4185.558762401342,-44.64136763686172,11.056186633737505,2935,21,0.0,15,404460461363749,35,22.5,405.9249572753906,0.7429999709129333,0,0.0,0.0,,,,,0,,1,,,278.78125,-95.5625,-0.578125
Raw,946166620,8345404000000,,,-1260194515130139648,0.0,4185.558762401342,-44.64136763686172,11.056186633737505,2935,24,0.0,15,404460464251437,8,36.5,228.17584228515625,0.020000001415610313,0,0.0,0.0,,,,,0,,1,,,278.78125,-95.5625,-0.578125
Raw,946166621,8345404000000,,,-1260194515130139648,0.0,4185.558762401342,-44.64136763686172,11.056186633737505,2935,32,0.0,15,404460460467590,19,27.4,-394.9451599121094,0.09360000491142273,0,0.0,0.0,,,,,0,,1,,,278.78125,-95.5625,-0.578125
Raw,946167604,8346419000000,,,-1260194515129692160,0.0,4206.660203635693,-49.186640331849745,7.817922796224661,2936,15,0.0,15,404461468810184,7,37.9,573.5821533203125,0.02460000105202198,0,0.0,0.0,,,,,0,,1,,,304.46875,-98.71875,8.0625
Raw,946167605,8346419000000,,,-1260194515129692160,0.0,4206.660203635693,-49.186640331849745,7.817922796224661,2936,20,0.0,15,404461481968607,19,27.9,-2.339221477508545,0.09510000050067902,0,0.0,0.0,,,,,0,,1,,,304.46875,-98.71875,8.0625
Raw,946167605,8346419000000,,,-1260194515129692160,0.0,4206.660203635693,-49.186640331849745,7.817922796224661,2936,21,0.0,15,404461475914982,16,29.4,406.9841613769531,0.05220000073313713,0,0.0,0.0,,,,,0,,1,,,304.46875,-98.71875,8.0625
Raw,946167606,8346419000000,,,-1260194515129692160,0.0,4206.660203635693,-49.186640331849745,7.817922796224661,2936,24,0.0,15,404461478803247,11,33.1,230.53408813476562,0.04600000008940697,0,0.0,0.0,,,,,0,,1,,,304.46875,-98.71875,8.0625
Raw,946167606,8346419000000,,,-1260194515129692160,0.0,4206.660203635693,-49.186640331849745,7.817922796224661,2936,32,0.0,15,404461475021590,21,26.3,-392.9028015136719,0.12020000070333481,0,0.0,0.0,,,,,0,,1,,,304.46875,-98.71875,8.0625
Raw,946168613,8347410000000,,,-1260194515128742400,0.0,4186.244215816259,-43.61700403755049,8.578377110059614,2937,12,0.0,15,404462455714029,31,23.3,-521.1477661132812,0.7339999675750732,0,0.0,0.0,,,,,0,,1,,,356.53125,-97.59375,1.15625
Raw,946168614,8347410000000,,,-1260194515128742400,0.0,4186.244215816259,-43.61700403755049,8.578377110059614,2937,14,0.0,15,404462457938209,13,31.8,-502.87579345703125,0.049300000071525574,0,0.0,0.0,,,,,0,,1,,,356.53125,-97.59375,1.15625
Raw,946168615,8347410000000,,,-1260194515128742400,0.0,4186.244215816259,-43.61700403755049,8.578377110059614,2937,15,0.0,15,404462458858583,12,32.7,573.92578125,0.04839999973773956,0,0.0,0.0,,,,,0,,1,,,356.53125,-97.59375,1.15625
Raw,946168616,8347410000000,,,-1260194515128742400,0.0,4186.244215816259,-43.61700403755049,8.578377110059614,2937,21,0.0,15,404462465963892,14,30.5,407.9027404785156,0.034299999475479126,0,0.0,0.0,,,,,0,,1,,,356.53125,-97.59375,1.15625
Raw,946168616,8347410000000,,,-1260194515128742400,0.0,4186.244215816259,-43.61700403755049,8.578377110059614,2937,24,0.0,15,404462468852846,13,31.1,231.010986328125,0.03579999879002571,0,0.0,0.0,,,,,0,,1,,,356.53125,-97.59375,1.15625
Raw,946168617,8347410000000,,,-1260194515128742400,0.0,4186.244215816259,-43.61700403755049,8.578377110059614,2937,27,0.0,15,404462455582537,21,26.8,347.89007568359375,0.12020000070333481,0,0.0,0.0,,,,,0,,1,,,356.53125,-97.59375,1.15625
Raw,946168618,8347410000000,,,-1260194515128742400,0.0,4186.244215816259,-43.61700403755049,8.578377110059614,2937,32,0.0,15,404462465073272,24,25.1,-392.2480163574219,0.18690000474452972,0,0.0,0.0,,,,,0,,1,,,356.53125,-97.59375,1.15625
Raw,946169606,8348426000000,,,-1260194515127819776,0.0,4188.53759765625,-40.64241964994761,8.148373852181395,2938,10,0.0,15,404463483688973,31,23.8,-335.78271484375,0.6859999895095825,0,0.0,0.0,,,,,0,,1,,,31.96875,-96.625,0.359375
Raw,946169607,8348426000000,,,-1260194515127819776,0.0,4188.53759765625,-40.64241964994761,8.148373852181395,2938,14,0.0,15,404463473017374,9,35.3,-502.6133728027344,0.03450000286102295,0,0.0,0.0,,,,,0,,1,,,31.96875,-96.625,0.359375
Raw,946169608,8348426000000,,,-1260194515127819776,0.0,4188.53759765625,-40.64241964994761,8.148373852181395,2938,15,0.0,15,404463473933991,19,27.8,573.96142578125,0.08309999853372574,0,0.0,0.0,,,,,0,,1,,,31.96875,-96.625,0.359375
Raw,946169608,8348426000000,,,-1260194515127819776,0.0,4188.53759765625,-40.64241964994761,8.148373852181395,2938,21,0.0,15,404463481039925,24,25.4,408.3875427246094,0.21090000867843628,0,0.0,0.0,,,,,0,,1,,,31.96875,-96.625,0.359375
Raw,946169609,8348426000000,,,-1260194515127819776,0.0,4188.53759765625,-40.64241964994761,8.148373852181395,2938,24,0.0,15,404463483929375,16,29.4,231.11892700195312,0.06419999897480011,0,0.0,0.0,,,,,0,,1,,,31.96875,-96.625,0.359375
Raw,946169610,8348426000000,,,-1260194515127819776,0.0,4188.53759765625,-40.64241964994761,8.148373852181395,2938,27,0.0,15,404463470658702,16,29.9,348.3474426269531,0.04470000043511391,0,0.0,0.0,,,,,0,,1,,,31.96875,-96.625,0.359375
Raw,946169610,8348426000000,,,-1260194515127819776,0.0,4188.53759765625,-40.64241964994761,8.148373852181395,2938,32,0.0,15,404463480151977,10,34.1,-391.8675231933594,0.0471000000834465,0,0.0,0.0,,,,,0,,1,,,31.96875,-96.625,0.359375
Raw,946170596,8349416000000,,,-1260194515127413504,0.0,4191.381391137838,-40.29510868393619,8.238659465803012,2939,8,0.0,15,404464458703520,40,21.7,88.72442626953125,0.7985000014305115,0,0.0,0.0,,,,,0,,1,,,53.796875,-99.1875,6.640625
Raw,946170597,8349416000000,,,-1260194515127413504,0.0,4191.381391137838,-40.29510868393619,8.238659465803012,2939,10,0.0,15,404464473283544,19,27.4,-336.5731506347656,0.08309999853372574,0,0.0,0.0,,,,,0,,1,,,53.796875,-99.1875,6.640625
Raw,946170597,8349416000000,,,-1260194515127413504,0.0,4191.381391137838,-40.29510868393619,8.238659465803012,2939,14,0.0,15,404464462612459,11,33.9,-503.4854431152344,0.052000001072883606,0,0.0,0.0,,,,,0,,1,,,53.796875,-99.1875,6.640625
Raw,946170598,8349416000000,,,-1260194515127413504,0.0,4191.381391137838,-40.29510868393619,8.238659465803012,2939,21,0.0,15,404464470632094,21,26.0,407.3477478027344,0.11270000040531158,0,0.0,0.0,,,,,0,,1,,,53.796875,-99.1875,6.640625
Raw,946170598,8349416000000,,,-1260194515127413504,0.0,4191.381391137838,-40.29510868393619,8.238659465803012,2939,24,0.0,15,404464473522091,21,26.3,231.06785583496094,0.11719999462366104,0,0.0,0.0,,,,,0,,1,,,53.796875,-99.1875,6.640625
Raw,946170599,8349416000000,,,-1260194515127413504,0.0,4191.381391137838,-40.29510868393619,8.238659465803012,2939,27,0.0,15,404464460251055,14,30.4,347.44158935546875,0.0568000003695488,0,0.0,0.0,,,,,0,,1,,,53.796875,-99.1875,6.640625
Raw,946170599,8349416000000,,,-1260194515127413504,0.0,4191.381391137838,-40.29510868393619,8.238659465803012,2939,32,0.0,15,404464469746740,17,28.9,-392.6950988769531,0.05429999902844429,0,0.0,0.0,,,,,0,,1,,,53.796875,-99.1875,6.640625
Raw,946171610,8350331000000,,,-1260194515126418944,0.0,4194.176290184259,-42.09795795277436,6.425088248504599,2940,8,0.0,15,404465372708818,24,25.5,89.49119567871094,1.1785000562667847,0,0.0,0.0,,,,,0,,1,,,97.09375,-92.8125,0.3125
Raw,946171612,8350331000000,,,-1260194515126418944,0.0,4194.176290184259,-42.09795795277436,6.425088248504599,2940,10,0.0,15,404465387290191,13,31.8,-336.53302001953125,0.06560000032186508,0,0.0,0.0,,,,,0,,1,,,97.09375,-92.8125,0.3125
Raw,946171612,8350331000000,,,-1260194515126418944,0.0,4194.176290184259,-42.09795795277436,6.425088248504599,2940,14,0.0,15,404465376619595,11,33.0,-503.3484191894531,0.06720000505447388,0,0.0,0.0,,,,,0,,1,,,97.09375,-92.8125,0.3125
Raw,946171613,8350331000000,,,-1260194515126418944,0.0,4194.176290184259,-42.09795795277436,6.425088248504599,2940,21,0.0,15,404465384636397,14,30.9,407.582275390625,0.06949999928474426,0,0.0,0.0,,,,,0,,1,,,97.09375,-92.8125,0.3125
Raw,946171614,8350331000000,,,-1260194515126418944,0.0,4194.176290184259,-42.09795795277436,6.425088248504599,2940,24,0.0,15,404465387527118,31,23.8,229.9604034423828,0.6620000004768372,0,0.0,0.0,,,,,0,,1,,,97.09375,-92.8125,0.3125
Raw,946171615,8350331000000,,,-1260194515126418944,0.0,4194.176290184259,-42.09795795277436,6.425088248504599,2940,27,0.0,15,404465374255602,14,30.5,347.5730285644531,0.08449999988079071,0,0.0,0.0,,,,,0,,1,,,97.09375,-92.8125,0.3125
Raw,946171615,8350331000000,,,-1260194515126418944,0.0,4194.176290184259,-42.09795795277436,6.425088248504599,2940,32,0.0,15,404465383753562,11,33.9,-392.595458984375,0.047700002789497375,0,0.0,0.0,,,,,0,,1,,,97.09375,-92.8125,0.3125
Raw,946172610,8351524000000,,,-1260194515125740032,0.0,4236.398264765739,-43.27822164113466,11.683922439569812,2941,8,0.0,15,404466565029429,31,23.2,94.43323516845703,0.718999981880188,0,0.0,0.0,,,,,0,,1,,,121.796875,-95.203125,-0.15625
Raw,946172611,8351524000000,,,-1260194515125740032,0.0,4236.398264765739,-43.27822164113466,11.683922439569812,2941,10,0.0,15,404466579612467,11,33.2,-331.2179260253906,0.07170000672340393,0,0.0,0.0,,,,,0,,1,,,121.796875,-95.203125,-0.15625
Raw,946172611,8351524000000,,,-1260194515125740032,0.0,4236.398264765739,-43.27822164113466,11.683922439569812,2941,14,0.0,15,404466568942625,9,35.2,-498.4891662597656,0.04650000110268593,0,0.0,0.0,,,,,0,,1,,,121.796875,-95.203125,-0.15625
Raw,946172612,8351524000000,,,-1260194515125740032,0.0,4236.398264765739,-43.27822164113466,11.683922439569812,2941,20,0.0,15,404466583016230,21,26.5,3.575065851211548,0.28519999980926514,0,0.0,0.0,,,,,0,,1,,,121.796875,-95.203125,-0.15625
Raw,946172612,8351524000000,,,-1260194515125740032,0.0,4236.398264765739,-43.27822164113466,11.683922439569812,2941,21,0.0,15,404466576955755,16,29.1,412.68048095703125,0.09839999675750732,0,0.0,0.0,,,,,0,,1,,,121.796875,-95.203125,-0.15625
Raw,946172616,8351524000000,,,-1260194515125740032,0.0,4236.398264765739,-43.27822164113466,11.683922439569812,2941,24,0.0,15,404466579847017,13,31.9,236.09083557128906,0.0835999995470047,0,0.0,0.0,,,,,0,,1,,,121.796875,-95.203125,-0.15625
Raw,946172617,8351524000000,,,-1260194515125740032,0.0,4236.398264765739,-43.27822164113466,11.683922439569812,2941,27,0.0,15,404466566575177,19,27.1,352.678466796875,0.17270000278949738,0,0.0,0.0,,,,,0,,1,,,121.796875,-95.203125,-0.15625
Raw,946172617,8351524000000,,,-1260194515125740032,0.0,4236.398264765739,-43.27822164113466,11.683922439569812,2941,32,0.0,15,404466576076090,8,36.3,-387.6025085449219,0.054499998688697815,0,0.0,0.0,,,,,0,,1,,,121.796875,-95.203125,-0.15625
Raw,946173617,8352512000000,,,-1260194515125712128,0.0,4209.7726836800575,-26.338607156944256,11.00495159386189,2942,10,0.0,15,404467567585336,8,36.5,-338.1214294433594,0.04100000113248825,0,0.0,0.0,,,,,0,,1,,,149.40625,-98.265625,8.0625
Raw,946173620,8352512000000,,,-1260194515125712128,0.0,4209.7726836800575,-26.338607156944256,11.00495159386189,2942,14,0.0,15,404467556915985,10,34.4,-504.7549743652344,0.06260000169277191,0,0.0,0.0,,,,,0,,1,,,149.40625,-98.265625,8.0625
Raw,946173620,8352512000000,,,-1260194515125712128,0.0,4209.7726836800575,-26.338607156944256,11.00495159386189,2942,15,0.0,15,404467557817983,17,28.5,571.1372680664062,0.12290000170469284,0,0.0,0.0,,,,,0,,1,,,149.40625,-98.265625,8.0625
Raw,946173621,8352512000000,,,-1260194515125712128,0.0,4209.7726836800575,-26.338607156944256,11.00495159386189,2942,20,0.0,15,404467570988140,19,27.0,-3.716146945953369,0.17870000004768372,0,0.0,0.0,,,,,0,,1,,,149.40625,-98.265625,8.0625
Raw,946173622,8352512000000,,,-1260194515125712128,0.0,4209.7726836800575,-26.338607156944256,11.00495159386189,2942,21,0.0,15,404467564926198,27,24.4,406.4197082519531,0.6574999690055847,0,0.0,0.0,,,,,0,,1,,,149.40625,-98.265625,8.0625
Raw,946173622,8352512000000,,,-1260194515125712128,0.0,4209.7726836800575,-26.338607156944256,11.00495159386189,2942,24,0.0,15,404467567818027,11,33.1,228.96136474609375,0.053700003772974014,0,0.0,0.0,,,,,0,,1,,,149.40625,-98.265625,8.0625
Raw,946173623,8352512000000,,,-1260194515125712128,0.0,4209.7726836800575,-26.338607156944256,11.00495159386189,2942,27,0.0,15,404467554545787,16,29.2,346.2796630859375,0.09539999812841415,0,0.0,0.0,,,,,0,,1,,,149.40625,-98.265625,8.0625
Raw,946173624,8352512000000,,,-1260194515125712128,0.0,4209.7726836800575,-26.338607156944256,11.00495159386189,2942,32,0.0,15,404467564049125,10,34.1,-394.0949401855469,0.044599998742341995,0,0.0,0.0,,,,,0,,1,,,149.40625,-98.265625,8.0625
Raw,946174626,8353531000000,,,-1260194515125581056,0.0,4226.39399766922,-48.902706722068416,10.261726994712538,2943,10,0.0,15,404468586455699,6,38.9,-334.6983947753906,0.06390000134706497,0,0.0,0.0,,,,,0,,1,,,196.95312,-94.5625,-0.515625
Raw,946174627,8353531000000,,,-1260194515125581056,0.0,4226.39399766922,-48.902706722068416,10.261726994712538,2943,14,0.0,15,404468575786939,17,28.7,-501.603759765625,0.11990000307559967,0,0.0,0.0,,,,,0,,1,,,196.95312,-94.5625,-0.515625
Raw,946174627,8353531000000,,,-1260194515125581056,0.0,4226.39399766922,-48.902706722068416,10.261726994712538,2943,15,0.0,15,404468576685272,7,37.1,574.874755859375,0.051500000059604645,0,0.0,0.0,,,,,0,,1,,,196.95312,-94.5625,-0.515625
Raw,946174628,8353531000000,,,-1260194515125581056,0.0,4226.39399766922,-48.902706722068416,10.261726994712538,2943,21,0.0,15,404468583794002,27,24.7,409.28363037109375,0.6360000371932983,0,0.0,0.0,,,,,0,,1,,,196.95312,-94.5625,-0.515625
Raw,946174628,8353531000000,,,-1260194515125581056,0.0,4226.39399766922,-48.902706722068416,10.261726994712538,2943,24,0.0,15,404468586686486,7,37.1,232.83734130859375,0.0364999994635582,0,0.0,0.0,,,,,0,,1,,,196.95312,-94.5625,-0.515625
Raw,946174629,8353531000000,,,-1260194515125581056,0.0,4226.39399766922,-48.902706722068416,10.261726994712538,2943,27,0.0,15,404468573413837,14,30.4,349.5118408203125,0.08299999684095383,0,0.0,0.0,,,,,0,,1,,,196.95312,-94.5625,-0.515625
Raw,946174629,8353531000000,,,-1260194515125581056,0.0,4226.39399766922,-48.902706722068416,10.261726994712538,2943,32,0.0,15,404468582919750,21,26.6,-391.04327392578125,0.28369998931884766,0,0.0,0.0,,,,,0,,1,,,196.95312,-94.5625,-0.515625
Raw,946175613,8354620000000,,,-1260194515124786688,0.0,4217.979032546282,-37.193658244844464,13.236254917522306,2944,10,0.0,15,404469674662508,8,36.3,-331.6697998046875,0.03500000014901161,0,0.0,0.0,,,,,0,,1,,,228.26562,-97.96875,7.34375
Raw,946175613,8354620000000,,,-1260194515124786688,0.0,4217.979032546282,-37.193658244844464,13.236254917522306,2944,14,0.0,15,404469663994237,21,26.0,-498.67010498046875,0.1021999940276146,0,0.0,0.0,,,,,0,,1,,,228.26562,-97.96875,7.34375
Raw,946175614,8354620000000,,,-1260194515124786688,0.0,4217.979032546282,-37.193658244844464,13.236254917522306,2944,15,0.0,15,404469664888799,6,39.3,578.0588989257812,0.016300000250339508,0,0.0,0.0,,,,,0,,1,,,228.26562,-97.96875,7.34375
Raw,946175615,8354620000000,,,-1260194515124786688,0.0,4217.979032546282,-37.193658244844464,13.236254917522306,2944,21,0.0,15,404469671997955,31,23.4,412.84210205078125,0.7279999852180481,0,0.0,0.0,,,,,0,,1,,,228.26562,-97.96875,7.34375
Raw,946175615,8354620000000,,,-1260194515124786688,0.0,4217.979032546282,-37.193658244844464,13.236254917522306,2944,24,0.0,15,404469674891234,7,37.4,236.02545166015625,0.03360000252723694,0,0.0,0.0,,,,,0,,1,,,228.26562,-97.96875,7.34375
Raw,946175616,8354620000000,,,-1260194515124786688,0.0,4217.979032546282,-37.193658244844464,13.236254917522306,2944,32,0.0,15,404469671126633,24,25.7,-387.6092529296875,0.19590000808238983,0,0.0,0.0,,,,,0,,1,,,228.26562,-97.96875,7.34375
Raw,946176615,8355413000000,,,-1260194515123853568,0.0,4169.195424765348,-27.02300339446317,10.87518834179147,2945,10,0.0,15,404470466730039,11,33.4,-338.36151123046875,0.02800000086426735,0,0.0,0.0,,,,,0,,1,,,251.14062,-101.21875,11.03125
Raw,946176615,8355413000000,,,-1260194515123853568,0.0,4169.195424765348,-27.02300339446317,10.87518834179147,2945,15,0.0,15,404470456953927,7,37.0,571.1321411132812,0.03660000115633011,0,0.0,0.0,,,,,0,,1,,,251.14062,-101.21875,11.03125
Raw,946176616,8355413000000,,,-1260194515123853568,0.0,4169.195424765348,-27.02300339446317,10.87518834179147,2945,20,0.0,15,404470470129651,31,23.3,-3.862961769104004,0.7264999747276306,0,0.0,0.0,,,,,0,,1,,,251.14062,-101.21875,11.03125
Raw,946176617,8355413000000,,,-1260194515123853568,0.0,4169.195424765348,-27.02300339446317,10.87518834179147,2945,21,0.0,15,404470464063726,31,23.9,405.4777526855469,0.6875,0,0.0,0.0,,,,,0,,1,,,251.14062,-101.21875,11.03125
Raw,946176617,8355413000000,,,-1260194515123853568,0.0,4169.195424765348,-27.02300339446317,10.87518834179147,2945,24,0.0,15,404470466957250,11,33.7,229.2209930419922,0.02800000086426735,0,0.0,0.0,,,,,0,,1,,,251.14062,-101.21875,11.03125
Raw,946176618,8355413000000,,,-1260194515123853568,0.0,4169.195424765348,-27.02300339446317,10.87518834179147,2945,32,0.0,15,404470463194136,27,24.8,-393.8793640136719,0.6360000371932983,0,0.0,0.0,,,,,0,,1,,,251.14062,-101.21875,11.03125
Raw,946177619,8356326000000,,,-1260194515123366912,0.0,4190.915264189243,-49.92623686922223,11.487407463422032,2946,10,0.0,15,404471379244227,16,29.8,-334.0983581542969,0.10289999842643738,0,0.0,0.0,,,,,0,,1,,,290.42188,-94.46875,-0.296875
Raw,946177620,8356326000000,,,-1260194515123366912,0.0,4190.915264189243,-49.92623686922223,11.487407463422032,2946,12,0.0,15,404471366353337,35,22.5,-518.3980102539062,0.7204999923706055,0,0.0,0.0,,,,,0,,1,,,290.42188,-94.46875,-0.296875
Raw,946177620,8356326000000,,,-1260194515123366912,0.0,4190.915264189243,-49.92623686922223,11.487407463422032,2946,15,0.0,15,404471369465433,7,37.1,575.808349609375,0.04100000113248825,0,0.0,0.0,,,,,0,,1,,,290.42188,-94.46875,-0.296875
Raw,946177621,8356326000000,,,-1260194515123366912,0.0,4190.915264189243,-49.92623686922223,11.487407463422032,2946,20,0.0,15,404471382642921,17,28.0,1.7117748260498047,0.13040000200271606,0,0.0,0.0,,,,,0,,1,,,290.42188,-94.46875,-0.296875
Raw,946177622,8356326000000,,,-1260194515123366912,0.0,4190.915264189243,-49.92623686922223,11.487407463422032,2946,21,0.0,15,404471376575715,16,29.2,410.9609375,0.09839999675750732,0,0.0,0.0,,,,,0,,1,,,290.42188,-94.46875,-0.296875
Raw,946177622,8356326000000,,,-1260194515123366912,0.0,4190.915264189243,-49.92623686922223,11.487407463422032,2946,24,0.0,15,404471379469837,8,36.7,234.12095642089844,0.05900000035762787,0,0.0,0.0,,,,,0,,1,,,290.42188,-94.46875,-0.296875
Raw,946177623,8356326000000,,,-1260194515123366912,0.0,4190.915264189243,-49.92623686922223,11.487407463422032,2946,32,0.0,15,404471375708721,16,29.1,-389.4173889160156,0.09690000116825104,0,0.0,0.0,,,,,0,,1,,,290.42188,-94.46875,-0.296875
Raw,946178615,8357619000000,,,-1260194515122787072,0.0,4271.283745765686,-34.320166514152504,17.21615995414116,2947,10,0.0,15,404472671665693,16,29.3,-332.7306823730469,0.04619999974966049,0,0.0,0.0,,,,,0,,1,,,316.32812,-96.25,5.21875
Raw,946178616,8357619000000,,,-1260194515122787072,0.0,4271.283745765686,-34.320166514152504,17.21615995414116,2947,12,0.0,15,404472658775626,40,21.9,-517.484619140625,0.7985000014305115,0,0.0,0.0,,,,,0,,1,,,316.32812,-96.25,5.21875
Raw,946178616,8357619000000,,,-1260194515122787072,0.0,4271.283745765686,-34.320166514152504,17.21615995414116,2947,14,0.0,15,404472660999215,35,22.1,-499.6540832519531,0.8014999628067017,0,0.0,0.0,,,,,0,,1,,,316.32812,-96.25,5.21875
Raw,946178616,8357619000000,,,-1260194515122787072,0.0,4271.283745765686,-34.320166514152504,17.21615995414116,2947,15,0.0,15,404472661883089,8,36.7,576.6857299804688,0.045500002801418304,0,0.0,0.0,,,,,0,,1,,,316.32812,-96.25,5.21875
Raw,946178617,8357619000000,,,-1260194515122787072,0.0,4271.283745765686,-34.320166514152504,17.21615995414116,2947,20,0.0,15,404472675063009,21,26.6,2.1313443183898926,0.12020000070333481,0,0.0,0.0,,,,,0,,1,,,316.32812,-96.25,5.21875
Raw,946178617,8357619000000,,,-1260194515122787072,0.0,4271.283745765686,-34.320166514152504,17.21615995414116,2947,21,0.0,15,404472668994031,11,33.3,411.53692626953125,0.03100000135600567,0,0.0,0.0,,,,,0,,1,,,316.32812,-96.25,5.21875
Raw,946178618,8357619000000,,,-1260194515122787072,0.0,4271.283745765686,-34.320166514152504,17.21615995414116,2947,24,0.0,15,404472671888920,11,33.3,235.0353240966797,0.03550000116229057,0,0.0,0.0,,,,,0,,1,,,316.32812,-96.25,5.21875
Raw,946178618,8357619000000,,,-1260194515122787072,0.0,4271.283745765686,-34.320166514152504,17.21615995414116,2947,32,0.0,15,404472668130527,17,28.0,-388.85247802734375,0.052799999713897705,0,0.0,0.0,,,,,0,,1,,,316.32812,-96.25,5.21875
Raw,946179620,8358334000000,,,-1260194515122205184,0.0,4193.929024040699,-31.414319661731074,7.801112193454097,2948,14,0.0,15,404473375418678,13,31.8,-500.60400390625,0.07760000228881836,0,0.0,0.0,,,,,0,,1,,,2.390625,-93.25,1.734375
Raw,946179621,8358334000000,,,-1260194515122205184,0.0,4193.929024040699,-31.414319661731074,7.801112193454097,2948,15,0.0,15,404473376299721,13,31.2,575.8219604492188,0.07909999787807465,0,0.0,0.0,,,,,0,,1,,,2.390625,-93.25,1.734375
Raw,946179622,8358334000000,,,-1260194515122205184,0.0,4193.929024040699,-31.414319661731074,7.801112193454097,2948,20,0.0,15,404473389480878,16,29.0,1.3488366603851318,0.08789999783039093,0,0.0,0.0,,,,,0,,1,,,2.390625,-93.25,1.734375
Raw,946179622,8358334000000,,,-1260194515122205184,0.0,4193.929024040699,-31.414319661731074,7.801112193454097,2948,21,0.0,15,404473383411125,10,34.1,410.6310119628906,0.0731000006198883,0,0.0,0.0,,,,,0,,1,,,2.390625,-93.25,1.734375
Raw,946179623,8358334000000,,,-1260194515122205184,0.0,4193.929024040699,-31.414319661731074,7.801112193454097,2948,24,0.0,15,404473386306442,12,32.8,234.2165985107422,0.08749999850988388,0,0.0,0.0,,,,,0,,1,,,2.390625,-93.25,1.734375
Raw,946179624,8358334000000,,,-1260194515122205184,0.0,4193.929024040699,-31.414319661731074,7.801112193454097,2948,27,0.0,15,404473373031860,21,26.2,350.4610900878906,0.2702000141143799,0,0.0,0.0,,,,,0,,1,,,2.390625,-93.25,1.734375
Raw,946179625,8358334000000,,,-1260194515122205184,0.0,4193.929024040699,-31.414319661731074,7.801112193454097,2948,32,0.0,15,404473382549553,13,31.2,-389.82720947265625,0.08810000121593475,0,0.0,0.0,,,,,0,,1,,,2.390625,-93.25,1.734375
Raw,946180608,8359622000000,,,-1260194515122109440,0.0,4279.776941984892,-34.506853435184446,13.143429978768394,2949,10,0.0,15,404474673990301,40,21.4,-333.365966796875,0.8510000109672546,0,0.0,0.0,,,,,0,,1,,,32.640625,-94.265625,-1.4375
Raw,946180609,8359622000000,,,-1260194515122109440,0.0,4279.776941984892,-34.506853435184446,13.143429978768394,2949,14,0.0,15,404474663324962,8,36.7,-500.6415100097656,0.01850000023841858,0,0.0,0.0,,,,,0,,1,,,32.640625,-94.265625,-1.4375
Raw,946180609,8359622000000,,,-1260194515122109440,0.0,4279.776941984892,-34.506853435184446,13.143429978768394,2949,15,0.0,15,404474664201215,24,25.0,575.210205078125,0.6075000166893005,0,0.0,0.0,,,,,0,,1,,,32.640625,-94.265625,-1.4375
Raw,946180610,8359622000000,,,-1260194515122109440,0.0,4279.776941984892,-34.506853435184446,13.143429978768394,2949,20,0.0,15,404474677384928,21,26.1,1.7487157583236694,0.12319999933242798,0,0.0,0.0,,,,,0,,1,,,32.640625,-94.265625,-1.4375
Raw,946180610,8359622000000,,,-1260194515122109440,0.0,4279.776941984892,-34.506853435184446,13.143429978768394,2949,21,0.0,15,404474671313494,11,33.0,410.5240783691406,0.03550000116229057,0,0.0,0.0,,,,,0,,1,,,32.640625,-94.265625,-1.4375
Raw,946180611,8359622000000,,,-1260194515122109440,0.0,4279.776941984892,-34.506853435184446,13.143429978768394,2949,24,0.0,15,404474674209348,35,22.8,233.67112731933594,0.7324999570846558,0,0.0,0.0,,,,,0,,1,,,32.640625,-94.265625,-1.4375
Raw,946180611,8359622000000,,,-1260194515122109440,0.0,4279.776941984892,-34.506853435184446,13.143429978768394,2949,27,0.0,15,404474660934570,11,33.2,350.87542724609375,0.049000002443790436,0,0.0,0.0,,,,,0,,1,,,32.640625,-94.265625,-1.4375
Raw,946180612,8359622000000,,,-1260194515122109440,0.0,4279.776941984892,-34.506853435184446,13.143429978768394,2949,32,0.0,15,404474670455457,8,36.0,-389.6202392578125,0.029000001028180122,0,0.0,0.0,,,,,0,,1,,,32.640625,-94.265625,-1.4375
Raw,946181622,8360412000000,,,-1260194515122045440,0.0,4202.5926522910595,-34.432380349469305,10.669326454187429,2950,10,0.0,15,404475463927329,24,25.1,-338.5359802246094,0.18389999866485596,0,0.0,0.0,,,,,0,,1,,,57.078125,-100.609375,9.71875
Raw,946181623,8360412000000,,,-1260194515122045440,0.0,4202.5926522910595,-34.432380349469305,10.669326454187429,2950,14,0.0,15,404475453262388,8,36.3,-505.5590515136719,0.03350000083446503,0,0.0,0.0,,,,,0,,1,,,57.078125,-100.609375,9.71875
Raw,946181623,8360412000000,,,-1260194515122045440,0.0,4202.5926522910595,-34.432380349469305,10.669326454187429,2950,20,0.0,15,404475467321167,21,26.9,-3.473194122314453,0.10819999873638153,0,0.0,0.0,,,,,0,,1,,,57.078125,-100.609375,9.71875
Raw,946181624,8360412000000,,,-1260194515122045440,0.0,4202.5926522910595,-34.432380349469305,10.669326454187429,2950,21,0.0,15,404475461248513,14,30.4,406.1900939941406,0.05829999968409538,0,0.0,0.0,,,,,0,,1,,,57.078125,-100.609375,9.71875
Raw,946181625,8360412000000,,,-1260194515122045440,0.0,4202.5926522910595,-34.432380349469305,10.669326454187429,2950,27,0.0,15,404475450869743,10,34.5,345.6028137207031,0.032099999487400055,0,0.0,0.0,,,,,0,,1,,,57.078125,-100.609375,9.71875
Raw,946181625,8360412000000,,,-1260194515122045440,0.0,4202.5926522910595,-34.432380349469305,10.669326454187429,2950,32,0.0,15,404475460392588,9,35.2,-394.5867614746094,0.04500000178813934,0,0.0,0.0,,,,,0,,1,,,57.078125,-100.609375,9.71875
Raw,946182617,8361329000000,,,-1260194515121251072,0.0,4210.543818771839,-50.56384367522429,10.976104446814077,2951,8,0.0,15,404476365536943,21,26.5,92.95316314697266,0.2581999897956848,0,0.0,0.0,,,,,0,,1,,,95.890625,-94.03125,-0.34375
Raw,946182618,8361329000000,,,-1260194515121251072,0.0,4210.543818771839,-50.56384367522429,10.976104446814077,2951,10,0.0,15,404476380133934,11,33.5,-333.46307373046875,0.07320000231266022,0,0.0,0.0,,,,,0,,1,,,95.890625,-94.03125,-0.34375
Raw,946182619,8361329000000,,,-1260194515121251072,0.0,4210.543818771839,-50.56384367522429,10.976104446814077,2951,14,0.0,15,404476369469511,10,34.0,-500.578369140625,0.05209999904036522,0,0.0,0.0,,,,,0,,1,,,95.890625,-94.03125,-0.34375
Raw,946182619,8361329000000,,,-1260194515121251072,0.0,4210.543818771839,-50.56384367522429,10.976104446814077,2951,21,0.0,15,404476377452822,16,29.9,410.6746520996094,0.09989999979734421,0,0.0,0.0,,,,,0,,1,,,95.890625,-94.03125,-0.34375
Raw,946182620,8361329000000,,,-1260194515121251072,0.0,4210.543818771839,-50.56384367522429,10.976104446814077,2951,27,0.0,15,404476367074267,11,33.5,350.76654052734375,0.053700003772974014,0,0.0,0.0,,,,,0,,1,,,95.890625,-94.03125,-0.34375
Raw,946182621,8361329000000,,,-1260194515121251072,0.0,4210.543818771839,-50.56384367522429,10.976104446814077,2951,32,0.0,15,404476376599357,11,33.6,-389.67755126953125,0.06720000505447388,0,0.0,0.0,,,,,0,,1,,,95.890625,-94.03125,-0.34375
Raw,946183604,8362620000000,,,-1260194515120968704,0.0,4249.0605264902115,-34.61746080737339,12.4704038419123,2952,10,0.0,15,404477670852988,10,34.2,-335.3307800292969,0.032099999487400055,0,0.0,0.0,,,,,0,,1,,,126.390625,-97.984375,7.015625
Raw,946183605,8362620000000,,,-1260194515120968704,0.0,4249.0605264902115,-34.61746080737339,12.4704038419123,2952,14,0.0,15,404477660189275,11,33.7,-502.5626220703125,0.049000002443790436,0,0.0,0.0,,,,,0,,1,,,126.390625,-97.984375,7.015625
Raw,946183605,8362620000000,,,-1260194515120968704,0.0,4249.0605264902115,-34.61746080737339,12.4704038419123,2952,15,0.0,15,404477661054931,19,27.2,573.8670654296875,0.09510000050067902,0,0.0,0.0,,,,,0,,1,,,126.390625,-97.984375,7.015625
Raw,946183606,8362620000000,,,-1260194515120968704,0.0,4249.0605264902115,-34.61746080737339,12.4704038419123,2952,20,0.0,15,404477674244433,24,25.4,0.017123475670814514,0.20040000975131989,0,0.0,0.0,,,,,0,,1,,,126.390625,-97.984375,7.015625
Raw,946183606,8362620000000,,,-1260194515120968704,0.0,4249.0605264902115,-34.61746080737339,12.4704038419123,2952,21,0.0,15,404477668168727,31,23.4,409.4454040527344,0.7234999537467957,0,0.0,0.0,,,,,0,,1,,,126.390625,-97.984375,7.015625
Raw,946183607,8362620000000,,,-1260194515120968704,0.0,4249.0605264902115,-34.61746080737339,12.4704038419123,2952,24,0.0,15,404477671066447,17,28.9,233.15097045898438,0.05729999765753746,0,0.0,0.0,,,,,0,,1,,,126.390625,-97.984375,7.015625
Raw,946183607,8362620000000,,,-1260194515120968704,0.0,4249.0605264902115,-34.61746080737339,12.4704038419123,2952,27,0.0,15,404477657790315,21,26.0,348.79449462890625,0.12319999933242798,0,0.0,0.0,,,,,0,,1,,,126.390625,-97.984375,7.015625
Raw,946183608,8362620000000,,,-1260194515120968704,0.0,4249.0605264902115,-34.61746080737339,12.4704038419123,2952,32,0.0,15,404477667318695,14,30.7,-391.9493408203125,0.037300001829862595,0,0.0,0.0,,,,,0,,1,,,126.390625,-97.984375,7.015625
Raw,946184606,8363332000000,,,-1260194515120676864,0.0,4180.985502898693,-41.01069734561383,6.854090250403628,2953,10,0.0,15,404478382562003,10,34.7,-338.4734802246094,0.07159999758005142,0,0.0,0.0,,,,,0,,1,,,160.32812,-93.84375,3.15625
Raw,946184607,8363332000000,,,-1260194515120676864,0.0,4180.985502898693,-41.01069734561383,6.854090250403628,2953,14,0.0,15,404478371898715,9,35.0,-505.5906677246094,0.050999999046325684,0,0.0,0.0,,,,,0,,1,,,160.32812,-93.84375,3.15625
Raw,946184607,8363332000000,,,-1260194515120676864,0.0,4180.985502898693,-41.01069734561383,6.854090250403628,2953,15,0.0,15,404478372761876,12,32.0,570.60009765625,0.06650000065565109,0,0.0,0.0,,,,,0,,1,,,160.32812,-93.84375,3.15625
Raw,946184607,8363332000000,,,-1260194515120676864,0.0,4180.985502898693,-41.01069734561383,6.854090250403628,2953,21,0.0,15,404478379875963,17,28.4,406.0432434082031,0.125900000333786,0,0.0,0.0,,,,,0,,1,,,160.32812,-93.84375,3.15625
Raw,946184607,8363332000000,,,-1260194515120676864,0.0,4180.985502898693,-41.01069734561383,6.854090250403628,2953,24,0.0,15,404478382774186,10,34.6,229.7200164794922,0.07159999758005142,0,0.0,0.0,,,,,0,,1,,,160.32812,-93.84375,3.15625
Raw,946184608,8363332000000,,,-1260194515120676864,0.0,4180.985502898693,-41.01069734561383,6.854090250403628,2953,27,0.0,15,404478369497863,16,29.7,345.88983154296875,0.08789999783039093,0,0.0,0.0,,,,,0,,1,,,160.32812,-93.84375,3.15625
Raw,946184608,8363332000000,,,-1260194515120676864,0.0,4180.985502898693,-41.01069734561383,6.854090250403628,2953,32,0.0,15,404478379027855,11,33.7,-394.5622253417969,0.07170000672340393,0,0.0,0.0,,,,,0,,1,,,160.32812,-93.84375,3.15625
Raw,946185613,8364524000000,,,-1260194515120387840,0.0,4244.254436343908,-51.675271213834904,9.7451950201513,2954,10,0.0,15,404479574274194,9,35.5,-336.23187255859375,0.05550000071525574,0,0.0,0.0,,,,,0,,1,,,209.875,-95.65625,0.875
Raw,946185614,8364524000000,,,-1260194515120387840,0.0,4244.254436343908,-51.675271213834904,9.7451950201513,2954,14,0.0,15,404479563611499,17,28.4,-503.32623291015625,0.10189999639987946,0,0.0,0.0,,,,,0,,1,,,209.875,-95.65625,0.875
Raw,946185614,8364524000000,,,-1260194515120387840,0.0,4244.254436343908,-51.675271213834904,9.7451950201513,2954,15,0.0,15,404479564470429,6,38.6,573.1302490234375,0.030899999663233757,0,0.0,0.0,,,,,0,,1,,,209.875,-95.65625,0.875
Raw,946185615,8364524000000,,,-1260194515120387840,0.0,4244.254436343908,-51.675271213834904,9.7451950201513,2954,20,0.0,15,404479577663572,19,27.1,-1.0414488315582275,0.1891999989748001,0,0.0,0.0,,,,,0,,1,,,209.875,-95.65625,0.875
Raw,946185616,8364524000000,,,-1260194515120387840,0.0,4244.254436343908,-51.675271213834904,9.7451950201513,2954,24,0.0,15,404479574484111,9,35.3,232.23468017578125,0.05550000071525574,0,0.0,0.0,,,,,0,,1,,,209.875,-95.65625,0.875
Raw,946185616,8364524000000,,,-1260194515120387840,0.0,4244.254436343908,-51.675271213834904,9.7451950201513,2954,27,0.0,15,404479561207232,16,29.9,347.764404296875,0.10589999705553055,0,0.0,0.0,,,,,0,,1,,,209.875,-95.65625,0.875
Raw,946185617,8364524000000,,,-1260194515120387840,0.0,4244.254436343908,-51.675271213834904,9.7451950201513,2954,32,0.0,15,404479570740315,24,25.1,-392.87432861328125,1.1755000352859497,0,0.0,0.0,,,,,0,,1,,,209.875,-95.65625,0.875
Raw,946186603,8365616000000,,,-1260194515119565312,0.0,4213.704261928797,-44.21966629412788,12.505053342911006,2955,10,0.0,15,404480665452793,9,35.0,-334.5779724121094,0.02250000089406967,0,0.0,0.0,,,,,0,,1,,,231.82812,-101.078125,10.8125
Raw,946186604,8365616000000,,,-1260194515119565312,0.0,4213.704261928797,-44.21966629412788,12.505053342911006,2955,15,0.0,15,404480655645774,8,36.5,574.2828979492188,0.0364999994635582,0,0.0,0.0,,,,,0,,1,,,231.82812,-101.078125,10.8125
