# 
# Header Description:
# 
# Version: v2.0.0.1 Platform: 8.0.0 Manufacturer: Xiaomi Model: MIX 2
# 
# Raw,ElapsedRealtimeMillis,TimeNanos,LeapSecond,TimeUncertaintyNanos,FullBiasNanos,BiasNanos,BiasUncertaintyNanos,DriftNanosPerSecond,DriftUncertaintyNanosPerSecond,HardwareClockDiscontinuityCount,Svid,TimeOffsetNanos,State,ReceivedSvTimeNanos,ReceivedSvTimeUncertaintyNanos,Cn0DbHz,PseudorangeRateMetersPerSecond,PseudorangeRateUncertaintyMetersPerSecond,AccumulatedDeltaRangeState,AccumulatedDeltaRangeMeters,AccumulatedDeltaRangeUncertaintyMeters,CarrierFrequencyHz,CarrierCycles,CarrierPhase,CarrierPhaseUncertainty,MultipathIndicator,SnrInDb,ConstellationType,AgcDb,CarrierFrequencyHz,AngleZ,AngleX,AngleY
# 
# Fix,Provider,Latitude,Longitude,Altitude,Speed,Accuracy,SpeedAccuracy,BearingAccuracy,TimeInMs
# 
# Nav,Svid,Type,Status,MessageId,Sub-messageId,Data(Bytes)
# 
Raw,945516619,7726602000000,,,-1260194483833303552,0.0,64.55300899688154,-18.662643212822495,16.584485927809286,2413,10,0.0,15,403810364434446,28,26.3,-359.2934875488281,2.0824999809265137,0,0.0,0.0,,,,,0,,1,,,220.40625,-87.15625,-2.40625
Raw,945516620,7726602000000,,,-1260194483833303552,0.0,64.55300899688154,-18.662643212822495,16.584485927809286,2413,12,0.0,15,403810351158714,21,26.2,-522.58447265625,0.5929999947547913,0,0.0,0.0,,,,,0,,1,,,220.40625,-87.15625,-2.40625
Raw,945516620,7726602000000,,,-1260194483833303552,0.0,64.55300899688154,-18.662643212822495,16.584485927809286,2413,14,0.0,15,403810353407631,80,16.5,-520.900390625,1.1859999895095825,0,0.0,0.0,,,,,0,,1,,,220.40625,-87.15625,-2.40625
Raw,945516621,7726602000000,,,-1260194483833303552,0.0,64.55300899688154,-18.662643212822495,16.584485927809286,2413,15,0.0,15,403810356692380,10,34.5,576.7135620117188,0.31050002574920654,0,0.0,0.0,,,,,0,,1,,,220.40625,-87.15625,-2.40625
Raw,945516621,7726602000000,,,-1260194483833303552,0.0,64.55300899688154,-18.662643212822495,16.584485927809286,2413,20,0.0,15,403810368543243,27,24.6,-50.92258834838867,0.6285000443458557,0,0.0,0.0,,,,,0,,1,,,220.40625,-87.15625,-2.40625
Raw,945516622,7726602000000,,,-1260194483833303552,0.0,64.55300899688154,-18.662643212822495,16.584485927809286,2413,21,0.0,15,403810363380035,70,18.8,359.6455383300781,2.561000108718872,0,0.0,0.0,,,,,0,,1,,,220.40625,-87.15625,-2.40625
Raw,945516622,7726602000000,,,-1260194483833303552,0.0,64.55300899688154,-18.662643212822495,16.584485927809286,2413,24,0.0,15,403810365854356,17,28.5,154.36622619628906,0.46399998664855957,0,0.0,0.0,,,,,0,,1,,,220.40625,-87.15625,-2.40625
Raw,945516623,7726602000000,,,-1260194483833303552,0.0,64.55300899688154,-18.662643212822495,16.584485927809286,2413,27,0.0,15,403810352879880,21,26.3,308.4375,0.5945000052452087,0,0.0,0.0,,,,,0,,1,,,220.40625,-87.15625,-2.40625
Raw,945516623,7726602000000,,,-1260194483833303552,0.0,64.55300899688154,-18.662643212822495,16.584485927809286,2413,32,0.0,15,403810360771922,46,20.8,-419.88299560546875,0.8464999794960022,0,0.0,0.0,,,,,0,,1,,,220.40625,-87.15625,-2.40625
Raw,945517605,7727602000000,,,-1260194483833303552,0.0,59.74363011773676,-24.41460989101786,14.94377809585552,2413,10,0.0,15,403811364435645,45,26.3,-359.2934875488281,3.5825002193450928,0,0.0,0.0,,,,,0,,1,,,255.57812,-97.609375,-4.9375
Raw,945517606,7727602000000,,,-1260194483833303552,0.0,59.74363011773676,-24.41460989101786,14.94377809585552,2413,12,0.0,15,403811351160452,31,23.3,-524.5444946289062,0.7429999709129333,0,0.0,0.0,,,,,0,,1,,,255.57812,-97.609375,-4.9375
Raw,945517606,7727602000000,,,-1260194483833303552,0.0,59.74363011773676,-24.41460989101786,14.94377809585552,2413,14,0.0,15,403811353409109,70,17.2,-523.3931884765625,1.1859999895095825,0,0.0,0.0,,,,,0,,1,,,255.57812,-97.609375,-4.9375
Raw,945517607,7727602000000,,,-1260194483833303552,0.0,59.74363011773676,-24.41460989101786,14.94377809585552,2413,15,0.0,15,403811356690456,10,34.0,575.2421264648438,0.04610000178217888,0,0.0,0.0,,,,,0,,1,,,255.57812,-97.609375,-4.9375
Raw,945517607,7727602000000,,,-1260194483833303552,0.0,59.74363011773676,-24.41460989101786,14.94377809585552,2413,20,0.0,15,403811368543445,27,24.8,-53.53912353515625,0.6285000443458557,0,0.0,0.0,,,,,0,,1,,,255.57812,-97.609375,-4.9375
Raw,945517608,7727602000000,,,-1260194483833303552,0.0,59.74363011773676,-24.41460989101786,14.94377809585552,2413,24,0.0,15,403811365853868,13,31.8,152.2349395751953,0.3739999830722809,0,0.0,0.0,,,,,0,,1,,,255.57812,-97.609375,-4.9375
Raw,945517608,7727602000000,,,-1260194483833303552,0.0,59.74363011773676,-24.41460989101786,14.94377809585552,2413,27,0.0,15,403811352878704,24,25.4,307.3382873535156,0.39980000257492065,0,0.0,0.0,,,,,0,,1,,,255.57812,-97.609375,-4.9375
Raw,945517608,7727602000000,,,-1260194483833303552,0.0,59.74363011773676,-24.41460989101786,14.94377809585552,2413,32,0.0,15,403811360773456,24,25.2,-421.53851318359375,0.6165000200271606,0,0.0,0.0,,,,,0,,1,,,255.57812,-97.609375,-4.9375
Raw,945518605,7728602000000,,,-1260194483833303552,0.0,62.437473388854414,-28.889334996329886,16.940272975017066,2413,10,0.0,15,403812364436873,69,18.9,-361.5579833984375,2.502500057220459,0,0.0,0.0,,,,,0,,1,,,282.82812,-96.3125,0.4375
Raw,945518605,7728602000000,,,-1260194483833303552,0.0,62.437473388854414,-28.889334996329886,16.940272975017066,2413,12,0.0,15,403812351162199,80,16.9,-523.5454711914062,1.1829999685287476,0,0.0,0.0,,,,,0,,1,,,282.82812,-96.3125,0.4375
Raw,945518606,7728602000000,,,-1260194483833303552,0.0,62.437473388854414,-28.889334996329886,16.940272975017066,2413,14,0.0,15,403812353410855,79,17.2,-523.3931884765625,2.686000108718872,0,0.0,0.0,,,,,0,,1,,,282.82812,-96.3125,0.4375
Raw,945518606,7728602000000,,,-1260194483833303552,0.0,62.437473388854414,-28.889334996329886,16.940272975017066,2413,15,0.0,15,403812356688556,13,31.7,576.9894409179688,0.390500009059906,0,0.0,0.0,,,,,0,,1,,,282.82812,-96.3125,0.4375
Raw,945518606,7728602000000,,,-1260194483833303552,0.0,62.437473388854414,-28.889334996329886,16.940272975017066,2413,20,0.0,15,403812368543594,31,23.1,-51.7503662109375,0.7384999990463257,0,0.0,0.0,,,,,0,,1,,,282.82812,-96.3125,0.4375
Raw,945518607,7728602000000,,,-1260194483833303552,0.0,62.437473388854414,-28.889334996329886,16.940272975017066,2413,24,0.0,15,403812365853364,16,29.9,155.3026123046875,0.03420000150799751,0,0.0,0.0,,,,,0,,1,,,282.82812,-96.3125,0.4375
Raw,945518607,7728602000000,,,-1260194483833303552,0.0,62.437473388854414,-28.889334996329886,16.940272975017066,2413,27,0.0,15,403812352877371,53,19.4,309.1510925292969,1.0145000219345093,0,0.0,0.0,,,,,0,,1,,,282.82812,-96.3125,0.4375
Raw,945518608,7728602000000,,,-1260194483833303552,0.0,62.437473388854414,-28.889334996329886,16.940272975017066,2413,32,0.0,15,403812360774710,53,19.0,-420.1494140625,0.9965000152587891,0,0.0,0.0,,,,,0,,1,,,282.82812,-96.3125,0.4375
Raw,945519609,7729602000000,,,-1260194483833303552,0.0,67.86864105379209,-24.685664756297978,14.85518722130591,2413,10,0.0,15,403813364437883,61,18.7,-354.57421875,1.002500057220459,0,0.0,0.0,,,,,0,,1,,,322.48438,-94.390625,2.546875
Raw,945519610,7729602000000,,,-1260194483833303552,0.0,67.86864105379209,-24.685664756297978,14.85518722130591,2413,12,0.0,15,403813351164231,53,19.5,-517.3513793945312,0.9329999685287476,0,0.0,0.0,,,,,0,,1,,,322.48438,-94.390625,2.546875
Raw,945519611,7729602000000,,,-1260194483833303552,0.0,67.86864105379209,-24.685664756297978,14.85518722130591,2413,14,0.0,15,403813353412907,84,16.6,-514.4589233398438,1.9359999895095825,0,0.0,0.0,,,,,0,,1,,,322.48438,-94.390625,2.546875
Raw,945519611,7729602000000,,,-1260194483833303552,0.0,67.86864105379209,-24.685664756297978,14.85518722130591,2413,15,0.0,15,403813356686606,11,33.2,581.6624755859375,0.04690000042319298,0,0.0,0.0,,,,,0,,1,,,322.48438,-94.390625,2.546875
Raw,945519612,7729602000000,,,-1260194483833303552,0.0,67.86864105379209,-24.685664756297978,14.85518722130591,2413,20,0.0,15,403813368543757,31,23.1,-45.52775955200195,0.7384999990463257,0,0.0,0.0,,,,,0,,1,,,322.48438,-94.390625,2.546875
Raw,945519613,7729602000000,,,-1260194483833303552,0.0,67.86864105379209,-24.685664756297978,14.85518722130591,2413,21,0.0,15,403813363376566,11,33.1,362.9756774902344,0.7490000128746033,0,0.0,0.0,,,,,0,,1,,,322.48438,-94.390625,2.546875
Raw,945519614,7729602000000,,,-1260194483833303552,0.0,67.86864105379209,-24.685664756297978,14.85518722130591,2413,24,0.0,15,403813365852811,12,32.1,159.37005615234375,0.03140000253915787,0,0.0,0.0,,,,,0,,1,,,322.48438,-94.390625,2.546875
Raw,945519615,7729602000000,,,-1260194483833303552,0.0,67.86864105379209,-24.685664756297978,14.85518722130591,2413,27,0.0,15,403813352876447,40,21.1,314.3080749511719,0.8644999861717224,0,0.0,0.0,,,,,0,,1,,,322.48438,-94.390625,2.546875
Raw,945519616,7729602000000,,,-1260194483833303552,0.0,67.86864105379209,-24.685664756297978,14.85518722130591,2413,32,0.0,15,403813360776150,31,23.5,-415.40155029296875,0.6664999723434448,0,0.0,0.0,,,,,0,,1,,,322.48438,-94.390625,2.546875
Raw,945520610,7730602000000,,,-1260194483833303552,0.0,89.15380749385804,-24.685664756297978,24.62081136265932,2414,10,0.0,15,403814364439102,35,22.8,-354.0984802246094,0.7324999570846558,0,0.0,0.0,,,,,0,,1,,,20.015625,-97.859375,-5.734375
Raw,945520610,7730602000000,,,-1260194483833303552,0.0,89.15380749385804,-24.685664756297978,24.62081136265932,2414,12,0.0,15,403814351165957,61,19.5,-517.3513793945312,2.433000087738037,0,0.0,0.0,,,,,0,,1,,,20.015625,-97.859375,-5.734375
Raw,945520611,7730602000000,,,-1260194483833303552,0.0,89.15380749385804,-24.685664756297978,24.62081136265932,2414,14,0.0,15,403814353414555,11,33.3,-514.3026733398438,0.04240000247955322,0,0.0,0.0,,,,,0,,1,,,20.015625,-97.859375,-5.734375
Raw,945520611,7730602000000,,,-1260194483833303552,0.0,89.15380749385804,-24.685664756297978,24.62081136265932,2414,15,0.0,15,403814356684674,13,31.1,581.9716796875,0.04920000210404396,0,0.0,0.0,,,,,0,,1,,,20.015625,-97.859375,-5.734375
Raw,945520612,7730602000000,,,-1260194483833303552,0.0,89.15380749385804,-24.685664756297978,24.62081136265932,2414,20,0.0,15,403814368543848,40,21.7,-45.70853805541992,0.7985000014305115,0,0.0,0.0,,,,,0,,1,,,20.015625,-97.859375,-5.734375
Raw,945520612,7730602000000,,,-1260194483833303552,0.0,89.15380749385804,-24.685664756297978,24.62081136265932,2414,21,0.0,15,403814363375382,14,30.0,364.0908508300781,0.030300000682473183,0,0.0,0.0,,,,,0,,1,,,20.015625,-97.859375,-5.734375
Raw,945520613,7730602000000,,,-1260194483833303552,0.0,89.15380749385804,-24.685664756297978,24.62081136265932,2414,24,0.0,15,403814365852256,16,29.3,159.90673828125,0.03420000150799751,0,0.0,0.0,,,,,0,,1,,,20.015625,-97.859375,-5.734375
Raw,945520613,7730602000000,,,-1260194483833303552,0.0,89.15380749385804,-24.685664756297978,24.62081136265932,2414,27,0.0,15,403814352875635,19,27.7,314.2008056640625,0.059300001710653305,0,0.0,0.0,,,,,0,,1,,,20.015625,-97.859375,-5.734375
Raw,945520613,7730602000000,,,-1260194483833303552,0.0,89.15380749385804,-24.685664756297978,24.62081136265932,2414,32,0.0,15,403814360777612,13,31.8,-414.2351379394531,0.025200000032782555,0,0.0,0.0,,,,,0,,1,,,20.015625,-97.859375,-5.734375
Raw,945521617,7731602000000,,,-1260194483833303552,0.0,64.24498133128509,-6.290935057589752,11.632090145333297,2414,10,0.0,15,403815364440367,27,24.9,-355.2687683105469,0.6225000023841858,0,0.0,0.0,,,,,0,,1,,,42.71875,-95.9375,3.484375
Raw,945521618,7731602000000,,,-1260194483833303552,0.0,64.24498133128509,-6.290935057589752,11.632090145333297,2414,14,0.0,15,403815353416292,8,36.8,-514.7994384765625,0.04070000350475311,0,0.0,0.0,,,,,0,,1,,,42.71875,-95.9375,3.484375
Raw,945521620,7731602000000,,,-1260194483833303552,0.0,64.24498133128509,-6.290935057589752,11.632090145333297,2414,15,0.0,15,403815356682702,27,24.3,581.9656372070312,0.6904999613761902,0,0.0,0.0,,,,,0,,1,,,42.71875,-95.9375,3.484375
Raw,945521621,7731602000000,,,-1260194483833303552,0.0,64.24498133128509,-6.290935057589752,11.632090145333297,2414,20,0.0,15,403815368544015,31,23.2,-45.70853805541992,0.7384999990463257,0,0.0,0.0,,,,,0,,1,,,42.71875,-95.9375,3.484375
Raw,945521622,7731602000000,,,-1260194483833303552,0.0,64.24498133128509,-6.290935057589752,11.632090145333297,2414,21,0.0,15,403815363374134,13,31.4,363.84228515625,0.02970000170171261,0,0.0,0.0,,,,,0,,1,,,42.71875,-95.9375,3.484375
Raw,945521622,7731602000000,,,-1260194483833303552,0.0,64.24498133128509,-6.290935057589752,11.632090145333297,2414,24,0.0,15,403815365851553,19,27.3,159.73251342773438,0.5339999794960022,0,0.0,0.0,,,,,0,,1,,,42.71875,-95.9375,3.484375
Raw,945521623,7731602000000,,,-1260194483833303552,0.0,64.24498133128509,-6.290935057589752,11.632090145333297,2414,27,0.0,15,403815352874633,12,32.6,313.5689697265625,0.04190000146627426,0,0.0,0.0,,,,,0,,1,,,42.71875,-95.9375,3.484375
Raw,945521624,7731602000000,,,-1260194483833303552,0.0,64.24498133128509,-6.290935057589752,11.632090145333297,2414,32,0.0,15,403815360779021,8,36.6,-414.70318603515625,0.02120000123977661,0,0.0,0.0,,,,,0,,1,,,42.71875,-95.9375,3.484375
Raw,945522615,7732602000000,,,-1260194483833303552,0.0,59.42145799053833,-7.553628595820716,14.424577165721477,2414,10,0.0,15,403816364441571,12,32.1,-356.65423583984375,0.029900001361966133,0,0.0,0.0,,,,,0,,1,,,82.796875,-98.25,-5.6875
Raw,945522616,7732602000000,,,-1260194483833303552,0.0,59.42145799053833,-7.553628595820716,14.424577165721477,2414,14,0.0,15,403816353418012,10,34.7,-516.4669189453125,0.041600000113248825,0,0.0,0.0,,,,,0,,1,,,82.796875,-98.25,-5.6875
Raw,945522616,7732602000000,,,-1260194483833303552,0.0,59.42145799053833,-7.553628595820716,14.424577165721477,2414,20,0.0,15,403816368544186,40,21.5,-46.68855285644531,0.7985000014305115,0,0.0,0.0,,,,,0,,1,,,82.796875,-98.25,-5.6875
Raw,945522617,7732602000000,,,-1260194483833303552,0.0,59.42145799053833,-7.553628595820716,14.424577165721477,2414,21,0.0,15,403816363372950,14,30.8,362.0262145996094,0.030300000682473183,0,0.0,0.0,,,,,0,,1,,,82.796875,-98.25,-5.6875
Raw,945522618,7732602000000,,,-1260194483833303552,0.0,59.42145799053833,-7.553628595820716,14.424577165721477,2414,24,0.0,15,403816365850852,27,24.0,158.0769500732422,0.6739999651908875,0,0.0,0.0,,,,,0,,1,,,82.796875,-98.25,-5.6875
Raw,945522618,7732602000000,,,-1260194483833303552,0.0,59.42145799053833,-7.553628595820716,14.424577165721477,2414,27,0.0,15,403816352873593,8,36.6,312.0104675292969,0.03920000046491623,0,0.0,0.0,,,,,0,,1,,,82.796875,-98.25,-5.6875
Raw,945522619,7732602000000,,,-1260194483833303552,0.0,59.42145799053833,-7.553628595820716,14.424577165721477,2414,32,0.0,15,403816360780396,7,37.2,-416.3525695800781,0.020600000396370888,0,0.0,0.0,,,,,0,,1,,,82.796875,-98.25,-5.6875
Raw,945523627,7733602000000,,,-1260194483833303552,0.0,50.06985884392634,-13.489299104358627,12.756160230648593,2414,10,0.0,15,403817364442796,16,29.2,-355.5513610839844,0.03270000219345093,0,0.0,0.0,,,,,0,,1,,,103.984375,-103.8125,-2.296875
Raw,945523627,7733602000000,,,-1260194483833303552,0.0,50.06985884392634,-13.489299104358627,12.756160230648593,2414,12,0.0,15,403817351170877,651,18.9,-518.16015625,2.003000020980835,0,0.0,0.0,,,,,0,,1,,,103.984375,-103.8125,-2.296875
Raw,945523628,7733602000000,,,-1260194483833303552,0.0,50.06985884392634,-13.489299104358627,12.756160230648593,2414,14,0.0,15,403817353419733,16,29.4,-515.45654296875,0.04620000347495079,0,0.0,0.0,,,,,0,,1,,,103.984375,-103.8125,-2.296875
Raw,945523628,7733602000000,,,-1260194483833303552,0.0,50.06985884392634,-13.489299104358627,12.756160230648593,2414,15,0.0,15,403817356678254,488,21.2,581.3186645507812,1.1705000400543213,0,0.0,0.0,,,,,0,,1,,,103.984375,-103.8125,-2.296875
Raw,945523629,7733602000000,,,-1260194483833303552,0.0,50.06985884392634,-13.489299104358627,12.756160230648593,2414,20,0.0,15,403817368544306,31,23.9,-45.822715759277344,0.6784999966621399,0,0.0,0.0,,,,,0,,1,,,103.984375,-103.8125,-2.296875
Raw,945523630,7733602000000,,,-1260194483833303552,0.0,50.06985884392634,-13.489299104358627,12.756160230648593,2414,21,0.0,15,403817363371682,13,31.6,363.1676025390625,0.02970000170171261,0,0.0,0.0,,,,,0,,1,,,103.984375,-103.8125,-2.296875
Raw,945523630,7733602000000,,,-1260194483833303552,0.0,50.06985884392634,-13.489299104358627,12.756160230648593,2414,24,0.0,15,403817365850334,24,25.9,159.29400634765625,0.38929998874664307,0,0.0,0.0,,,,,0,,1,,,103.984375,-103.8125,-2.296875
Raw,945523631,7733602000000,,,-1260194483833303552,0.0,50.06985884392634,-13.489299104358627,12.756160230648593,2414,27,0.0,15,403817352872538,8,36.0,313.0480041503906,0.03920000046491623,0,0.0,0.0,,,,,0,,1,,,103.984375,-103.8125,-2.296875
Raw,945523632,7733602000000,,,-1260194483833303552,0.0,50.06985884392634,-13.489299104358627,12.756160230648593,2414,32,0.0,15,403817360781791,14,30.2,-415.2604064941406,0.025800000876188278,0,0.0,0.0,,,,,0,,1,,,103.984375,-103.8125,-2.296875
Raw,945524621,7734404000000,,,-1260194483833303296,0.0,50.385591748636216,-10.526026762067914,9.970491135208471,2414,10,0.0,15,403818166443692,27,24.9,-356.18218994140625,0.6105000376701355,0,0.0,0.0,,,,,0,,1,,,129.17188,-102.546875,0.875
Raw,945524621,7734404000000,,,-1260194483833303296,0.0,50.385591748636216,-10.526026762067914,9.970491135208471,2414,12,0.0,15,403818153172318,35,22.8,-519.4160766601562,0.7310000061988831,0,0.0,0.0,,,,,0,,1,,,129.17188,-102.546875,0.875
Raw,945524622,7734404000000,,,-1260194483833303296,0.0,50.385591748636216,-10.526026762067914,9.970491135208471,2414,14,0.0,15,403818155421139,16,29.0,-515.5272827148438,0.05220000073313713,0,0.0,0.0,,,,,0,,1,,,129.17188,-102.546875,0.875
Raw,945524623,7734404000000,,,-1260194483833303296,0.0,50.385591748636216,-10.526026762067914,9.970491135208471,2414,15,0.0,15,403818158676699,495,21.2,581.3186645507812,2.373500108718872,0,0.0,0.0,,,,,0,,1,,,129.17188,-102.546875,0.875
Raw,945524623,7734404000000,,,-1260194483833303296,0.0,50.385591748636216,-10.526026762067914,9.970491135208471,2414,20,0.0,15,403818170544428,36,23.9,-45.822715759277344,1.881500005722046,0,0.0,0.0,,,,,0,,1,,,129.17188,-102.546875,0.875
Raw,945524624,7734404000000,,,-1260194483833303296,0.0,50.385591748636216,-10.526026762067914,9.970491135208471,2414,21,0.0,15,403818165370542,24,25.5,363.10516357421875,0.18690000474452972,0,0.0,0.0,,,,,0,,1,,,129.17188,-102.546875,0.875
Raw,945524625,7734404000000,,,-1260194483833303296,0.0,50.385591748636216,-10.526026762067914,9.970491135208471,2414,24,0.0,15,403818167850289,40,21.9,158.9998779296875,0.7820000052452087,0,0.0,0.0,,,,,0,,1,,,129.17188,-102.546875,0.875
Raw,945524625,7734404000000,,,-1260194483833303296,0.0,50.385591748636216,-10.526026762067914,9.970491135208471,2414,27,0.0,15,403818154871712,13,31.7,312.94970703125,0.04480000212788582,0,0.0,0.0,,,,,0,,1,,,129.17188,-102.546875,0.875
Raw,945524626,7734404000000,,,-1260194483833303296,0.0,50.385591748636216,-10.526026762067914,9.970491135208471,2414,32,0.0,15,403818162782885,12,32.9,-415.4383544921875,0.024399999529123306,0,0.0,0.0,,,,,0,,1,,,129.17188,-102.546875,0.875
Raw,945525608,7735611000000,,,-1260194483832323328,0.0,4220.347851514816,-10.946293421889553,11.39586849044918,2415,10,0.0,15,403819372465065,16,29.9,-352.86126708984375,0.09239999949932098,0,0.0,0.0,,,,,0,,1,,,179.40625,-101.5,-4.25
Raw,945525608,7735611000000,,,-1260194483832323328,0.0,4220.347851514816,-10.946293421889553,11.39586849044918,2415,12,0.0,15,403819359194086,17,28.1,-515.8678588867188,0.125900000333786,0,0.0,0.0,,,,,0,,1,,,179.40625,-101.5,-4.25
Raw,945525609,7735611000000,,,-1260194483832323328,0.0,4220.347851514816,-10.946293421889553,11.39586849044918,2415,14,0.0,15,403819361443043,12,32.1,-512.9620361328125,0.07999999821186066,0,0.0,0.0,,,,,0,,1,,,179.40625,-101.5,-4.25
Raw,945525609,7735611000000,,,-1260194483832323328,0.0,4220.347851514816,-10.946293421889553,11.39586849044918,2415,15,0.0,15,403819364694633,24,25.8,583.5908203125,1.1965000629425049,0,0.0,0.0,,,,,0,,1,,,179.40625,-101.5,-4.25
Raw,945525610,7735611000000,,,-1260194483832323328,0.0,4220.347851514816,-10.946293421889553,11.39586849044918,2415,20,0.0,15,403819376564510,24,25.7,-43.20095443725586,1.1845000982284546,0,0.0,0.0,,,,,0,,1,,,179.40625,-101.5,-4.25
Raw,945525610,7735611000000,,,-1260194483832323328,0.0,4220.347851514816,-10.946293421889553,11.39586849044918,2415,21,0.0,15,403819371389114,21,26.9,365.78680419921875,0.2671999931335449,0,0.0,0.0,,,,,0,,1,,,179.40625,-101.5,-4.25
Raw,945525612,7735611000000,,,-1260194483832323328,0.0,4220.347851514816,-10.946293421889553,11.39586849044918,2415,24,0.0,15,403819373869563,31,23.4,162.79623413085938,0.7310000061988831,0,0.0,0.0,,,,,0,,1,,,179.40625,-101.5,-4.25
Raw,945525613,7735611000000,,,-1260194483832323328,0.0,4220.347851514816,-10.946293421889553,11.39586849044918,2415,27,0.0,15,403819360890251,10,34.0,315.7110290527344,0.06859999895095825,0,0.0,0.0,,,,,0,,1,,,179.40625,-101.5,-4.25
Raw,945525613,7735611000000,,,-1260194483832323328,0.0,4220.347851514816,-10.946293421889553,11.39586849044918,2415,32,0.0,15,403819368804407,10,34.9,-412.771484375,0.050599999725818634,0,0.0,0.0,,,,,0,,1,,,179.40625,-101.5,-4.25
Raw,945526607,7736824000000,,,-1260194483831562240,0.0,4271.071869879961,-0.916562964743066,14.075217561582658,2416,10,0.0,15,403820584705208,21,26.4,-353.5032958984375,0.2567000091075897,0,0.0,0.0,,,,,0,,1,,,186.67188,-102.875,7.609375
Raw,945526608,7736824000000,,,-1260194483831562240,0.0,4271.071869879961,-0.916562964743066,14.075217561582658,2416,12,0.0,15,403820571435117,21,26.2,-516.3828735351562,0.2671999931335449,0,0.0,0.0,,,,,0,,1,,,186.67188,-102.875,7.609375
Raw,945526608,7736824000000,,,-1260194483831562240,0.0,4271.071869879961,-0.916562964743066,14.075217561582658,2416,14,0.0,15,403820573683879,27,24.9,-513.3267211914062,0.6210000514984131,0,0.0,0.0,,,,,0,,1,,,186.67188,-102.875,7.609375
Raw,945526609,7736824000000,,,-1260194483831562240,0.0,4271.071869879961,-0.916562964743066,14.075217561582658,2416,15,0.0,15,403820576931265,11,33.6,582.936767578125,0.06720000505447388,0,0.0,0.0,,,,,0,,1,,,186.67188,-102.875,7.609375
Raw,945526609,7736824000000,,,-1260194483831562240,0.0,4271.071869879961,-0.916562964743066,14.075217561582658,2416,20,0.0,15,403820588803428,16,29.1,-43.6602783203125,0.08639999479055405,0,0.0,0.0,,,,,0,,1,,,186.67188,-102.875,7.609375
Raw,945526610,7736824000000,,,-1260194483831562240,0.0,4271.071869879961,-0.916562964743066,14.075217561582658,2416,27,0.0,15,403820573127902,14,30.8,315.52703857421875,0.08299999684095383,0,0.0,0.0,,,,,0,,1,,,186.67188,-102.875,7.609375
Raw,945526610,7736824000000,,,-1260194483831562240,0.0,4271.071869879961,-0.916562964743066,14.075217561582658,2416,32,0.0,15,403820581044976,17,28.4,-412.77783203125,0.12890000641345978,0,0.0,0.0,,,,,0,,1,,,186.67188,-102.875,7.609375
Raw,945527606,7737811000000,,,-1260194483831443456,0.0,4233.216866850853,-2.8491108692510867,10.197198870093333,2417,12,0.0,15,403821558318321,19,27.6,-516.4775390625,0.1907000094652176,0,0.0,0.0,,,,,0,,1,,,239.07812,-105.28125,-5.5625
Raw,945527607,7737811000000,,,-1260194483831443456,0.0,4233.216866850853,-2.8491108692510867,10.197198870093333,2417,15,0.0,15,403821563810852,8,36.6,582.9465942382812,0.03500000014901161,0,0.0,0.0,,,,,0,,1,,,239.07812,-105.28125,-5.5625
Raw,945527607,7737811000000,,,-1260194483831443456,0.0,4233.216866850853,-2.8491108692510867,10.197198870093333,2417,20,0.0,15,403821575685062,17,28.8,-43.7542610168457,0.11990000307559967,0,0.0,0.0,,,,,0,,1,,,239.07812,-105.28125,-5.5625
Raw,945527608,7737811000000,,,-1260194483831443456,0.0,4233.216866850853,-2.8491108692510867,10.197198870093333,2417,21,0.0,15,403821570506665,27,24.2,365.830078125,0.6664999723434448,0,0.0,0.0,,,,,0,,1,,,239.07812,-105.28125,-5.5625
Raw,945527609,7737811000000,,,-1260194483831443456,0.0,4233.216866850853,-2.8491108692510867,10.197198870093333,2417,24,0.0,15,403821572988616,14,30.6,161.8302764892578,0.08150000125169754,0,0.0,0.0,,,,,0,,1,,,239.07812,-105.28125,-5.5625
Raw,945527609,7737811000000,,,-1260194483831443456,0.0,4233.216866850853,-2.8491108692510867,10.197198870093333,2417,27,0.0,15,403821560008230,21,26.6,315.5514831542969,0.2806999981403351,0,0.0,0.0,,,,,0,,1,,,239.07812,-105.28125,-5.5625
Raw,945528619,7738929000000,,,-1260194483831174912,0.0,4236.086271703243,-2.9050835836160087,17.16508078890567,2418,10,0.0,15,403822689320433,16,29.3,-349.91436767578125,0.04320000112056732,0,0.0,0.0,,,,,0,,1,,,245.73438,-102.75,5.0625
Raw,945528620,7738929000000,,,-1260194483831174912,0.0,4236.086271703243,-2.9050835836160087,17.16508078890567,2418,12,0.0,15,403822676051441,40,21.6,-513.1268920898438,0.7954999804496765,0,0.0,0.0,,,,,0,,1,,,245.73438,-102.75,5.0625
Raw,945528621,7738929000000,,,-1260194483831174912,0.0,4236.086271703243,-2.9050835836160087,17.16508078890567,2418,14,0.0,15,403822678300098,46,20.6,-509.71112060546875,0.8585000038146973,0,0.0,0.0,,,,,0,,1,,,245.73438,-102.75,5.0625
Raw,945528622,7738929000000,,,-1260194483831174912,0.0,4236.086271703243,-2.9050835836160087,17.16508078890567,2418,15,0.0,15,403822681539904,14,30.5,586.7420043945312,0.40299999713897705,0,0.0,0.0,,,,,0,,1,,,245.73438,-102.75,5.0625
Raw,945528623,7738929000000,,,-1260194483831174912,0.0,4236.086271703243,-2.9050835836160087,17.16508078890567,2418,20,0.0,15,403822693416494,17,28.1,-40.07329559326172,0.06030000001192093,0,0.0,0.0,,,,,0,,1,,,245.73438,-102.75,5.0625
Raw,945528624,7738929000000,,,-1260194483831174912,0.0,4236.086271703243,-2.9050835836160087,17.16508078890567,2418,21,0.0,15,403822688236736,35,22.0,369.68353271484375,0.7834999561309814,0,0.0,0.0,,,,,0,,1,,,245.73438,-102.75,5.0625
Raw,945528625,7738929000000,,,-1260194483831174912,0.0,4236.086271703243,-2.9050835836160087,17.16508078890567,2418,24,0.0,15,403822690719292,12,32.4,165.38186645507812,0.036400001496076584,0,0.0,0.0,,,,,0,,1,,,245.73438,-102.75,5.0625
Raw,945528625,7738929000000,,,-1260194483831174912,0.0,4236.086271703243,-2.9050835836160087,17.16508078890567,2418,27,0.0,15,403822677738293,24,25.4,318.8397521972656,0.20489999651908875,0,0.0,0.0,,,,,0,,1,,,245.73438,-102.75,5.0625
Raw,945529587,7739716000000,,,-1260194483830191616,0.0,4219.041205942631,8.011674973904045,9.983547226876762,2419,10,0.0,15,403823475338465,21,26.4,-352.2976379394531,0.12020000070333481,0,0.0,0.0,,,,,0,,1,,,283.04688,-102.953125,2.140625
Raw,945529588,7739716000000,,,-1260194483830191616,0.0,4219.041205942631,8.011674973904045,9.983547226876762,2419,14,0.0,15,403823464318389,46,20.7,-512.7462768554688,0.8374999761581421,0,0.0,0.0,,,,,0,,1,,,283.04688,-102.953125,2.140625
Raw,945529588,7739716000000,,,-1260194483830191616,0.0,4219.041205942631,8.011674973904045,9.983547226876762,2419,15,0.0,15,403823467555446,31,23.7,583.5165405273438,0.6620000004768372,0,0.0,0.0,,,,,0,,1,,,283.04688,-102.953125,2.140625
Raw,945529588,7739716000000,,,-1260194483830191616,0.0,4219.041205942631,8.011674973904045,9.983547226876762,2419,20,0.0,15,403823479433678,17,28.0,-42.60014724731445,0.06930000334978104,0,0.0,0.0,,,,,0,,1,,,283.04688,-102.953125,2.140625
Raw,945529591,7739716000000,,,-1260194483830191616,0.0,4219.041205942631,8.011674973904045,9.983547226876762,2419,21,0.0,15,403823474252713,19,27.5,366.50335693359375,0.08460000157356262,0,0.0,0.0,,,,,0,,1,,,283.04688,-102.953125,2.140625
Raw,945529593,7739716000000,,,-1260194483830191616,0.0,4219.041205942631,8.011674973904045,9.983547226876762,2419,24,0.0,15,403823476735834,12,32.4,162.89910888671875,0.04540000110864639,0,0.0,0.0,,,,,0,,1,,,283.04688,-102.953125,2.140625
Raw,945530612,7740709000000,,,-1260194483830168064,0.0,4250.393249094486,-0.7956988821779263,11.796788403483067,2420,10,0.0,15,403824468315684,46,20.9,-353.9842834472656,0.8434999585151672,0,0.0,0.0,,,,,0,,1,,,322.67188,-102.984375,-0.890625
Raw,945530613,7740709000000,,,-1260194483830168064,0.0,4250.393249094486,-0.7956988821779263,11.796788403483067,2420,14,0.0,15,403824457296291,35,22.2,-513.1459350585938,0.796999990940094,0,0.0,0.0,,,,,0,,1,,,322.67188,-102.984375,-0.890625
Raw,945530614,7740709000000,,,-1260194483830168064,0.0,4250.393249094486,-0.7956988821779263,11.796788403483067,2420,15,0.0,15,403824460529470,11,33.4,582.732421875,0.049000002443790436,0,0.0,0.0,,,,,0,,1,,,322.67188,-102.984375,-0.890625
Raw,945530615,7740709000000,,,-1260194483830168064,0.0,4250.393249094486,-0.7956988821779263,11.796788403483067,2420,21,0.0,15,403824467227552,14,30.8,365.91595458984375,0.037300001829862595,0,0.0,0.0,,,,,0,,1,,,322.67188,-102.984375,-0.890625
Raw,945530615,7740709000000,,,-1260194483830168064,0.0,4250.393249094486,-0.7956988821779263,11.796788403483067,2420,24,0.0,15,403824469711338,19,27.9,161.95506286621094,0.0771000012755394,0,0.0,0.0,,,,,0,,1,,,322.67188,-102.984375,-0.890625
Raw,945531612,7741721000000,,,-1260194483829844992,0.0,4242.559429258108,-3.5879009939445456,13.704049822843858,2421,10,0.0,15,403825479993835,35,22.3,-349.6170349121094,0.800000011920929,0,0.0,0.0,,,,,0,,1,,,351.98438,-99.203125,5.34375
Raw,945531613,7741721000000,,,-1260194483829844992,0.0,4242.559429258108,-3.5879009939445456,13.704049822843858,2421,14,0.0,15,403825468974984,19,27.8,-510.2093811035156,0.07559999823570251,0,0.0,0.0,,,,,0,,1,,,351.98438,-99.203125,5.34375
Raw,945531614,7741721000000,,,-1260194483829844992,0.0,4242.559429258108,-3.5879009939445456,13.704049822843858,2421,15,0.0,15,403825472204479,12,32.7,586.449462890625,0.039400000125169754,0,0.0,0.0,,,,,0,,1,,,351.98438,-99.203125,5.34375
Raw,945531614,7741721000000,,,-1260194483829844992,0.0,4242.559429258108,-3.5879009939445456,13.704049822843858,2421,20,0.0,15,403825484086813,40,21.5,-40.77042007446289,0.7774999737739563,0,0.0,0.0,,,,,0,,1,,,351.98438,-99.203125,5.34375
Raw,945531615,7741721000000,,,-1260194483829844992,0.0,4242.559429258108,-3.5879009939445456,13.704049822843858,2421,21,0.0,15,403825478903237,10,34.9,368.97100830078125,0.04410000145435333,0,0.0,0.0,,,,,0,,1,,,351.98438,-99.203125,5.34375
Raw,945531616,7741721000000,,,-1260194483829844992,0.0,4242.559429258108,-3.5879009939445456,13.704049822843858,2421,24,0.0,15,403825481387662,17,28.0,165.60470581054688,0.0723000019788742,0,0.0,0.0,,,,,0,,1,,,351.98438,-99.203125,5.34375
Raw,945531616,7741721000000,,,-1260194483829844992,0.0,4242.559429258108,-3.5879009939445456,13.704049822843858,2421,32,0.0,15,403825476334321,12,32.1,-409.88372802734375,0.04540000110864639,0,0.0,0.0,,,,,0,,1,,,351.98438,-99.203125,5.34375
Raw,945532605,7742715000000,,,-1260194483829483264,0.0,4210.378974676132,7.281836507115093,10.214880303123795,2422,10,0.0,15,403826473633483,35,22.6,-351.9195861816406,0.7310000061988831,0,0.0,0.0,,,,,0,,1,,,39.71875,-99.828125,-2.15625
Raw,945532605,7742715000000,,,-1260194483829483264,0.0,4210.378974676132,7.281836507115093,10.214880303123795,2422,14,0.0,15,403826462615374,8,36.0,-511.8211669921875,0.04700000211596489,0,0.0,0.0,,,,,0,,1,,,39.71875,-99.828125,-2.15625
Raw,945532606,7742715000000,,,-1260194483829483264,0.0,4210.378974676132,7.281836507115093,10.214880303123795,2422,15,0.0,15,403826465841177,35,22.1,584.1825561523438,0.7789999842643738,0,0.0,0.0,,,,,0,,1,,,39.71875,-99.828125,-2.15625
Raw,945532606,7742715000000,,,-1260194483829483264,0.0,4210.378974676132,7.281836507115093,10.214880303123795,2422,20,0.0,15,403826477725590,21,26.9,-42.15154266357422,0.12319999933242798,0,0.0,0.0,,,,,0,,1,,,39.71875,-99.828125,-2.15625
Raw,945532607,7742715000000,,,-1260194483829483264,0.0,4210.378974676132,7.281836507115093,10.214880303123795,2422,21,0.0,15,403826472540705,13,31.3,367.2016906738281,0.04179999977350235,0,0.0,0.0,,,,,0,,1,,,39.71875,-99.828125,-2.15625
Raw,945532607,7742715000000,,,-1260194483829483264,0.0,4210.378974676132,7.281836507115093,10.214880303123795,2422,27,0.0,15,403826462043007,13,31.7,317.0361022949219,0.0568000003695488,0,0.0,0.0,,,,,0,,1,,,39.71875,-99.828125,-2.15625
Raw,945532608,7742715000000,,,-1260194483829483264,0.0,4210.378974676132,7.281836507115093,10.214880303123795,2422,32,0.0,15,403826469974388,7,37.1,-411.5826721191406,0.026100000366568565,0,0.0,0.0,,,,,0,,1,,,39.71875,-99.828125,-2.15625
Raw,945533606,7743706000000,,,-1260194483828531712,0.0,4206.954967230558,1.2381257862776924,13.161566311258824,2423,10,0.0,15,403827463682925,16,29.4,-352.3102722167969,0.03420000150799751,0,0.0,0.0,,,,,0,,1,,,68.15625,-98.328125,0.890625
Raw,945533607,7743706000000,,,-1260194483828531712,0.0,4206.954967230558,1.2381257862776924,13.161566311258824,2423,14,0.0,15,403827452665229,9,35.1,-512.3259887695312,0.032999999821186066,0,0.0,0.0,,,,,0,,1,,,68.15625,-98.328125,0.890625
Raw,945533607,7743706000000,,,-1260194483828531712,0.0,4206.954967230558,1.2381257862776924,13.161566311258824,2423,20,0.0,15,403827467773894,27,24.3,-42.273738861083984,0.6620000004768372,0,0.0,0.0,,,,,0,,1,,,68.15625,-98.328125,0.890625
Raw,945533608,7743706000000,,,-1260194483828531712,0.0,4206.954967230558,1.2381257862776924,13.161566311258824,2423,21,0.0,15,403827462587589,14,30.8,366.8047790527344,0.02979999966919422,0,0.0,0.0,,,,,0,,1,,,68.15625,-98.328125,0.890625
Raw,945533609,7743706000000,,,-1260194483828531712,0.0,4206.954967230558,1.2381257862776924,13.161566311258824,2423,27,0.0,15,403827452090122,9,35.0,316.64923095703125,0.032999999821186066,0,0.0,0.0,,,,,0,,1,,,68.15625,-98.328125,0.890625
Raw,945533609,7743706000000,,,-1260194483828531712,0.0,4206.954967230558,1.2381257862776924,13.161566311258824,2423,32,0.0,15,403827460023904,6,38.1,-411.96343994140625,0.041200000792741776,0,0.0,0.0,,,,,0,,1,,,68.15625,-98.328125,0.890625
Raw,945534613,7744719000000,,,-1260194483828235264,0.0,4208.131227642298,-0.5795473298334063,13.906287625064916,2424,10,0.0,15,403828476387660,10,34.3,-353.10113525390625,0.041099999099969864,0,0.0,0.0,,,,,0,,1,,,97.921875,-98.9375,3.828125
Raw,945534613,7744719000000,,,-1260194483828235264,0.0,4208.131227642298,-0.5795473298334063,13.906287625064916,2424,12,0.0,15,403828463121853,46,20.7,-516.8280639648438,0.8659999966621399,0,0.0,0.0,,,,,0,,1,,,97.921875,-98.9375,3.828125
Raw,945534614,7744719000000,,,-1260194483828235264,0.0,4208.131227642298,-0.5795473298334063,13.906287625064916,2424,14,0.0,15,403828465370566,14,30.2,-512.9098510742188,0.034299999475479126,0,0.0,0.0,,,,,0,,1,,,97.921875,-98.9375,3.828125
Raw,945534615,7744719000000,,,-1260194483828235264,0.0,4208.131227642298,-0.5795473298334063,13.906287625064916,2424,20,0.0,15,403828480477593,27,24.5,-43.74851608276367,0.6315000057220459,0,0.0,0.0,,,,,0,,1,,,97.921875,-98.9375,3.828125
Raw,945534616,7744719000000,,,-1260194483828235264,0.0,4208.131227642298,-0.5795473298334063,13.906287625064916,2424,21,0.0,15,403828475289941,21,26.8,366.4758605957031,0.12020000070333481,0,0.0,0.0,,,,,0,,1,,,97.921875,-98.9375,3.828125
Raw,945534616,7744719000000,,,-1260194483828235264,0.0,4208.131227642298,-0.5795473298334063,13.906287625064916,2424,24,0.0,15,403828477776623,31,23.5,162.23486328125,0.6769999861717224,0,0.0,0.0,,,,,0,,1,,,97.921875,-98.9375,3.828125
Raw,945534620,7744719000000,,,-1260194483828235264,0.0,4208.131227642298,-0.5795473298334063,13.906287625064916,2424,27,0.0,15,403828464792638,6,38.0,315.91839599609375,0.01720000058412552,0,0.0,0.0,,,,,0,,1,,,97.921875,-98.9375,3.828125
Raw,945534621,7744719000000,,,-1260194483828235264,0.0,4208.131227642298,-0.5795473298334063,13.906287625064916,2424,32,0.0,15,403828472728870,9,35.2,-412.5385437011719,0.032999999821186066,0,0.0,0.0,,,,,0,,1,,,97.921875,-98.9375,3.828125
Raw,945535620,7745718000000,,,-1260194483827284480,0.0,4196.790046989918,-4.020579967265171,9.969420689975754,2425,10,0.0,15,403829474438025,12,32.2,-350.53924560546875,0.04240000247955322,0,0.0,0.0,,,,,0,,1,,,148.15625,-101.484375,-4.796875
Raw,945535620,7745718000000,,,-1260194483827284480,0.0,4196.790046989918,-4.020579967265171,9.969420689975754,2425,12,0.0,15,403829461172749,24,25.3,-513.7457275390625,0.21090000867843628,0,0.0,0.0,,,,,0,,1,,,148.15625,-101.484375,-4.796875
Raw,945535621,7745718000000,,,-1260194483827284480,0.0,4196.790046989918,-4.020579967265171,9.969420689975754,2425,14,0.0,15,403829463421451,13,31.6,-510.6441955566406,0.05829999968409538,0,0.0,0.0,,,,,0,,1,,,148.15625,-101.484375,-4.796875
Raw,945535622,7745718000000,,,-1260194483827284480,0.0,4196.790046989918,-4.020579967265171,9.969420689975754,2425,15,0.0,15,403829466636177,19,27.7,585.7149047851562,0.07259999960660934,0,0.0,0.0,,,,,0,,1,,,148.15625,-101.484375,-4.796875
Raw,945535623,7745718000000,,,-1260194483827284480,0.0,4196.790046989918,-4.020579967265171,9.969420689975754,2425,20,0.0,15,403829478527108,31,23.2,-40.35177230834961,0.7384999990463257,0,0.0,0.0,,,,,0,,1,,,148.15625,-101.484375,-4.796875
Raw,945535624,7745718000000,,,-1260194483827284480,0.0,4196.790046989918,-4.020579967265171,9.969420689975754,2425,24,0.0,15,403829475825151,35,22.7,166.34521484375,0.7339999675750732,0,0.0,0.0,,,,,0,,1,,,148.15625,-101.484375,-4.796875
Raw,945535624,7745718000000,,,-1260194483827284480,0.0,4196.790046989918,-4.020579967265171,9.969420689975754,2425,27,0.0,15,403829462840781,8,36.7,318.4444580078125,0.04700000211596489,0,0.0,0.0,,,,,0,,1,,,148.15625,-101.484375,-4.796875
Raw,945535625,7745718000000,,,-1260194483827284480,0.0,4196.790046989918,-4.020579967265171,9.969420689975754,2425,32,0.0,15,403829470779420,9,35.4,-410.1783752441406,0.030000001192092896,0,0.0,0.0,,,,,0,,1,,,148.15625,-101.484375,-4.796875
Raw,945536615,7746628000000,,,-1260194483826761984,0.0,4186.956211924553,4.105644973360657,8.41036651580712,2426,10,0.0,15,403830383916508,11,33.3,-349.7375183105469,0.07770000398159027,0,0.0,0.0,,,,,0,,1,,,171.8125,-100.015625,3.078125
Raw,945536616,7746628000000,,,-1260194483826761984,0.0,4186.956211924553,4.105644973360657,8.41036651580712,2426,12,0.0,15,403830370651576,16,29.9,-513.1856079101562,0.08940000087022781,0,0.0,0.0,,,,,0,,1,,,171.8125,-100.015625,3.078125
Raw,945536617,7746628000000,,,-1260194483826761984,0.0,4186.956211924553,4.105644973360657,8.41036651580712,2426,14,0.0,15,403830372900427,16,29.9,-509.279296875,0.09239999949932098,0,0.0,0.0,,,,,0,,1,,,171.8125,-100.015625,3.078125
Raw,945536617,7746628000000,,,-1260194483826761984,0.0,4186.956211924553,4.105644973360657,8.41036651580712,2426,15,0.0,15,403830376111935,27,24.3,586.8847045898438,0.6754999756813049,0,0.0,0.0,,,,,0,,1,,,171.8125,-100.015625,3.078125
Raw,945536618,7746628000000,,,-1260194483826761984,0.0,4186.956211924553,4.105644973360657,8.41036651580712,2426,20,0.0,15,403830388004722,24,25.7,-39.76070785522461,1.1725000143051147,0,0.0,0.0,,,,,0,,1,,,171.8125,-100.015625,3.078125
Raw,945536619,7746628000000,,,-1260194483826761984,0.0,4186.956211924553,4.105644973360657,8.41036651580712,2426,24,0.0,15,403830385301973,16,29.4,166.12416076660156,0.08190000057220459,0,0.0,0.0,,,,,0,,1,,,171.8125,-100.015625,3.078125
Raw,945536619,7746628000000,,,-1260194483826761984,0.0,4186.956211924553,4.105644973360657,8.41036651580712,2426,27,0.0,15,403830372317228,12,32.3,319.6590881347656,0.06650000065565109,0,0.0,0.0,,,,,0,,1,,,171.8125,-100.015625,3.078125
Raw,945536620,7746628000000,,,-1260194483826761984,0.0,4186.956211924553,4.105644973360657,8.41036651580712,2426,32,0.0,15,403830380258068,9,35.1,-409.10723876953125,0.06450000405311584,0,0.0,0.0,,,,,0,,1,,,171.8125,-100.015625,3.078125
Raw,945537604,7747816000000,,,-1260194483826212864,0.0,4264.186602085829,7.818686263849778,13.317595235469625,2427,10,0.0,15,403831571369107,10,34.1,-352.0815734863281,0.05509999766945839,0,0.0,0.0,,,,,0,,1,,,221.125,-104.84375,-4.421875
Raw,945537604,7747816000000,,,-1260194483826212864,0.0,4264.186602085829,7.818686263849778,13.317595235469625,2427,12,0.0,15,403831558104927,16,29.4,-515.4561767578125,0.1013999953866005,0,0.0,0.0,,,,,0,,1,,,221.125,-104.84375,-4.421875
Raw,945537605,7747816000000,,,-1260194483826212864,0.0,4264.186602085829,7.818686263849778,13.317595235469625,2427,15,0.0,15,403831563560792,8,36.3,583.7784423828125,0.03500000014901161,0,0.0,0.0,,,,,0,,1,,,221.125,-104.84375,-4.421875
Raw,945537605,7747816000000,,,-1260194483826212864,0.0,4264.186602085829,7.818686263849778,13.317595235469625,2427,20,0.0,15,403831575455912,16,29.8,-42.03357696533203,0.09690000116825104,0,0.0,0.0,,,,,0,,1,,,221.125,-104.84375,-4.421875
Raw,945537606,7747816000000,,,-1260194483826212864,0.0,4264.186602085829,7.818686263849778,13.317595235469625,2427,24,0.0,15,403831572752605,11,33.0,163.8973846435547,0.06120000407099724,0,0.0,0.0,,,,,0,,1,,,221.125,-104.84375,-4.421875
Raw,945537606,7747816000000,,,-1260194483826212864,0.0,4264.186602085829,7.818686263849778,13.317595235469625,2427,27,0.0,15,403831559767115,16,29.4,317.1835632324219,0.10289999842643738,0,0.0,0.0,,,,,0,,1,,,221.125,-104.84375,-4.421875
Raw,945537607,7747816000000,,,-1260194483826212864,0.0,4264.186602085829,7.818686263849778,13.317595235469625,2427,32,0.0,15,403831567710832,19,27.6,-411.71429443359375,0.17419999837875366,0,0.0,0.0,,,,,0,,1,,,221.125,-104.84375,-4.421875
Raw,945538616,7748833000000,,,-1260194483826105600,0.0,4222.8796519339085,-0.2591184018663579,8.878858085336592,2428,10,0.0,15,403832588262796,19,27.0,-350.6959533691406,0.17570000886917114,0,0.0,0.0,,,,,0,,1,,,225.98438,-101.390625,3.953125
Raw,945538618,7748833000000,,,-1260194483826105600,0.0,4222.8796519339085,-0.2591184018663579,8.878858085336592,2428,12,0.0,15,403832574999175,21,26.3,-514.2322998046875,0.271699994802475,0,0.0,0.0,,,,,0,,1,,,225.98438,-101.390625,3.953125
Raw,945538618,7748833000000,,,-1260194483826105600,0.0,4222.8796519339085,-0.2591184018663579,8.878858085336592,2428,14,0.0,15,403832577247847,19,27.4,-510.6024169921875,0.1891999989748001,0,0.0,0.0,,,,,0,,1,,,225.98438,-101.390625,3.953125
Raw,945538619,7748833000000,,,-1260194483826105600,0.0,4222.8796519339085,-0.2591184018663579,8.878858085336592,2428,15,0.0,15,403832580451370,9,35.2,585.3936767578125,0.06450000405311584,0,0.0,0.0,,,,,0,,1,,,225.98438,-101.390625,3.953125
Raw,945538620,7748833000000,,,-1260194483826105600,0.0,4222.8796519339085,-0.2591184018663579,8.878858085336592,2428,20,0.0,15,403832592348594,16,29.6,-40.40607833862305,0.09239999949932098,0,0.0,0.0,,,,,0,,1,,,225.98438,-101.390625,3.953125
Raw,945538620,7748833000000,,,-1260194483826105600,0.0,4222.8796519339085,-0.2591184018663579,8.878858085336592,2428,21,0.0,15,403832587155239,31,23.4,369.226806640625,0.722000002861023,0,0.0,0.0,,,,,0,,1,,,225.98438,-101.390625,3.953125
Raw,945538621,7748833000000,,,-1260194483826105600,0.0,4222.8796519339085,-0.2591184018663579,8.878858085336592,2428,24,0.0,15,403832589644548,12,32.1,165.5704345703125,0.06199999898672104,0,0.0,0.0,,,,,0,,1,,,225.98438,-101.390625,3.953125
Raw,945539607,7749928000000,,,-1260194483825196544,0.0,4216.204863041639,4.982504639302185,13.322060725797789,2429,10,0.0,15,403833682354899,35,22.8,-348.5228576660156,0.7444999814033508,0,0.0,0.0,,,,,0,,1,,,254.53125,-101.265625,6.890625
Raw,945539608,7749928000000,,,-1260194483825196544,0.0,4216.204863041639,4.982504639302185,13.322060725797789,2429,15,0.0,15,403833674540365,8,36.8,588.5701293945312,0.03500000014901161,0,0.0,0.0,,,,,0,,1,,,254.53125,-101.265625,6.890625
Raw,945539608,7749928000000,,,-1260194483825196544,0.0,4216.204863041639,4.982504639302185,13.322060725797789,2429,20,0.0,15,403833686439886,21,26.7,-37.19462585449219,0.10669999569654465,0,0.0,0.0,,,,,0,,1,,,254.53125,-101.265625,6.890625
Raw,945539609,7749928000000,,,-1260194483825196544,0.0,4216.204863041639,4.982504639302185,13.322060725797789,2429,21,0.0,15,403833681245087,35,22.3,371.4627685546875,0.8029999732971191,0,0.0,0.0,,,,,0,,1,,,254.53125,-101.265625,6.890625
Raw,945539609,7749928000000,,,-1260194483825196544,0.0,4216.204863041639,4.982504639302185,13.322060725797789,2429,24,0.0,15,403833683735116,10,34.1,168.7578582763672,0.051600001752376556,0,0.0,0.0,,,,,0,,1,,,254.53125,-101.265625,6.890625
Raw,945539610,7749928000000,,,-1260194483825196544,0.0,4216.204863041639,4.982504639302185,13.322060725797789,2429,32,0.0,15,403833678697433,27,24.3,-407.2094421386719,0.6784999966621399,0,0.0,0.0,,,,,0,,1,,,254.53125,-101.265625,6.890625
Raw,945540618,7750717000000,,,-1260194483825096960,0.0,4181.219730526209,15.394877713829056,13.91083821022213,2430,10,0.0,15,403834471256219,27,24.3,-348.056640625,0.6679999828338623,0,0.0,0.0,,,,,0,,1,,,292.8125,-104.796875,-3.828125
Raw,945540619,7750717000000,,,-1260194483825096960,0.0,4181.219730526209,15.394877713829056,13.91083821022213,2430,12,0.0,15,403834457993954,35,22.3,-510.91949462890625,0.796999990940094,0,0.0,0.0,,,,,0,,1,,,292.8125,-104.796875,-3.828125
Raw,945540620,7750717000000,,,-1260194483825096960,0.0,4181.219730526209,15.394877713829056,13.91083821022213,2430,15,0.0,15,403834463438889,12,32.4,588.0899658203125,0.05590000003576279,0,0.0,0.0,,,,,0,,1,,,292.8125,-104.796875,-3.828125
Raw,945540620,7750717000000,,,-1260194483825096960,0.0,4181.219730526209,15.394877713829056,13.91083821022213,2430,20,0.0,15,403834475340046,19,27.9,-37.39567565917969,0.0861000046133995,0,0.0,0.0,,,,,0,,1,,,292.8125,-104.796875,-3.828125
Raw,945540621,7750717000000,,,-1260194483825096960,0.0,4181.219730526209,15.394877713829056,13.91083821022213,2430,21,0.0,15,403834470144189,17,28.0,372.2294921875,0.055799998342990875,0,0.0,0.0,,,,,0,,1,,,292.8125,-104.796875,-3.828125
Raw,945540622,7750717000000,,,-1260194483825096960,0.0,4181.219730526209,15.394877713829056,13.91083821022213,2430,24,0.0,15,403834472634723,10,34.6,168.6826171875,0.035100001841783524,0,0.0,0.0,,,,,0,,1,,,292.8125,-104.796875,-3.828125
Raw,945540622,7750717000000,,,-1260194483825096960,0.0,4181.219730526209,15.394877713829056,13.91083821022213,2430,27,0.0,15,403834459647609,53,19.7,322.2623291015625,0.9300000071525574,0,0.0,0.0,,,,,0,,1,,,292.8125,-104.796875,-3.828125
Raw,945540623,7750717000000,,,-1260194483825096960,0.0,4181.219730526209,15.394877713829056,13.91083821022213,2430,32,0.0,15,403834467598421,35,22.0,-408.0086669921875,0.7820000052452087,0,0.0,0.0,,,,,0,,1,,,292.8125,-104.796875,-3.828125
Raw,945541605,7751732000000,,,-1260194483824351488,0.0,4205.0969786942005,14.315894368170849,11.7525716988071,2431,15,0.0,15,403835477691575,9,35.6,587.4898681640625,0.04050000011920929,0,0.0,0.0,,,,,0,,1,,,305.70312,-104.890625,6.59375
Raw,945541606,7751732000000,,,-1260194483824351488,0.0,4205.0969786942005,14.315894368170849,11.7525716988071,2431,21,0.0,15,403835484397605,16,29.1,371.1906433105469,0.065700002014637,0,0.0,0.0,,,,,0,,1,,,305.70312,-104.890625,6.59375
Raw,945541607,7751732000000,,,-1260194483824351488,0.0,4205.0969786942005,14.315894368170849,11.7525716988071,2431,24,0.0,15,403835486888909,13,31.1,167.97232055664062,0.03280000016093254,0,0.0,0.0,,,,,0,,1,,,305.70312,-104.890625,6.59375
Raw,945541607,7751732000000,,,-1260194483824351488,0.0,4205.0969786942005,14.315894368170849,11.7525716988071,2431,32,0.0,15,403835481854377,40,21.9,-408.845947265625,0.8029999732971191,0,0.0,0.0,,,,,0,,1,,,305.70312,-104.890625,6.59375
Raw,945542608,7752725000000,,,-1260194483824147968,0.0,4216.91220253706,11.481291769633328,13.054148006962295,2432,14,0.0,15,403836467296988,14,30.2,-507.8319091796875,0.037300001829862595,0,0.0,0.0,,,,,0,,1,,,343.14062,-103.890625,0.9375
Raw,945542608,7752725000000,,,-1260194483824147968,0.0,4216.91220253706,11.481291769633328,13.054148006962295,2432,15,0.0,15,403836470486193,13,31.7,588.10302734375,0.03880000114440918,0,0.0,0.0,,,,,0,,1,,,343.14062,-103.890625,0.9375
Raw,945542609,7752725000000,,,-1260194483824147968,0.0,4216.91220253706,11.481291769633328,13.054148006962295,2432,20,0.0,15,403836482391603,19,27.9,-37.473026275634766,0.0966000035405159,0,0.0,0.0,,,,,0,,1,,,343.14062,-103.890625,0.9375
Raw,945542610,7752725000000,,,-1260194483824147968,0.0,4216.91220253706,11.481291769633328,13.054148006962295,2432,21,0.0,15,403836477192961,11,33.2,371.87158203125,0.04450000077486038,0,0.0,0.0,,,,,0,,1,,,343.14062,-103.890625,0.9375
Raw,945542610,7752725000000,,,-1260194483824147968,0.0,4216.91220253706,11.481291769633328,13.054148006962295,2432,27,0.0,15,403836466696886,24,25.4,321.4763488769531,0.188400000333786,0,0.0,0.0,,,,,0,,1,,,343.14062,-103.890625,0.9375
Raw,945542611,7752725000000,,,-1260194483824147968,0.0,4216.91220253706,11.481291769633328,13.054148006962295,2432,32,0.0,15,403836474652610,31,23.6,-407.0572204589844,0.67249995470047,0,0.0,0.0,,,,,0,,1,,,343.14062,-103.890625,0.9375
Raw,945543604,7753712000000,,,-1260194483824004864,0.0,4201.72605663538,13.254516108780592,7.127232722471178,2433,14,0.0,15,403837454155689,10,34.0,-512.4456787109375,0.038100000470876694,0,0.0,0.0,,,,,0,,1,,,28.203125,-100.90625,-2.90625
Raw,945543605,7753712000000,,,-1260194483824004864,0.0,4201.72605663538,13.254516108780592,7.127232722471178,2433,15,0.0,15,403837457341240,17,28.5,582.958740234375,0.06629999727010727,0,0.0,0.0,,,,,0,,1,,,28.203125,-100.90625,-2.90625
Raw,945543606,7753712000000,,,-1260194483824004864,0.0,4201.72605663538,13.254516108780592,7.127232722471178,2433,21,0.0,15,403837464048725,17,28.6,367.44500732421875,0.046799998730421066,0,0.0,0.0,,,,,0,,1,,,28.203125,-100.90625,-2.90625
Raw,945543607,7753712000000,,,-1260194483824004864,0.0,4201.72605663538,13.254516108780592,7.127232722471178,2433,24,0.0,15,403837466541321,17,28.7,163.8506317138672,0.049799997359514236,0,0.0,0.0,,,,,0,,1,,,28.203125,-100.90625,-2.90625
Raw,945543607,7753712000000,,,-1260194483824004864,0.0,4201.72605663538,13.254516108780592,7.127232722471178,2433,27,0.0,15,403837453552924,16,29.7,316.9052429199219,0.04920000210404396,0,0.0,0.0,,,,,0,,1,,,28.203125,-100.90625,-2.90625
Raw,945543609,7753712000000,,,-1260194483824004864,0.0,4201.72605663538,13.254516108780592,7.127232722471178,2433,32,0.0,15,403837461511030,10,34.4,-412.0460510253906,0.04859999939799309,0,0.0,0.0,,,,,0,,1,,,28.203125,-100.90625,-2.90625
Raw,945544601,7754724000000,,,-1260194483823734528,0.0,4195.209592580795,-2.928250253185372,9.770647917382442,2434,10,0.0,15,403838476898728,19,27.8,-353.147216796875,0.08760000020265579,0,0.0,0.0,,,,,0,,1,,,59.5,-101.546875,3.59375
Raw,945544602,7754724000000,,,-1260194483823734528,0.0,4195.209592580795,-2.928250253185372,9.770647917382442,2434,14,0.0,15,403838465886889,10,34.4,-513.1157836914062,0.02459999918937683,0,0.0,0.0,,,,,0,,1,,,59.5,-101.546875,3.59375
Raw,945544602,7754724000000,,,-1260194483823734528,0.0,4195.209592580795,-2.928250253185372,9.770647917382442,2434,20,0.0,15,403838480978433,35,22.1,-43.13957595825195,0.8014999628067017,0,0.0,0.0,,,,,0,,1,,,59.5,-101.546875,3.59375
Raw,945544603,7754724000000,,,-1260194483823734528,0.0,4195.209592580795,-2.928250253185372,9.770647917382442,2434,21,0.0,15,403838475776999,17,28.3,366.5881652832031,0.0632999986410141,0,0.0,0.0,,,,,0,,1,,,59.5,-101.546875,3.59375
Raw,945544604,7754724000000,,,-1260194483823734528,0.0,4195.209592580795,-2.928250253185372,9.770647917382442,2434,24,0.0,15,403838478270244,24,25.9,163.71926879882812,0.20640000700950623,0,0.0,0.0,,,,,0,,1,,,59.5,-101.546875,3.59375
Raw,945544604,7754724000000,,,-1260194483823734528,0.0,4195.209592580795,-2.928250253185372,9.770647917382442,2434,27,0.0,15,403838465281329,10,34.8,316.176513671875,0.02459999918937683,0,0.0,0.0,,,,,0,,1,,,59.5,-101.546875,3.59375
Raw,945544605,7754724000000,,,-1260194483823734528,0.0,4195.209592580795,-2.928250253185372,9.770647917382442,2434,32,0.0,15,403838473241856,8,36.1,-412.60772705078125,0.03350000083446503,0,0.0,0.0,,,,,0,,1,,,59.5,-101.546875,3.59375
Raw,945545600,7755620000000,,,-1260194483823173632,0.0,4196.165129542351,-5.9463347992868885,10.021050188124347,2435,10,0.0,15,403839372338798,8,36.0,-346.08258056640625,0.048500001430511475,0,0.0,0.0,,,,,0,,1,,,105.515625,-99.625,-4.765625
Raw,945545601,7755620000000,,,-1260194483823173632,0.0,4196.165129542351,-5.9463347992868885,10.021050188124347,2435,14,0.0,15,403839361327621,19,27.3,-506.3120422363281,0.19520001113414764,0,0.0,0.0,,,,,0,,1,,,105.515625,-99.625,-4.765625
Raw,945545602,7755620000000,,,-1260194483823173632,0.0,4196.165129542351,-5.9463347992868885,10.021050188124347,2435,21,0.0,15,403839371214960,21,26.7,373.7225036621094,0.2671999931335449,0,0.0,0.0,,,,,0,,1,,,105.515625,-99.625,-4.765625
Raw,945545603,7755620000000,,,-1260194483823173632,0.0,4196.165129542351,-5.9463347992868885,10.021050188124347,2435,27,0.0,15,403839360719497,7,37.0,323.2887268066406,0.057500001043081284,0,0.0,0.0,,,,,0,,1,,,105.515625,-99.625,-4.765625
Raw,945545604,7755620000000,,,-1260194483823173632,0.0,4196.165129542351,-5.9463347992868885,10.021050188124347,2435,32,0.0,15,403839368682242,13,31.3,-405.52947998046875,0.06709999591112137,0,0.0,0.0,,,,,0,,1,,,105.515625,-99.625,-4.765625
Raw,945546590,7756932000000,,,-1260194483822253568,0.0,4268.11445504427,18.319442247526293,17.067014963016835,2436,10,0.0,15,403840683420486,13,31.4,-349.34112548828125,0.05829999968409538,0,0.0,0.0,,,,,0,,1,,,134.0,-100.484375,-3.4375
Raw,945546591,7756932000000,,,-1260194483822253568,0.0,4268.11445504427,18.319442247526293,17.067014963016835,2436,12,0.0,15,403840670161082,40,21.5,-512.9461059570312,0.7864999771118164,0,0.0,0.0,,,,,0,,1,,,134.0,-100.484375,-3.4375
Raw,945546591,7756932000000,,,-1260194483822253568,0.0,4268.11445504427,18.319442247526293,17.067014963016835,2436,14,0.0,15,403840672409880,17,28.0,-511.2299499511719,0.058800000697374344,0,0.0,0.0,,,,,0,,1,,,134.0,-100.484375,-3.4375
Raw,945546592,7756932000000,,,-1260194483822253568,0.0,4268.11445504427,18.319442247526293,17.067014963016835,2436,21,0.0,15,403840682293229,35,22.0,369.7025451660156,0.8044999837875366,0,0.0,0.0,,,,,0,,1,,,134.0,-100.484375,-3.4375
Raw,945546592,7756932000000,,,-1260194483822253568,0.0,4268.11445504427,18.319442247526293,17.067014963016835,2436,24,0.0,15,403840684788198,31,23.7,167.55357360839844,0.6574999690055847,0,0.0,0.0,,,,,0,,1,,,134.0,-100.484375,-3.4375
Raw,945546593,7756932000000,,,-1260194483822253568,0.0,4268.11445504427,18.319442247526293,17.067014963016835,2436,27,0.0,15,403840671798179,11,33.9,320.20233154296875,0.03550000116229057,0,0.0,0.0,,,,,0,,1,,,134.0,-100.484375,-3.4375
Raw,945546593,7756932000000,,,-1260194483822253568,0.0,4268.11445504427,18.319442247526293,17.067014963016835,2436,32,0.0,15,403840679764074,12,32.2,-408.72418212890625,0.04990000277757645,0,0.0,0.0,,,,,0,,1,,,134.0,-100.484375,-3.4375
Raw,945547622,7757624000000,,,-1260194483821800448,0.0,4202.5684379041195,5.044036948771578,10.703331779377443,2437,10,0.0,15,403841374967941,16,29.6,-350.21868896484375,0.09539999812841415,0,0.0,0.0,,,,,0,,1,,,163.09375,-100.03125,4.546875
Raw,945547623,7757624000000,,,-1260194483821800448,0.0,4202.5684379041195,5.044036948771578,10.703331779377443,2437,12,0.0,15,403841361709041,21,26.8,-514.0487060546875,0.28220000863075256,0,0.0,0.0,,,,,0,,1,,,163.09375,-100.03125,4.546875
Raw,945547624,7757624000000,,,-1260194483821800448,0.0,4202.5684379041195,5.044036948771578,10.703331779377443,2437,14,0.0,15,403841363957703,16,29.1,-510.1737060546875,0.07889999449253082,0,0.0,0.0,,,,,0,,1,,,163.09375,-100.03125,4.546875
Raw,945547624,7757624000000,,,-1260194483821800448,0.0,4202.5684379041195,5.044036948771578,10.703331779377443,2437,15,0.0,15,403841367129055,31,23.7,585.3623657226562,0.6620000004768372,0,0.0,0.0,,,,,0,,1,,,163.09375,-100.03125,4.546875
Raw,945547625,7757624000000,,,-1260194483821800448,0.0,4202.5684379041195,5.044036948771578,10.703331779377443,2437,20,0.0,15,403841379044508,27,24.0,-40.37080383300781,0.6800000071525574,0,0.0,0.0,,,,,0,,1,,,163.09375,-100.03125,4.546875
Raw,945547625,7757624000000,,,-1260194483821800448,0.0,4202.5684379041195,5.044036948771578,10.703331779377443,2437,21,0.0,15,403841373839181,31,23.9,370.7681884765625,0.6710000038146973,0,0.0,0.0,,,,,0,,1,,,163.09375,-100.03125,4.546875
Raw,945547626,7757624000000,,,-1260194483821800448,0.0,4202.5684379041195,5.044036948771578,10.703331779377443,2437,24,0.0,15,403841376334463,12,32.1,166.39529418945312,0.07249999791383743,0,0.0,0.0,,,,,0,,1,,,163.09375,-100.03125,4.546875
Raw,945547627,7757624000000,,,-1260194483821800448,0.0,4202.5684379041195,5.044036948771578,10.703331779377443,2437,27,0.0,15,403841363344072,13,31.9,319.5348815917969,0.08959999680519104,0,0.0,0.0,,,,,0,,1,,,163.09375,-100.03125,4.546875
Raw,945547627,7757624000000,,,-1260194483821800448,0.0,4202.5684379041195,5.044036948771578,10.703331779377443,2437,32,0.0,15,403841371311652,11,33.1,-409.73394775390625,0.059700001031160355,0,0.0,0.0,,,,,0,,1,,,163.09375,-100.03125,4.546875
Raw,945548613,7758839000000,,,-1260194483821042176,0.0,4278.13408896327,4.8431717977181785,9.448601367532214,2438,10,0.0,15,403842589211234,11,33.0,-347.0157470703125,0.056700002402067184,0,0.0,0.0,,,,,0,,1,,,220.65625,-102.6875,-7.0625
Raw,945548613,7758839000000,,,-1260194483821042176,0.0,4278.13408896327,4.8431717977181785,9.448601367532214,2438,12,0.0,15,403842575953098,13,31.7,-510.8381652832031,0.07760000228881836,0,0.0,0.0,,,,,0,,1,,,220.65625,-102.6875,-7.0625
Raw,945548614,7758839000000,,,-1260194483821042176,0.0,4278.13408896327,4.8431717977181785,9.448601367532214,2438,15,0.0,15,403842581368583,7,37.3,588.6315307617188,0.05900000035762787,0,0.0,0.0,,,,,0,,1,,,220.65625,-102.6875,-7.0625
Raw,945548615,7758839000000,,,-1260194483821042176,0.0,4278.13408896327,4.8431717977181785,9.448601367532214,2438,20,0.0,15,403842593286655,19,27.2,-36.56480407714844,0.18320000171661377,0,0.0,0.0,,,,,0,,1,,,220.65625,-102.6875,-7.0625
Raw,945548615,7758839000000,,,-1260194483821042176,0.0,4278.13408896327,4.8431717977181785,9.448601367532214,2438,24,0.0,15,403842590575758,8,36.8,170.05198669433594,0.045499999076128006,0,0.0,0.0,,,,,0,,1,,,220.65625,-102.6875,-7.0625
Raw,945548617,7758839000000,,,-1260194483821042176,0.0,4278.13408896327,4.8431717977181785,9.448601367532214,2438,27,0.0,15,403842577584692,21,26.9,322.38671875,0.27619999647140503,0,0.0,0.0,,,,,0,,1,,,220.65625,-102.6875,-7.0625
Raw,945548618,7758839000000,,,-1260194483821042176,0.0,4278.13408896327,4.8431717977181785,9.448601367532214,2438,32,0.0,15,403842585555172,24,25.3,-406.4234619140625,1.1679999828338623,0,0.0,0.0,,,,,0,,1,,,220.65625,-102.6875,-7.0625
Raw,945549597,7759828000000,,,-1260194483820682496,0.0,4244.084004312754,15.455280727436294,13.186005228050357,2439,10,0.0,15,403843577852633,17,28.1,-348.6659851074219,0.12290000170469284,0,0.0,0.0,,,,,0,,1,,,222.73438,-104.203125,3.546875
Raw,945549597,7759828000000,,,-1260194483820682496,0.0,4244.084004312754,15.455280727436294,13.186005228050357,2439,12,0.0,15,403843564594920,19,27.5,-512.373779296875,0.1697000116109848,0,0.0,0.0,,,,,0,,1,,,222.73438,-104.203125,3.546875
Raw,945549598,7759828000000,,,-1260194483820682496,0.0,4244.084004312754,15.455280727436294,13.186005228050357,2439,15,0.0,15,403843570006792,6,38.2,587.04248046875,0.039900001138448715,0,0.0,0.0,,,,,0,,1,,,222.73438,-104.203125,3.546875
Raw,945549598,7759828000000,,,-1260194483820682496,0.0,4244.084004312754,15.455280727436294,13.186005228050357,2439,20,0.0,15,403843581926975,13,31.2,-37.943058013916016,0.08659999817609787,0,0.0,0.0,,,,,0,,1,,,222.73438,-104.203125,3.546875
Raw,945549599,7759828000000,,,-1260194483820682496,0.0,4244.084004312754,15.455280727436294,13.186005228050357,2439,24,0.0,15,403843579215347,11,33.6,168.52999877929688,0.07170000672340393,0,0.0,0.0,,,,,0,,1,,,222.73438,-104.203125,3.546875
Raw,945549599,7759828000000,,,-1260194483820682496,0.0,4244.084004312754,15.455280727436294,13.186005228050357,2439,27,0.0,15,403843566223750,16,29.2,321.07965087890625,0.08339999616146088,0,0.0,0.0,,,,,0,,1,,,222.73438,-104.203125,3.546875
Raw,945549600,7759828000000,,,-1260194483820682496,0.0,4244.084004312754,15.455280727436294,13.186005228050357,2439,32,0.0,15,403843574196805,24,25.4,-407.8352966308594,1.1815000772476196,0,0.0,0.0,,,,,0,,1,,,222.73438,-104.203125,3.546875
Raw,945550614,7760925000000,,,-1260194483820271616,0.0,4250.092431902885,9.861374115446056,14.920161497318544,2440,10,0.0,15,403844674443213,31,23.5,-347.8568420410156,0.67249995470047,0,0.0,0.0,,,,,0,,1,,,259.1875,-102.953125,4.765625
