# 
# Header Description:
# 
# Version: v2.0.0.1 Platform: 8.0.0 Manufacturer: Xiaomi Model: MIX 2
# 
# Raw,ElapsedRealtimeMillis,TimeNanos,LeapSecond,TimeUncertaintyNanos,FullBiasNanos,BiasNanos,BiasUncertaintyNanos,DriftNanosPerSecond,DriftUncertaintyNanosPerSecond,HardwareClockDiscontinuityCount,Svid,TimeOffsetNanos,State,ReceivedSvTimeNanos,ReceivedSvTimeUncertaintyNanos,Cn0DbHz,PseudorangeRateMetersPerSecond,PseudorangeRateUncertaintyMetersPerSecond,AccumulatedDeltaRangeState,AccumulatedDeltaRangeMeters,AccumulatedDeltaRangeUncertaintyMeters,CarrierFrequencyHz,CarrierCycles,CarrierPhase,CarrierPhaseUncertainty,MultipathIndicator,SnrInDb,ConstellationType,AgcDb,CarrierFrequencyHz,AngleZ,AngleX,AngleY
# 
# Fix,Provider,Latitude,Longitude,Altitude,Speed,Accuracy,SpeedAccuracy,BearingAccuracy,TimeInMs
# 
# Nav,Svid,Type,Status,MessageId,Sub-messageId,Data(Bytes)
# 
Raw,945654608,7864672000000,,,-1260194483776393728,0.0,2430.2219972014427,44.24655626010755,20.955172663623483,2528,10,0.0,15,403948377685554,13,31.5,-325.7351989746094,0.7129999995231628,0,0.0,0.0,,,,,0,,1,,,198.64062,-81.53125,-8.390625
Raw,945654609,7864672000000,,,-1260194483776393728,0.0,2430.2219972014427,44.24655626010755,20.955172663623483,2528,12,0.0,15,403948364486029,564,19.7,-497.8843994140625,1.6575000286102295,0,0.0,0.0,,,,,0,,1,,,198.64062,-81.53125,-8.390625
Raw,945654610,7864672000000,,,-1260194483776393728,0.0,2430.2219972014427,44.24655626010755,20.955172663623483,2528,14,0.0,15,403948366732647,369,23.3,-490.2250671386719,1.4704999923706055,0,0.0,0.0,,,,,0,,1,,,198.64062,-81.53125,-8.390625
Raw,945654611,7864672000000,,,-1260194483776393728,0.0,2430.2219972014427,44.24655626010755,20.955172663623483,2528,15,0.0,15,403948369513412,14,30.2,605.2005004882812,0.4000000059604645,0,0.0,0.0,,,,,0,,1,,,198.64062,-81.53125,-8.390625
Raw,945654611,7864672000000,,,-1260194483776393728,0.0,2430.2219972014427,44.24655626010755,20.955172663623483,2528,20,0.0,15,403948381650747,425,21.5,-14.804847717285156,1.5230000019073486,0,0.0,0.0,,,,,0,,1,,,198.64062,-81.53125,-8.390625
Raw,945654612,7864672000000,,,-1260194483776393728,0.0,2430.2219972014427,44.24655626010755,20.955172663623483,2528,24,0.0,15,403948378866020,10,34.1,199.0852508544922,0.3034999966621399,0,0.0,0.0,,,,,0,,1,,,198.64062,-81.53125,-8.390625
Raw,945654612,7864672000000,,,-1260194483776393728,0.0,2430.2219972014427,44.24655626010755,20.955172663623483,2528,27,0.0,15,403948365822239,14,30.4,345.2593078613281,0.406000018119812,0,0.0,0.0,,,,,0,,1,,,198.64062,-81.53125,-8.390625
Raw,945654613,7864672000000,,,-1260194483776393728,0.0,2430.2219972014427,44.24655626010755,20.955172663623483,2528,32,0.0,15,403948374050461,564,20.2,-389.036376953125,1.6725000143051147,0,0.0,0.0,,,,,0,,1,,,198.64062,-81.53125,-8.390625
Raw,945655611,7865672000000,,,-1260194483776393216,0.0,74.29960533045232,65.29929054287578,13.274382967887956,2528,10,0.0,15,403949377686703,17,28.1,-326.5898742675781,0.058800000697374344,0,0.0,0.0,,,,,0,,1,,,211.17188,-92.03125,-1.71875
Raw,945655611,7865672000000,,,-1260194483776393216,0.0,74.29960533045232,65.29929054287578,13.274382967887956,2528,12,0.0,15,403949364487607,28,24.3,-498.43621826171875,1.0325000286102295,0,0.0,0.0,,,,,0,,1,,,211.17188,-92.03125,-1.71875
Raw,945655612,7865672000000,,,-1260194483776393216,0.0,74.29960533045232,65.29929054287578,13.274382967887956,2528,14,0.0,15,403949366734260,53,19.4,-487.18035888671875,0.984499990940094,0,0.0,0.0,,,,,0,,1,,,211.17188,-92.03125,-1.71875
Raw,945655612,7865672000000,,,-1260194483776393216,0.0,74.29960533045232,65.29929054287578,13.274382967887956,2528,15,0.0,15,403949369511432,10,34.1,602.87890625,0.3199999928474426,0,0.0,0.0,,,,,0,,1,,,211.17188,-92.03125,-1.71875
Raw,945655613,7865672000000,,,-1260194483776393216,0.0,74.29960533045232,65.29929054287578,13.274382967887956,2528,20,0.0,15,403949381650803,31,23.5,-14.053187370300293,0.6620000004768372,0,0.0,0.0,,,,,0,,1,,,211.17188,-92.03125,-1.71875
Raw,945655613,7865672000000,,,-1260194483776393216,0.0,74.29960533045232,65.29929054287578,13.274382967887956,2528,21,0.0,15,403949376297938,41,21.1,393.6415100097656,1.1944999694824219,0,0.0,0.0,,,,,0,,1,,,211.17188,-92.03125,-1.71875
Raw,945655614,7865672000000,,,-1260194483776393216,0.0,74.29960533045232,65.29929054287578,13.274382967887956,2528,24,0.0,15,403949378865385,11,33.7,197.56289672851562,0.3334999978542328,0,0.0,0.0,,,,,0,,1,,,211.17188,-92.03125,-1.71875
Raw,945655614,7865672000000,,,-1260194483776393216,0.0,74.29960533045232,65.29929054287578,13.274382967887956,2528,27,0.0,15,403949365821060,21,26.6,344.05096435546875,0.5339999794960022,0,0.0,0.0,,,,,0,,1,,,211.17188,-92.03125,-1.71875
Raw,945655615,7865672000000,,,-1260194483776393216,0.0,74.29960533045232,65.29929054287578,13.274382967887956,2528,32,0.0,15,403949374051707,38,23.5,-385.88702392578125,2.1725001335144043,0,0.0,0.0,,,,,0,,1,,,211.17188,-92.03125,-1.71875
Raw,945656605,7866672000000,,,-1260194483776393216,0.0,61.2404546700418,64.202295723495,17.55559766026855,2528,10,0.0,15,403950377687798,14,30.4,-325.1452941894531,0.44200000166893005,0,0.0,0.0,,,,,0,,1,,,248.875,-88.578125,-1.421875
Raw,945656606,7866672000000,,,-1260194483776393216,0.0,61.2404546700418,64.202295723495,17.55559766026855,2528,12,0.0,15,403950364489184,46,20.3,-494.33538818359375,0.92249995470047,0,0.0,0.0,,,,,0,,1,,,248.875,-88.578125,-1.421875
Raw,945656607,7866672000000,,,-1260194483776393216,0.0,61.2404546700418,64.202295723495,17.55559766026855,2528,14,0.0,15,403950366735885,61,19.4,-487.18035888671875,2.4755001068115234,0,0.0,0.0,,,,,0,,1,,,248.875,-88.578125,-1.421875
Raw,945656607,7866672000000,,,-1260194483776393216,0.0,61.2404546700418,64.202295723495,17.55559766026855,2528,15,0.0,15,403950369509405,10,34.2,605.5230102539062,0.035600002855062485,0,0.0,0.0,,,,,0,,1,,,248.875,-88.578125,-1.421875
Raw,945656608,7866672000000,,,-1260194483776393216,0.0,61.2404546700418,64.202295723495,17.55559766026855,2528,20,0.0,15,403950381650818,24,25.5,-10.732563018798828,0.578000009059906,0,0.0,0.0,,,,,0,,1,,,248.875,-88.578125,-1.421875
Raw,945656608,7866672000000,,,-1260194483776393216,0.0,61.2404546700418,64.202295723495,17.55559766026855,2528,21,0.0,15,403950376296325,27,24.0,397.6091003417969,0.6904999613761902,0,0.0,0.0,,,,,0,,1,,,248.875,-88.578125,-1.421875
Raw,945656608,7866672000000,,,-1260194483776393216,0.0,61.2404546700418,64.202295723495,17.55559766026855,2528,24,0.0,15,403950378864709,8,36.6,200.11038208007812,0.04820000380277634,0,0.0,0.0,,,,,0,,1,,,248.875,-88.578125,-1.421875
Raw,945656609,7866672000000,,,-1260194483776393216,0.0,61.2404546700418,64.202295723495,17.55559766026855,2528,27,0.0,15,403950365819826,35,22.9,345.6969909667969,0.7339999675750732,0,0.0,0.0,,,,,0,,1,,,248.875,-88.578125,-1.421875
Raw,945656609,7866672000000,,,-1260194483776393216,0.0,61.2404546700418,64.202295723495,17.55559766026855,2528,32,0.0,15,403950374052817,36,22.9,-383.7747497558594,1.0924999713897705,0,0.0,0.0,,,,,0,,1,,,248.875,-88.578125,-1.421875
Raw,945657619,7867672000000,,,-1260194483776393216,0.0,62.599639932159334,68.37878174440006,19.445001889989346,2528,10,0.0,15,403951377688817,14,30.8,-324.4118347167969,0.05130000039935112,0,0.0,0.0,,,,,0,,1,,,288.4375,-99.234375,-9.203125
Raw,945657619,7867672000000,,,-1260194483776393216,0.0,62.599639932159334,68.37878174440006,19.445001889989346,2528,12,0.0,15,403951364490833,54,20.3,-494.33538818359375,2.4225001335144043,0,0.0,0.0,,,,,0,,1,,,288.4375,-99.234375,-9.203125
Raw,945657620,7867672000000,,,-1260194483776393216,0.0,62.599639932159334,68.37878174440006,19.445001889989346,2528,14,0.0,15,403951366737379,84,16.8,-485.13470458984375,1.9255000352859497,0,0.0,0.0,,,,,0,,1,,,288.4375,-99.234375,-9.203125
Raw,945657621,7867672000000,,,-1260194483776393216,0.0,62.599639932159334,68.37878174440006,19.445001889989346,2528,15,0.0,15,403951369507385,11,33.4,607.2291259765625,0.036400001496076584,0,0.0,0.0,,,,,0,,1,,,288.4375,-99.234375,-9.203125
Raw,945657621,7867672000000,,,-1260194483776393216,0.0,62.599639932159334,68.37878174440006,19.445001889989346,2528,20,0.0,15,403951381650829,21,26.9,-9.538437843322754,0.11270000040531158,0,0.0,0.0,,,,,0,,1,,,288.4375,-99.234375,-9.203125
Raw,945657622,7867672000000,,,-1260194483776393216,0.0,62.599639932159334,68.37878174440006,19.445001889989346,2528,21,0.0,15,403951376295098,27,24.9,400.04486083984375,0.640500009059906,0,0.0,0.0,,,,,0,,1,,,288.4375,-99.234375,-9.203125
Raw,945657623,7867672000000,,,-1260194483776393216,0.0,62.599639932159334,68.37878174440006,19.445001889989346,2528,24,0.0,15,403951378864062,10,34.4,201.97349548339844,0.04910000041127205,0,0.0,0.0,,,,,0,,1,,,288.4375,-99.234375,-9.203125
Raw,945657623,7867672000000,,,-1260194483776393216,0.0,62.599639932159334,68.37878174440006,19.445001889989346,2528,27,0.0,15,403951365818527,46,20.3,348.07568359375,0.9239999651908875,0,0.0,0.0,,,,,0,,1,,,288.4375,-99.234375,-9.203125
Raw,945657624,7867672000000,,,-1260194483776393216,0.0,62.599639932159334,68.37878174440006,19.445001889989346,2528,32,0.0,15,403951374054153,24,25.3,-382.8872985839844,0.4027999937534332,0,0.0,0.0,,,,,0,,1,,,288.4375,-99.234375,-9.203125
Raw,945658604,7868672000000,,,-1260194483776392960,0.0,63.45027941279113,74.9911939322363,13.140233753366989,2528,10,0.0,15,403952377689674,61,18.8,-324.6600341796875,1.0220000743865967,0,0.0,0.0,,,,,0,,1,,,316.04688,-87.296875,-1.265625
Raw,945658605,7868672000000,,,-1260194483776392960,0.0,63.45027941279113,74.9911939322363,13.140233753366989,2528,12,0.0,15,403952364492482,72,20.3,-494.33538818359375,3.9225001335144043,0,0.0,0.0,,,,,0,,1,,,316.04688,-87.296875,-1.265625
Raw,945658605,7868672000000,,,-1260194483776392960,0.0,63.45027941279113,74.9911939322363,13.140233753366989,2528,14,0.0,15,403952366738997,98,16.8,-485.13470458984375,3.4255001544952393,0,0.0,0.0,,,,,0,,1,,,316.04688,-87.296875,-1.265625
Raw,945658606,7868672000000,,,-1260194483776392960,0.0,63.45027941279113,74.9911939322363,13.140233753366989,2528,15,0.0,15,403952369505364,11,33.4,606.7989501953125,0.3499999940395355,0,0.0,0.0,,,,,0,,1,,,316.04688,-87.296875,-1.265625
Raw,945658606,7868672000000,,,-1260194483776392960,0.0,63.45027941279113,74.9911939322363,13.140233753366989,2528,20,0.0,15,403952381650847,40,21.0,-9.83818244934082,0.8479999899864197,0,0.0,0.0,,,,,0,,1,,,316.04688,-87.296875,-1.265625
Raw,945658607,7868672000000,,,-1260194483776392960,0.0,63.45027941279113,74.9911939322363,13.140233753366989,2528,21,0.0,15,403952376293826,17,28.9,400.5068359375,0.05730000138282776,0,0.0,0.0,,,,,0,,1,,,316.04688,-87.296875,-1.265625
Raw,945658607,7868672000000,,,-1260194483776392960,0.0,63.45027941279113,74.9911939322363,13.140233753366989,2528,24,0.0,15,403952378863356,13,31.8,201.8163299560547,0.05220000073313713,0,0.0,0.0,,,,,0,,1,,,316.04688,-87.296875,-1.265625
Raw,945658608,7868672000000,,,-1260194483776392960,0.0,63.45027941279113,74.9911939322363,13.140233753366989,2528,27,0.0,15,403952365817366,54,20.3,348.07568359375,2.4240000247955322,0,0.0,0.0,,,,,0,,1,,,316.04688,-87.296875,-1.265625
Raw,945658608,7868672000000,,,-1260194483776392960,0.0,63.45027941279113,74.9911939322363,13.140233753366989,2528,32,0.0,15,403952374055571,53,19.8,-382.97552490234375,0.9375,0,0.0,0.0,,,,,0,,1,,,316.04688,-87.296875,-1.265625
Raw,945659608,7869672000000,,,-1260194483776392960,0.0,64.76682028733194,74.87898327803461,14.672187212680269,2528,10,0.0,15,403953377691142,46,20.0,-324.25091552734375,0.9419999718666077,0,0.0,0.0,,,,,0,,1,,,350.32812,-86.0625,0.796875
Raw,945659609,7869672000000,,,-1260194483776392960,0.0,64.76682028733194,74.87898327803461,14.672187212680269,2528,12,0.0,15,403953364494131,100,20.3,-494.33538818359375,5.422500133514404,0,0.0,0.0,,,,,0,,1,,,350.32812,-86.0625,0.796875
Raw,945659609,7869672000000,,,-1260194483776392960,0.0,64.76682028733194,74.87898327803461,14.672187212680269,2528,14,0.0,15,403953366740731,49,20.8,-487.2755126953125,1.6054999828338623,0,0.0,0.0,,,,,0,,1,,,350.32812,-86.0625,0.796875
Raw,945659610,7869672000000,,,-1260194483776392960,0.0,64.76682028733194,74.87898327803461,14.672187212680269,2528,15,0.0,15,403953369503356,14,30.3,605.0482177734375,0.4300000071525574,0,0.0,0.0,,,,,0,,1,,,350.32812,-86.0625,0.796875
Raw,945659610,7869672000000,,,-1260194483776392960,0.0,64.76682028733194,74.87898327803461,14.672187212680269,2528,20,0.0,15,403953381650984,46,20.5,-11.056062698364258,0.8479999899864197,0,0.0,0.0,,,,,0,,1,,,350.32812,-86.0625,0.796875
Raw,945659611,7869672000000,,,-1260194483776392960,0.0,64.76682028733194,74.87898327803461,14.672187212680269,2528,21,0.0,15,403953376292508,16,29.7,396.6671447753906,0.44050002098083496,0,0.0,0.0,,,,,0,,1,,,350.32812,-86.0625,0.796875
Raw,945659611,7869672000000,,,-1260194483776392960,0.0,64.76682028733194,74.87898327803461,14.672187212680269,2528,24,0.0,15,403953378862748,35,22.7,200.75982666015625,0.7534999847412109,0,0.0,0.0,,,,,0,,1,,,350.32812,-86.0625,0.796875
Raw,945659612,7869672000000,,,-1260194483776392960,0.0,64.76682028733194,74.87898327803461,14.672187212680269,2528,27,0.0,15,403953365816285,56,19.2,349.4838562011719,1.7540000677108765,0,0.0,0.0,,,,,0,,1,,,350.32812,-86.0625,0.796875
Raw,945659612,7869672000000,,,-1260194483776392960,0.0,64.76682028733194,74.87898327803461,14.672187212680269,2528,32,0.0,15,403953374056875,27,24.2,-382.79473876953125,0.6875,0,0.0,0.0,,,,,0,,1,,,350.32812,-86.0625,0.796875
Raw,945660615,7870672000000,,,-1260194483776392960,0.0,69.05787449795753,71.4120831546047,21.327687604609103,2529,10,0.0,15,403954377691996,19,27.7,-321.9286804199219,0.06680000573396683,0,0.0,0.0,,,,,0,,1,,,37.1875,-94.078125,-3.703125
Raw,945660616,7870672000000,,,-1260194483776392960,0.0,69.05787449795753,71.4120831546047,21.327687604609103,2529,12,0.0,15,403954364495779,139,20.3,-494.33538818359375,6.922500133514404,0,0.0,0.0,,,,,0,,1,,,37.1875,-94.078125,-3.703125
Raw,945660616,7870672000000,,,-1260194483776392960,0.0,69.05787449795753,71.4120831546047,21.327687604609103,2529,14,0.0,15,403954366742388,12,32.8,-482.984375,0.34549999237060547,0,0.0,0.0,,,,,0,,1,,,37.1875,-94.078125,-3.703125
Raw,945660617,7870672000000,,,-1260194483776392960,0.0,69.05787449795753,71.4120831546047,21.327687604609103,2529,15,0.0,15,403954369501347,24,25.0,609.643798828125,0.6300000548362732,0,0.0,0.0,,,,,0,,1,,,37.1875,-94.078125,-3.703125
Raw,945660617,7870672000000,,,-1260194483776392960,0.0,69.05787449795753,71.4120831546047,21.327687604609103,2529,20,0.0,15,403954381651001,27,24.4,-7.174071311950684,0.6679999828338623,0,0.0,0.0,,,,,0,,1,,,37.1875,-94.078125,-3.703125
Raw,945660618,7870672000000,,,-1260194483776392960,0.0,69.05787449795753,71.4120831546047,21.327687604609103,2529,21,0.0,15,403954376291155,17,28.8,403.051513671875,0.4805000126361847,0,0.0,0.0,,,,,0,,1,,,37.1875,-94.078125,-3.703125
Raw,945660619,7870672000000,,,-1260194483776392960,0.0,69.05787449795753,71.4120831546047,21.327687604609103,2529,24,0.0,15,403954378862090,24,25.5,204.73007202148438,0.40880000591278076,0,0.0,0.0,,,,,0,,1,,,37.1875,-94.078125,-3.703125
Raw,945660619,7870672000000,,,-1260194483776392960,0.0,69.05787449795753,71.4120831546047,21.327687604609103,2529,27,0.0,15,403954365815237,14,30.5,351.089599609375,0.0333000011742115,0,0.0,0.0,,,,,0,,1,,,37.1875,-94.078125,-3.703125
Raw,945660619,7870672000000,,,-1260194483776392960,0.0,69.05787449795753,71.4120831546047,21.327687604609103,2529,32,0.0,15,403954374058153,10,34.2,-380.49151611328125,0.04310000315308571,0,0.0,0.0,,,,,0,,1,,,37.1875,-94.078125,-3.703125
Raw,945661606,7871516000000,,,-1260194483776392960,0.0,60.009275330230594,83.0947347386902,9.219637426759373,2529,10,0.0,15,403955221692997,14,30.0,-324.65313720703125,0.05829999968409538,0,0.0,0.0,,,,,0,,1,,,65.15625,-95.40625,5.375
Raw,945661607,7871516000000,,,-1260194483776392960,0.0,60.009275330230594,83.0947347386902,9.219637426759373,2529,12,0.0,15,403955208497171,179,20.3,-494.33538818359375,8.18850040435791,0,0.0,0.0,,,,,0,,1,,,65.15625,-95.40625,5.375
Raw,945661607,7871516000000,,,-1260194483776392960,0.0,60.009275330230594,83.0947347386902,9.219637426759373,2529,14,0.0,15,403955210743745,11,33.5,-485.64666748046875,0.03400000184774399,0,0.0,0.0,,,,,0,,1,,,65.15625,-95.40625,5.375
Raw,945661608,7871516000000,,,-1260194483776392960,0.0,60.009275330230594,83.0947347386902,9.219637426759373,2529,15,0.0,15,403955213499631,29,25.0,609.643798828125,1.8960000276565552,0,0.0,0.0,,,,,0,,1,,,65.15625,-95.40625,5.375
Raw,945661609,7871516000000,,,-1260194483776392960,0.0,60.009275330230594,83.0947347386902,9.219637426759373,2529,20,0.0,15,403955225651047,27,24.5,-9.552742004394531,0.609000027179718,0,0.0,0.0,,,,,0,,1,,,65.15625,-95.40625,5.375
Raw,945661609,7871516000000,,,-1260194483776392960,0.0,60.009275330230594,83.0947347386902,9.219637426759373,2529,21,0.0,15,403955220290069,13,31.2,400.6116027832031,0.05380000174045563,0,0.0,0.0,,,,,0,,1,,,65.15625,-95.40625,5.375
Raw,945661610,7871516000000,,,-1260194483776392960,0.0,60.009275330230594,83.0947347386902,9.219637426759373,2529,24,0.0,15,403955222861515,29,25.5,204.73007202148438,1.6748000383377075,0,0.0,0.0,,,,,0,,1,,,65.15625,-95.40625,5.375
Raw,945661610,7871516000000,,,-1260194483776392960,0.0,60.009275330230594,83.0947347386902,9.219637426759373,2529,27,0.0,15,403955209814302,10,34.0,348.2326354980469,0.03060000017285347,0,0.0,0.0,,,,,0,,1,,,65.15625,-95.40625,5.375
Raw,945661611,7871516000000,,,-1260194483776392960,0.0,60.009275330230594,83.0947347386902,9.219637426759373,2529,32,0.0,15,403955218059242,8,36.9,-383.23114013671875,0.04100000113248825,0,0.0,0.0,,,,,0,,1,,,65.15625,-95.40625,5.375
Raw,945662605,7872774000000,,,-1260194483775774208,0.0,4208.35567638278,74.7858147788494,14.10879423151232,2530,10,0.0,15,403956479075699,16,29.3,-320.9827575683594,0.05820000171661377,0,0.0,0.0,,,,,0,,1,,,115.71875,-93.03125,-2.359375
Raw,945662606,7872774000000,,,-1260194483775774208,0.0,4208.35567638278,74.7858147788494,14.10879423151232,2530,14,0.0,15,403956468127059,27,24.0,-481.37640380859375,0.6634999513626099,0,0.0,0.0,,,,,0,,1,,,115.71875,-93.03125,-2.359375
Raw,945662607,7872774000000,,,-1260194483775774208,0.0,4208.35567638278,74.7858147788494,14.10879423151232,2530,21,0.0,15,403956477669577,31,23.1,404.1837463378906,0.7369999885559082,0,0.0,0.0,,,,,0,,1,,,115.71875,-93.03125,-2.359375
Raw,945662607,7872774000000,,,-1260194483775774208,0.0,4208.35567638278,74.7858147788494,14.10879423151232,2530,24,0.0,15,403956480241702,24,25.8,206.11544799804688,0.2093999981880188,0,0.0,0.0,,,,,0,,1,,,115.71875,-93.03125,-2.359375
Raw,945662607,7872774000000,,,-1260194483775774208,0.0,4208.35567638278,74.7858147788494,14.10879423151232,2530,27,0.0,15,403956467194133,10,34.0,352.0796203613281,0.02759999968111515,0,0.0,0.0,,,,,0,,1,,,115.71875,-93.03125,-2.359375
Raw,945662608,7872774000000,,,-1260194483775774208,0.0,4208.35567638278,74.7858147788494,14.10879423151232,2530,32,0.0,15,403956475442117,12,32.9,-379.5202941894531,0.04390000179409981,0,0.0,0.0,,,,,0,,1,,,115.71875,-93.03125,-2.359375
Raw,945663613,7873763000000,,,-1260194483775400192,0.0,4191.008396446705,87.17924199745919,12.353977414918157,2531,10,0.0,15,403957467703096,13,31.8,-325.56744384765625,0.034299999475479126,0,0.0,0.0,,,,,0,,1,,,162.20312,-95.015625,-2.453125
Raw,945663613,7873763000000,,,-1260194483775400192,0.0,4191.008396446705,87.17924199745919,12.353977414918157,2531,14,0.0,15,403957456755104,21,26.2,-487.1109924316406,0.1216999962925911,0,0.0,0.0,,,,,0,,1,,,162.20312,-95.015625,-2.453125
Raw,945663614,7873763000000,,,-1260194483775400192,0.0,4191.008396446705,87.17924199745919,12.353977414918157,2531,15,0.0,15,403957459502756,35,22.3,604.905517578125,0.800000011920929,0,0.0,0.0,,,,,0,,1,,,162.20312,-95.015625,-2.453125
Raw,945663615,7873763000000,,,-1260194483775400192,0.0,4191.008396446705,87.17924199745919,12.353977414918157,2531,20,0.0,15,403957471658719,24,25.7,-10.455683708190918,0.19590000808238983,0,0.0,0.0,,,,,0,,1,,,162.20312,-95.015625,-2.453125
Raw,945663615,7873763000000,,,-1260194483775400192,0.0,4191.008396446705,87.17924199745919,12.353977414918157,2531,21,0.0,15,403957466294581,27,24.5,399.6357421875,0.6105000376701355,0,0.0,0.0,,,,,0,,1,,,162.20312,-95.015625,-2.453125
Raw,945663616,7873763000000,,,-1260194483775400192,0.0,4191.008396446705,87.17924199745919,12.353977414918157,2531,24,0.0,15,403957468867588,31,23.5,201.7683868408203,0.6634999513626099,0,0.0,0.0,,,,,0,,1,,,162.20312,-95.015625,-2.453125
Raw,945663617,7873763000000,,,-1260194483775400192,0.0,4191.008396446705,87.17924199745919,12.353977414918157,2531,27,0.0,15,403957455819309,14,30.7,347.4735412597656,0.049300000071525574,0,0.0,0.0,,,,,0,,1,,,162.20312,-95.015625,-2.453125
Raw,945663617,7873763000000,,,-1260194483775400192,0.0,4191.008396446705,87.17924199745919,12.353977414918157,2531,32,0.0,15,403957464069761,12,32.9,-384.4652099609375,0.027400000020861626,0,0.0,0.0,,,,,0,,1,,,162.20312,-95.015625,-2.453125
Raw,945664614,7874675000000,,,-1260194483775271680,0.0,4220.917355269194,71.07098490639268,11.101961289535977,2532,10,0.0,15,403958379575761,13,31.0,-321.26318359375,0.0835999995470047,0,0.0,0.0,,,,,0,,1,,,200.25,-92.421875,1.046875
Raw,945664614,7874675000000,,,-1260194483775271680,0.0,4220.917355269194,71.07098490639268,11.101961289535977,2532,12,0.0,15,403958366381628,31,23.8,-489.7588195800781,0.6604999899864197,0,0.0,0.0,,,,,0,,1,,,200.25,-92.421875,1.046875
Raw,945664615,7874675000000,,,-1260194483775271680,0.0,4220.917355269194,71.07098490639268,11.101961289535977,2532,15,0.0,15,403958371372504,8,36.9,609.8353271484375,0.04699999839067459,0,0.0,0.0,,,,,0,,1,,,200.25,-92.421875,1.046875
Raw,945664616,7874675000000,,,-1260194483775271680,0.0,4220.917355269194,71.07098490639268,11.101961289535977,2532,20,0.0,15,403958383530298,19,27.2,-6.194830417633057,0.16820000112056732,0,0.0,0.0,,,,,0,,1,,,200.25,-92.421875,1.046875
Raw,945664616,7874675000000,,,-1260194483775271680,0.0,4220.917355269194,71.07098490639268,11.101961289535977,2532,21,0.0,15,403958378164836,21,26.2,403.7585144042969,0.2777000069618225,0,0.0,0.0,,,,,0,,1,,,200.25,-92.421875,1.046875
Raw,945664617,7874675000000,,,-1260194483775271680,0.0,4220.917355269194,71.07098490639268,11.101961289535977,2532,24,0.0,15,403958380738626,11,33.5,205.5883331298828,0.07320000231266022,0,0.0,0.0,,,,,0,,1,,,200.25,-92.421875,1.046875
Raw,945664617,7874675000000,,,-1260194483775271680,0.0,4220.917355269194,71.07098490639268,11.101961289535977,2532,27,0.0,15,403958367689876,16,29.8,352.1759948730469,0.08489999920129776,0,0.0,0.0,,,,,0,,1,,,200.25,-92.421875,1.046875
Raw,945664618,7874675000000,,,-1260194483775271680,0.0,4220.917355269194,71.07098490639268,11.101961289535977,2532,32,0.0,15,403958375942487,14,30.8,-379.625732421875,0.0860000029206276,0,0.0,0.0,,,,,0,,1,,,200.25,-92.421875,1.046875
Raw,945665605,7875874000000,,,-1260194483774938112,0.0,4283.819813281298,84.62542370474938,16.425967781029087,2533,10,0.0,15,403959578243399,17,28.1,-317.30731201171875,0.12439999729394913,0,0.0,0.0,,,,,0,,1,,,247.59375,-95.359375,-4.984375
Raw,945665605,7875874000000,,,-1260194483774938112,0.0,4283.819813281298,84.62542370474938,16.425967781029087,2533,12,0.0,15,403959565050332,27,24.9,-486.1337585449219,0.609000027179718,0,0.0,0.0,,,,,0,,1,,,247.59375,-95.359375,-4.984375
Raw,945665605,7875874000000,,,-1260194483774938112,0.0,4283.819813281298,84.62542370474938,16.425967781029087,2533,15,0.0,15,403959570036537,9,35.4,613.9749755859375,0.0494999997317791,0,0.0,0.0,,,,,0,,1,,,247.59375,-95.359375,-4.984375
Raw,945665606,7875874000000,,,-1260194483774938112,0.0,4283.819813281298,84.62542370474938,16.425967781029087,2533,20,0.0,15,403959582196912,19,27.5,-2.0196707248687744,0.19670000672340393,0,0.0,0.0,,,,,0,,1,,,247.59375,-95.359375,-4.984375
Raw,945665606,7875874000000,,,-1260194483774938112,0.0,4283.819813281298,84.62542370474938,16.425967781029087,2533,21,0.0,15,403959576829798,17,28.5,407.9828796386719,0.12139999866485596,0,0.0,0.0,,,,,0,,1,,,247.59375,-95.359375,-4.984375
Raw,945665606,7875874000000,,,-1260194483774938112,0.0,4283.819813281298,84.62542370474938,16.425967781029087,2533,24,0.0,15,403959579404233,13,31.3,209.8876190185547,0.0835999995470047,0,0.0,0.0,,,,,0,,1,,,247.59375,-95.359375,-4.984375
Raw,945665606,7875874000000,,,-1260194483774938112,0.0,4283.819813281298,84.62542370474938,16.425967781029087,2533,27,0.0,15,403959566354931,19,27.0,355.8045654296875,0.17270000278949738,0,0.0,0.0,,,,,0,,1,,,247.59375,-95.359375,-4.984375
Raw,945666604,7876961000000,,,-1260194483774052352,0.0,4260.254092514515,98.06690110573969,17.36934973312105,2534,10,0.0,15,403960664358503,14,30.4,-322.8421630859375,0.03280000016093254,0,0.0,0.0,,,,,0,,1,,,277.6875,-83.921875,6.046875
Raw,945666605,7876961000000,,,-1260194483774052352,0.0,4260.254092514515,98.06690110573969,17.36934973312105,2534,15,0.0,15,403960656148243,12,32.1,608.3645629882812,0.04540000110864639,0,0.0,0.0,,,,,0,,1,,,277.6875,-83.921875,6.046875
Raw,945666605,7876961000000,,,-1260194483774052352,0.0,4260.254092514515,98.06690110573969,17.36934973312105,2534,20,0.0,15,403960668310838,35,22.8,-6.945718765258789,0.7234999537467957,0,0.0,0.0,,,,,0,,1,,,277.6875,-83.921875,6.046875
Raw,945666606,7876961000000,,,-1260194483774052352,0.0,4260.254092514515,98.06690110573969,17.36934973312105,2534,21,0.0,15,403960662942416,17,28.8,402.3119812011719,0.043800000101327896,0,0.0,0.0,,,,,0,,1,,,277.6875,-83.921875,6.046875
Raw,945666607,7876961000000,,,-1260194483774052352,0.0,4260.254092514515,98.06690110573969,17.36934973312105,2534,24,0.0,15,403960665517454,19,27.3,204.25741577148438,0.07110000401735306,0,0.0,0.0,,,,,0,,1,,,277.6875,-83.921875,6.046875
Raw,945666607,7876961000000,,,-1260194483774052352,0.0,4260.254092514515,98.06690110573969,17.36934973312105,2534,32,0.0,15,403960660725676,31,23.4,-380.9013366699219,0.7414999604225159,0,0.0,0.0,,,,,0,,1,,,277.6875,-83.921875,6.046875
Raw,945667618,7877776000000,,,-1260194483773680896,0.0,4223.6968874931335,79.14022692978817,10.533188247447276,2535,10,0.0,15,403961478988089,40,21.9,-319.3984375,0.7985000014305115,0,0.0,0.0,,,,,0,,1,,,321.8125,-88.328125,1.46875
Raw,945667619,7877776000000,,,-1260194483773680896,0.0,4223.6968874931335,79.14022692978817,10.533188247447276,2535,14,0.0,15,403961468042311,46,20.9,-480.3202819824219,0.8434999585151672,0,0.0,0.0,,,,,0,,1,,,321.8125,-88.328125,1.46875
Raw,945667620,7877776000000,,,-1260194483773680896,0.0,4223.6968874931335,79.14022692978817,10.533188247447276,2535,15,0.0,15,403961470775345,8,36.0,610.6416625976562,0.029000001028180122,0,0.0,0.0,,,,,0,,1,,,321.8125,-88.328125,1.46875
Raw,945667620,7877776000000,,,-1260194483773680896,0.0,4223.6968874931335,79.14022692978817,10.533188247447276,2535,21,0.0,15,403961477570126,14,30.9,404.5052490234375,0.05230000242590904,0,0.0,0.0,,,,,0,,1,,,321.8125,-88.328125,1.46875
Raw,945667621,7877776000000,,,-1260194483773680896,0.0,4223.6968874931335,79.14022692978817,10.533188247447276,2535,24,0.0,15,403961480145609,17,28.9,206.30880737304688,0.07079999893903732,0,0.0,0.0,,,,,0,,1,,,321.8125,-88.328125,1.46875
Raw,945667622,7877776000000,,,-1260194483773680896,0.0,4223.6968874931335,79.14022692978817,10.533188247447276,2535,27,0.0,15,403961467095298,35,22.0,352.176513671875,0.7820000052452087,0,0.0,0.0,,,,,0,,1,,,321.8125,-88.328125,1.46875
Raw,945667622,7877776000000,,,-1260194483773680896,0.0,4223.6968874931335,79.14022692978817,10.533188247447276,2535,32,0.0,15,403961475355458,31,23.1,-379.5502624511719,0.7339999675750732,0,0.0,0.0,,,,,0,,1,,,321.8125,-88.328125,1.46875
Raw,945668607,7878767000000,,,-1260194483773646080,0.0,4234.927706420422,86.92007018765251,14.709543047354263,2536,10,0.0,15,403962469954636,40,21.6,-319.46502685546875,0.7849999666213989,0,0.0,0.0,,,,,0,,1,,,0.9375,-93.515625,-0.34375
Raw,945668608,7878767000000,,,-1260194483773646080,0.0,4234.927706420422,86.92007018765251,14.709543047354263,2536,14,0.0,15,403962459009316,17,28.2,-480.92706298828125,0.06930000334978104,0,0.0,0.0,,,,,0,,1,,,0.9375,-93.515625,-0.34375
Raw,945668609,7878767000000,,,-1260194483773646080,0.0,4234.927706420422,86.92007018765251,14.709543047354263,2536,15,0.0,15,403962461738822,13,31.4,611.8797607421875,0.40299999713897705,0,0.0,0.0,,,,,0,,1,,,0.9375,-93.515625,-0.34375
Raw,945668609,7878767000000,,,-1260194483773646080,0.0,4234.927706420422,86.92007018765251,14.709543047354263,2536,21,0.0,15,403962468534271,21,26.9,405.5631408691406,0.10969999432563782,0,0.0,0.0,,,,,0,,1,,,0.9375,-93.515625,-0.34375
Raw,945668610,7878767000000,,,-1260194483773646080,0.0,4234.927706420422,86.92007018765251,14.709543047354263,2536,24,0.0,15,403962471110548,21,26.6,208.34483337402344,0.11419999599456787,0,0.0,0.0,,,,,0,,1,,,0.9375,-93.515625,-0.34375
Raw,945668610,7878767000000,,,-1260194483773646080,0.0,4234.927706420422,86.92007018765251,14.709543047354263,2536,27,0.0,15,403962458059679,35,22.8,352.6617431640625,0.7384999990463257,0,0.0,0.0,,,,,0,,1,,,0.9375,-93.515625,-0.34375
Raw,945668610,7878767000000,,,-1260194483773646080,0.0,4234.927706420422,86.92007018765251,14.709543047354263,2536,32,0.0,15,403962466322355,16,29.3,-378.2370910644531,0.03869999945163727,0,0.0,0.0,,,,,0,,1,,,0.9375,-93.515625,-0.34375
Raw,945669605,7879777000000,,,-1260194483772760320,0.0,4233.169835060835,90.37052394599135,11.585305485489096,2537,10,0.0,15,403963479069607,31,23.5,-323.9749755859375,0.6800000071525574,0,0.0,0.0,,,,,0,,1,,,35.984375,-85.28125,4.546875
Raw,945669606,7879777000000,,,-1260194483772760320,0.0,4233.169835060835,90.37052394599135,11.585305485489096,2537,14,0.0,15,403963468124834,11,33.2,-484.6481628417969,0.03100000135600567,0,0.0,0.0,,,,,0,,1,,,35.984375,-85.28125,4.546875
Raw,945669607,7879777000000,,,-1260194483772760320,0.0,4233.169835060835,90.37052394599135,11.585305485489096,2537,20,0.0,15,403963483018917,24,25.9,-8.013221740722656,0.18389999866485596,0,0.0,0.0,,,,,0,,1,,,35.984375,-85.28125,4.546875
Raw,945669607,7879777000000,,,-1260194483772760320,0.0,4233.169835060835,90.37052394599135,11.585305485489096,2537,21,0.0,15,403963477646724,13,31.6,401.999755859375,0.049300000071525574,0,0.0,0.0,,,,,0,,1,,,35.984375,-85.28125,4.546875
Raw,945669608,7879777000000,,,-1260194483772760320,0.0,4233.169835060835,90.37052394599135,11.585305485489096,2537,24,0.0,15,403963480223608,16,29.1,204.28378295898438,0.059700001031160355,0,0.0,0.0,,,,,0,,1,,,35.984375,-85.28125,4.546875
Raw,945669609,7879777000000,,,-1260194483772760320,0.0,4233.169835060835,90.37052394599135,11.585305485489096,2537,27,0.0,15,403963467172412,13,31.1,349.67169189453125,0.034299999475479126,0,0.0,0.0,,,,,0,,1,,,35.984375,-85.28125,4.546875
Raw,945669609,7879777000000,,,-1260194483772760320,0.0,4233.169835060835,90.37052394599135,11.585305485489096,2537,32,0.0,15,403963475437539,10,34.9,-381.95489501953125,0.03959999978542328,0,0.0,0.0,,,,,0,,1,,,35.984375,-85.28125,4.546875
Raw,945670611,7880671000000,,,-1260194483772717056,0.0,4221.823997795582,77.0660953459399,6.243679990349451,2538,10,0.0,15,403964373028049,19,27.5,-322.7222595214844,0.18320000171661377,0,0.0,0.0,,,,,0,,1,,,74.203125,-90.6875,-0.625
Raw,945670612,7880671000000,,,-1260194483772717056,0.0,4221.823997795582,77.0660953459399,6.243679990349451,2538,14,0.0,15,403964362083656,14,30.3,-483.87823486328125,0.09650000184774399,0,0.0,0.0,,,,,0,,1,,,74.203125,-90.6875,-0.625
Raw,945670613,7880671000000,,,-1260194483772717056,0.0,4221.823997795582,77.0660953459399,6.243679990349451,2538,20,0.0,15,403964376976303,21,26.2,-7.392895221710205,0.27470001578330994,0,0.0,0.0,,,,,0,,1,,,74.203125,-90.6875,-0.625
Raw,945670614,7880671000000,,,-1260194483772717056,0.0,4221.823997795582,77.0660953459399,6.243679990349451,2538,21,0.0,15,403964371602926,14,30.2,402.67926025390625,0.07999999821186066,0,0.0,0.0,,,,,0,,1,,,74.203125,-90.6875,-0.625
Raw,945670614,7880671000000,,,-1260194483772717056,0.0,4221.823997795582,77.0660953459399,6.243679990349451,2538,27,0.0,15,403964361128698,10,34.8,350.58917236328125,0.07010000199079514,0,0.0,0.0,,,,,0,,1,,,74.203125,-90.6875,-0.625
Raw,945670615,7880671000000,,,-1260194483772717056,0.0,4221.823997795582,77.0660953459399,6.243679990349451,2538,32,0.0,15,403964369395935,12,32.3,-381.1905212402344,0.06199999898672104,0,0.0,0.0,,,,,0,,1,,,74.203125,-90.6875,-0.625
Raw,945671621,7881886000000,,,-1260194483772534272,0.0,4264.171700924635,79.17381314306314,12.249023679548962,2539,10,0.0,15,403965587846165,16,29.9,-316.7869873046875,0.08489999920129776,0,0.0,0.0,,,,,0,,1,,,102.421875,-94.921875,4.796875
Raw,945671621,7881886000000,,,-1260194483772534272,0.0,4264.171700924635,79.17381314306314,12.249023679548962,2539,14,0.0,15,403965576902465,21,26.1,-477.7215270996094,0.27470001578330994,0,0.0,0.0,,,,,0,,1,,,102.421875,-94.921875,4.796875
Raw,945671622,7881886000000,,,-1260194483772534272,0.0,4264.171700924635,79.17381314306314,12.249023679548962,2539,20,0.0,15,403965591793264,21,26.5,-1.3054451942443848,0.2671999931335449,0,0.0,0.0,,,,,0,,1,,,102.421875,-94.921875,4.796875
Raw,945671624,7881886000000,,,-1260194483772534272,0.0,4264.171700924635,79.17381314306314,12.249023679548962,2539,21,0.0,15,403965586418159,19,27.1,408.9796447753906,0.17270000278949738,0,0.0,0.0,,,,,0,,1,,,102.421875,-94.921875,4.796875
Raw,945671624,7881886000000,,,-1260194483772534272,0.0,4264.171700924635,79.17381314306314,12.249023679548962,2539,27,0.0,15,403965575944165,13,31.4,356.6961364746094,0.07760000228881836,0,0.0,0.0,,,,,0,,1,,,102.421875,-94.921875,4.796875
Raw,945671625,7881886000000,,,-1260194483772534272,0.0,4264.171700924635,79.17381314306314,12.249023679548962,2539,32,0.0,15,403965584214398,11,33.1,-375.02655029296875,0.04920000210404396,0,0.0,0.0,,,,,0,,1,,,102.421875,-94.921875,4.796875
Raw,945672613,7882876000000,,,-1260194483772184064,0.0,4221.406299620867,98.95411410842871,11.60489240646725,2540,10,0.0,15,403966577497393,27,24.4,-318.9797668457031,0.6769999861717224,0,0.0,0.0,,,,,0,,1,,,154.625,-88.140625,0.046875
Raw,945672614,7882876000000,,,-1260194483772184064,0.0,4221.406299620867,98.95411410842871,11.60489240646725,2540,14,0.0,15,403966566554175,17,28.5,-480.3805847167969,0.10639999806880951,0,0.0,0.0,,,,,0,,1,,,154.625,-88.140625,0.046875
Raw,945672615,7882876000000,,,-1260194483772184064,0.0,4221.406299620867,98.95411410842871,11.60489240646725,2540,20,0.0,15,403966581443354,19,27.3,-3.468193292617798,0.19520001113414764,0,0.0,0.0,,,,,0,,1,,,154.625,-88.140625,0.046875
Raw,945672615,7882876000000,,,-1260194483772184064,0.0,4221.406299620867,98.95411410842871,11.60489240646725,2540,21,0.0,15,403966576066880,21,26.1,406.4411315917969,0.27470001578330994,0,0.0,0.0,,,,,0,,1,,,154.625,-88.140625,0.046875
Raw,945672616,7882876000000,,,-1260194483772184064,0.0,4221.406299620867,98.95411410842871,11.60489240646725,2540,24,0.0,15,403966578645619,14,30.0,208.7163543701172,0.09049999713897705,0,0.0,0.0,,,,,0,,1,,,154.625,-88.140625,0.046875
Raw,945672617,7882876000000,,,-1260194483772184064,0.0,4221.406299620867,98.95411410842871,11.60489240646725,2540,27,0.0,15,403966565593147,13,31.8,354.0953063964844,0.06260000169277191,0,0.0,0.0,,,,,0,,1,,,154.625,-88.140625,0.046875
Raw,945672617,7882876000000,,,-1260194483772184064,0.0,4221.406299620867,98.95411410842871,11.60489240646725,2540,32,0.0,15,403966573865742,10,34.6,-377.70361328125,0.05810000002384186,0,0.0,0.0,,,,,0,,1,,,154.625,-88.140625,0.046875
Raw,945673601,7883871000000,,,-1260194483771628032,0.0,4237.722605466843,90.89183872711243,10.475345236220509,2541,12,0.0,15,403967558753660,27,24.0,-485.5723571777344,0.6784999966621399,0,0.0,0.0,,,,,0,,1,,,178.01562,-83.65625,6.1875
Raw,945673602,7883871000000,,,-1260194483771628032,0.0,4237.722605466843,90.89183872711243,10.475345236220509,2541,14,0.0,15,403967560999918,21,26.6,-477.41461181640625,0.2806999981403351,0,0.0,0.0,,,,,0,,1,,,178.01562,-83.65625,6.1875
Raw,945673602,7883871000000,,,-1260194483771628032,0.0,4237.722605466843,90.89183872711243,10.475345236220509,2541,15,0.0,15,403967563710718,9,35.1,614.1182250976562,0.0689999982714653,0,0.0,0.0,,,,,0,,1,,,178.01562,-83.65625,6.1875
Raw,945673602,7883871000000,,,-1260194483771628032,0.0,4237.722605466843,90.89183872711243,10.475345236220509,2541,20,0.0,15,403967575887431,21,26.3,-1.295627236366272,0.27320000529289246,0,0.0,0.0,,,,,0,,1,,,178.01562,-83.65625,6.1875
Raw,945673603,7883871000000,,,-1260194483771628032,0.0,4237.722605466843,90.89183872711243,10.475345236220509,2541,24,0.0,15,403967573089193,11,33.9,211.06898498535156,0.06270000338554382,0,0.0,0.0,,,,,0,,1,,,178.01562,-83.65625,6.1875
Raw,945673603,7883871000000,,,-1260194483771628032,0.0,4237.722605466843,90.89183872711243,10.475345236220509,2541,27,0.0,15,403967560036066,13,31.6,357.15899658203125,0.08510000258684158,0,0.0,0.0,,,,,0,,1,,,178.01562,-83.65625,6.1875
Raw,945673604,7883871000000,,,-1260194483771628032,0.0,4237.722605466843,90.89183872711243,10.475345236220509,2541,32,0.0,15,403967568311186,17,28.3,-374.83343505859375,0.10939999669790268,0,0.0,0.0,,,,,0,,1,,,178.01562,-83.65625,6.1875
Raw,945674612,7884985000000,,,-1260194483770804736,0.0,4230.35304993391,99.09519656332029,14.624435493844253,2542,10,0.0,15,403968685120285,21,26.4,-315.269775390625,0.10520000010728836,0,0.0,0.0,,,,,0,,1,,,235.90625,-95.6875,-3.453125
Raw,945674613,7884985000000,,,-1260194483770804736,0.0,4230.35304993391,99.09519656332029,14.624435493844253,2542,15,0.0,15,403968676885247,6,38.5,615.7706298828125,0.03519999980926514,0,0.0,0.0,,,,,0,,1,,,235.90625,-95.6875,-3.453125
Raw,945674614,7884985000000,,,-1260194483770804736,0.0,4230.35304993391,99.09519656332029,14.624435493844253,2542,20,0.0,15,403968689064246,16,29.5,0.33241158723831177,0.04320000112056732,0,0.0,0.0,,,,,0,,1,,,235.90625,-95.6875,-3.453125
Raw,945674614,7884985000000,,,-1260194483770804736,0.0,4230.35304993391,99.09519656332029,14.624435493844253,2542,21,0.0,15,403968683684868,31,23.0,410.7584228515625,0.7459999918937683,0,0.0,0.0,,,,,0,,1,,,235.90625,-95.6875,-3.453125
Raw,945674615,7884985000000,,,-1260194483770804736,0.0,4230.35304993391,99.09519656332029,14.624435493844253,2542,24,0.0,15,403968686265286,14,30.8,212.70962524414062,0.03579999879002571,0,0.0,0.0,,,,,0,,1,,,235.90625,-95.6875,-3.453125
Raw,945674615,7884985000000,,,-1260194483770804736,0.0,4230.35304993391,99.09519656332029,14.624435493844253,2542,27,0.0,15,403968673211441,24,25.8,358.0014343261719,0.1988999992609024,0,0.0,0.0,,,,,0,,1,,,235.90625,-95.6875,-3.453125
Raw,945674616,7884985000000,,,-1260194483770804736,0.0,4230.35304993391,99.09519656332029,14.624435493844253,2542,32,0.0,15,403968681489099,31,23.7,-374.0507507324219,0.6829999685287476,0,0.0,0.0,,,,,0,,1,,,235.90625,-95.6875,-3.453125
Raw,945675608,7885778000000,,,-1260194483769916416,0.0,4200.714640319347,103.94670884720348,13.45758338676519,2543,10,0.0,15,403969477233006,31,23.6,-316.54400634765625,0.6769999861717224,0,0.0,0.0,,,,,0,,1,,,246.76562,-97.765625,7.6875
Raw,945675609,7885778000000,,,-1260194483769916416,0.0,4200.714640319347,103.94670884720348,13.45758338676519,2543,15,0.0,15,403969468995346,12,32.3,614.2354736328125,0.033399999141693115,0,0.0,0.0,,,,,0,,1,,,246.76562,-97.765625,7.6875
Raw,945675610,7885778000000,,,-1260194483769916416,0.0,4200.714640319347,103.94670884720348,13.45758338676519,2543,20,0.0,15,403969481175998,16,29.0,-1.1701551675796509,0.06120000034570694,0,0.0,0.0,,,,,0,,1,,,246.76562,-97.765625,7.6875
Raw,945675610,7885778000000,,,-1260194483769916416,0.0,4200.714640319347,103.94670884720348,13.45758338676519,2543,21,0.0,15,403969475795430,24,25.3,408.9159240722656,0.20190000534057617,0,0.0,0.0,,,,,0,,1,,,246.76562,-97.765625,7.6875
Raw,945675611,7885778000000,,,-1260194483769916416,0.0,4200.714640319347,103.94670884720348,13.45758338676519,2543,24,0.0,15,403969478376405,11,33.6,211.20346069335938,0.04600000008940697,0,0.0,0.0,,,,,0,,1,,,246.76562,-97.765625,7.6875
Raw,945675612,7885778000000,,,-1260194483769916416,0.0,4200.714640319347,103.94670884720348,13.45758338676519,2543,32,0.0,15,403969473601815,24,25.4,-375.00244140625,0.1988999992609024,0,0.0,0.0,,,,,0,,1,,,246.76562,-97.765625,7.6875
Raw,945676616,7886789000000,,,-1260194483769545984,0.0,4242.248833179474,98.73731475181609,9.844365488260227,2544,10,0.0,15,403970487863527,13,31.3,-315.6504821777344,0.034299999475479126,0,0.0,0.0,,,,,0,,1,,,299.73438,-86.140625,3.015625
Raw,945676617,7886789000000,,,-1260194483769545984,0.0,4242.248833179474,98.73731475181609,9.844365488260227,2544,14,0.0,15,403970476922107,35,22.2,-476.9615478515625,0.9455000162124634,0,0.0,0.0,,,,,0,,1,,,299.73438,-86.140625,3.015625
Raw,945676617,7886789000000,,,-1260194483769545984,0.0,4242.248833179474,98.73731475181609,9.844365488260227,2544,15,0.0,15,403970479622724,10,34.9,615.3907470703125,0.30000001192092896,0,0.0,0.0,,,,,0,,1,,,299.73438,-86.140625,3.015625
Raw,945676618,7886789000000,,,-1260194483769545984,0.0,4242.248833179474,98.73731475181609,9.844365488260227,2544,20,0.0,15,403970491805484,35,22.6,-0.0,0.7279999852180481,0,0.0,0.0,,,,,0,,1,,,299.73438,-86.140625,3.015625
Raw,945676619,7886789000000,,,-1260194483769545984,0.0,4242.248833179474,98.73731475181609,9.844365488260227,2544,21,0.0,15,403970486423628,11,33.9,409.551513671875,0.02800000086426735,0,0.0,0.0,,,,,0,,1,,,299.73438,-86.140625,3.015625
Raw,945676620,7886789000000,,,-1260194483769545984,0.0,4242.248833179474,98.73731475181609,9.844365488260227,2544,24,0.0,15,403970489005122,13,31.7,212.33203125,0.037300001829862595,0,0.0,0.0,,,,,0,,1,,,299.73438,-86.140625,3.015625
Raw,945676620,7886789000000,,,-1260194483769545984,0.0,4242.248833179474,98.73731475181609,9.844365488260227,2544,32,0.0,15,403970484232657,35,22.8,-374.43133544921875,0.7475000023841858,0,0.0,0.0,,,,,0,,1,,,299.73438,-86.140625,3.015625
Raw,945677604,7887779000000,,,-1260194483769071616,0.0,4238.510970026255,101.31558309522029,12.834522229579179,2545,15,0.0,15,403971469146785,11,33.9,614.6200561523438,0.3050000071525574,0,0.0,0.0,,,,,0,,1,,,342.21875,-92.40625,-1.9375
Raw,945677605,7887779000000,,,-1260194483769071616,0.0,4238.510970026255,101.31558309522029,12.834522229579179,2545,20,0.0,15,403971481331500,31,23.5,-0.3996167480945587,0.6829999685287476,0,0.0,0.0,,,,,0,,1,,,342.21875,-92.40625,-1.9375
Raw,945677605,7887779000000,,,-1260194483769071616,0.0,4238.510970026255,101.31558309522029,12.834522229579179,2545,21,0.0,15,403971475948338,14,30.6,409.89971923828125,0.049300000071525574,0,0.0,0.0,,,,,0,,1,,,342.21875,-92.40625,-1.9375
Raw,945677606,7887779000000,,,-1260194483769071616,0.0,4238.510970026255,101.31558309522029,12.834522229579179,2545,24,0.0,15,403971478530517,14,30.2,211.96595764160156,0.05380000174045563,0,0.0,0.0,,,,,0,,1,,,342.21875,-92.40625,-1.9375
Raw,945677607,7887779000000,,,-1260194483769071616,0.0,4238.510970026255,101.31558309522029,12.834522229579179,2545,27,0.0,15,403971465475181,40,21.6,357.6474609375,0.7789999842643738,0,0.0,0.0,,,,,0,,1,,,342.21875,-92.40625,-1.9375
Raw,945677607,7887779000000,,,-1260194483769071616,0.0,4238.510970026255,101.31558309522029,12.834522229579179,2545,32,0.0,15,403971473759898,24,25.6,-374.1841735839844,0.1988999992609024,0,0.0,0.0,,,,,0,,1,,,342.21875,-92.40625,-1.9375
Raw,945678617,7888773000000,,,-1260194483768162304,0.0,4271.7065662145615,100.68644123651173,11.460976373296209,2546,10,0.0,15,403972470482413,35,22.4,-319.5126037597656,0.7864999771118164,0,0.0,0.0,,,,,0,,1,,,8.46875,-82.59375,6.78125
Raw,945678618,7888773000000,,,-1260194483768162304,0.0,4271.7065662145615,100.68644123651173,11.460976373296209,2546,14,0.0,15,403972459542373,14,30.4,-480.5490417480469,0.05530000105500221,0,0.0,0.0,,,,,0,,1,,,8.46875,-82.59375,6.78125
Raw,945678618,7888773000000,,,-1260194483768162304,0.0,4271.7065662145615,100.68644123651173,11.460976373296209,2546,15,0.0,15,403972462235446,40,21.7,611.689453125,0.8044999837875366,0,0.0,0.0,,,,,0,,1,,,8.46875,-82.59375,6.78125
Raw,945678619,7888773000000,,,-1260194483768162304,0.0,4271.7065662145615,100.68644123651173,11.460976373296209,2546,20,0.0,15,403972474422209,46,20.5,-3.320624589920044,0.8524999618530273,0,0.0,0.0,,,,,0,,1,,,8.46875,-82.59375,6.78125
Raw,945678620,7888773000000,,,-1260194483768162304,0.0,4271.7065662145615,100.68644123651173,11.460976373296209,2546,21,0.0,15,403972469037597,21,26.7,406.7731018066406,0.1111999973654747,0,0.0,0.0,,,,,0,,1,,,8.46875,-82.59375,6.78125
Raw,945678620,7888773000000,,,-1260194483768162304,0.0,4271.7065662145615,100.68644123651173,11.460976373296209,2546,24,0.0,15,403972471620510,14,30.4,209.14990234375,0.043299999088048935,0,0.0,0.0,,,,,0,,1,,,8.46875,-82.59375,6.78125
Raw,945678621,7888773000000,,,-1260194483768162304,0.0,4271.7065662145615,100.68644123651173,11.460976373296209,2546,27,0.0,15,403972458564929,17,28.6,354.0724182128906,0.06780000030994415,0,0.0,0.0,,,,,0,,1,,,8.46875,-82.59375,6.78125
Raw,945678621,7888773000000,,,-1260194483768162304,0.0,4271.7065662145615,100.68644123651173,11.460976373296209,2546,32,0.0,15,403972466851978,10,34.5,-377.7059020996094,0.026100000366568565,0,0.0,0.0,,,,,0,,1,,,8.46875,-82.59375,6.78125
Raw,945679607,7889789000000,,,-1260194483767601408,0.0,4276.849329471588,89.35007948048904,8.563377357062377,2547,10,0.0,15,403973485922660,19,27.9,-315.9683532714844,0.10110000520944595,0,0.0,0.0,,,,,0,,1,,,50.8125,-85.71875,4.28125
Raw,945679608,7889789000000,,,-1260194483767601408,0.0,4276.849329471588,89.35007948048904,8.563377357062377,2547,14,0.0,15,403973474983184,12,32.6,-477.0184326171875,0.04240000247955322,0,0.0,0.0,,,,,0,,1,,,50.8125,-85.71875,4.28125
Raw,945679608,7889789000000,,,-1260194483767601408,0.0,4276.849329471588,89.35007948048904,8.563377357062377,2547,20,0.0,15,403973489861349,21,26.2,-0.12219531089067459,0.1111999973654747,0,0.0,0.0,,,,,0,,1,,,50.8125,-85.71875,4.28125
Raw,945679609,7889789000000,,,-1260194483767601408,0.0,4276.849329471588,89.35007948048904,8.563377357062377,2547,21,0.0,15,403973484475519,16,29.6,409.9947204589844,0.065700002014637,0,0.0,0.0,,,,,0,,1,,,50.8125,-85.71875,4.28125
Raw,945679609,7889789000000,,,-1260194483767601408,0.0,4276.849329471588,89.35007948048904,8.563377357062377,2547,24,0.0,15,403973487058804,35,22.1,213.00521850585938,0.7820000052452087,0,0.0,0.0,,,,,0,,1,,,50.8125,-85.71875,4.28125
Raw,945679609,7889789000000,,,-1260194483767601408,0.0,4276.849329471588,89.35007948048904,8.563377357062377,2547,27,0.0,15,403973474002895,10,34.0,357.6639709472656,0.038100000470876694,0,0.0,0.0,,,,,0,,1,,,50.8125,-85.71875,4.28125
Raw,945679610,7889789000000,,,-1260194483767601408,0.0,4276.849329471588,89.35007948048904,8.563377357062377,2547,32,0.0,15,403973482292379,6,38.2,-374.26898193359375,0.044200003147125244,0,0.0,0.0,,,,,0,,1,,,50.8125,-85.71875,4.28125
Raw,945680607,7890677000000,,,-1260194483767246080,0.0,4255.728796124458,100.80866604106288,9.979510391808951,2548,10,0.0,15,403974373568280,19,27.3,-316.23590087890625,0.18320000171661377,0,0.0,0.0,,,,,0,,1,,,87.515625,-95.25,2.03125
Raw,945680608,7890677000000,,,-1260194483767246080,0.0,4255.728796124458,100.80866604106288,9.979510391808951,2548,14,0.0,15,403974362629217,14,30.3,-477.7425231933594,0.09650000184774399,0,0.0,0.0,,,,,0,,1,,,87.515625,-95.25,2.03125
Raw,945680608,7890677000000,,,-1260194483767246080,0.0,4255.728796124458,100.80866604106288,9.979510391808951,2548,20,0.0,15,403974377506178,31,23.4,0.28544050455093384,0.7369999885559082,0,0.0,0.0,,,,,0,,1,,,87.515625,-95.25,2.03125
Raw,945680609,7890677000000,,,-1260194483767246080,0.0,4255.728796124458,100.80866604106288,9.979510391808951,2548,21,0.0,15,403974372119092,19,27.4,409.1778869628906,0.18170000612735748,0,0.0,0.0,,,,,0,,1,,,87.515625,-95.25,2.03125
Raw,945680610,7890677000000,,,-1260194483767246080,0.0,4255.728796124458,100.80866604106288,9.979510391808951,2548,27,0.0,15,403974361646541,9,35.2,357.099365234375,0.06599999964237213,0,0.0,0.0,,,,,0,,1,,,87.515625,-95.25,2.03125
Raw,945680610,7890677000000,,,-1260194483767246080,0.0,4255.728796124458,100.80866604106288,9.979510391808951,2548,32,0.0,15,403974369938209,11,33.2,-374.8179931640625,0.056700002402067184,0,0.0,0.0,,,,,0,,1,,,87.515625,-95.25,2.03125
Raw,945681608,7891968000000,,,-1260194483766271232,0.0,4320.499487221241,98.42672339745774,16.28402324394416,2549,10,0.0,15,403975663594973,10,34.8,-318.3408508300781,0.02160000056028366,0,0.0,0.0,,,,,0,,1,,,122.921875,-80.5,9.03125
Raw,945681609,7891968000000,,,-1260194483766271232,0.0,4320.499487221241,98.42672339745774,16.28402324394416,2549,14,0.0,15,403975652656655,17,28.3,-479.0674133300781,0.058800000697374344,0,0.0,0.0,,,,,0,,1,,,122.921875,-80.5,9.03125
Raw,945681609,7891968000000,,,-1260194483766271232,0.0,4320.499487221241,98.42672339745774,16.28402324394416,2549,15,0.0,15,403975655337978,31,23.0,611.1185913085938,0.7339999675750732,0,0.0,0.0,,,,,0,,1,,,122.921875,-80.5,9.03125
Raw,945681610,7891968000000,,,-1260194483766271232,0.0,4320.499487221241,98.42672339745774,16.28402324394416,2549,20,0.0,15,403975667531457,31,23.4,-2.4262442588806152,0.722000002861023,0,0.0,0.0,,,,,0,,1,,,122.921875,-80.5,9.03125
Raw,945681610,7891968000000,,,-1260194483766271232,0.0,4320.499487221241,98.42672339745774,16.28402324394416,2549,21,0.0,15,403975662142353,31,23.0,408.6461181640625,0.8944999575614929,0,0.0,0.0,,,,,0,,1,,,122.921875,-80.5,9.03125
Raw,945681611,7891968000000,,,-1260194483766271232,0.0,4320.499487221241,98.42672339745774,16.28402324394416,2549,24,0.0,15,403975664727409,31,23.2,210.065185546875,0.7174999713897705,0,0.0,0.0,,,,,0,,1,,,122.921875,-80.5,9.03125
Raw,945681612,7891968000000,,,-1260194483766271232,0.0,4320.499487221241,98.42672339745774,16.28402324394416,2549,27,0.0,15,403975651670369,14,30.9,355.4558410644531,0.043299999088048935,0,0.0,0.0,,,,,0,,1,,,122.921875,-80.5,9.03125
Raw,945681613,7891968000000,,,-1260194483766271232,0.0,4320.499487221241,98.42672339745774,16.28402324394416,2549,32,0.0,15,403975659965140,8,36.1,-376.46795654296875,0.042500000447034836,0,0.0,0.0,,,,,0,,1,,,122.921875,-80.5,9.03125
Raw,945682618,7892684000000,,,-1260194483765665536,0.0,4254.74438816309,91.95634799904445,11.180126059330073,2550,10,0.0,15,403976378990323,9,35.7,-320.7921447753906,0.061500001698732376,0,0.0,0.0,,,,,0,,1,,,166.59375,-93.171875,2.78125
Raw,945682619,7892684000000,,,-1260194483765665536,0.0,4254.74438816309,91.95634799904445,11.180126059330073,2550,14,0.0,15,403976368052364,14,30.6,-482.20867919921875,0.0754999965429306,0,0.0,0.0,,,,,0,,1,,,166.59375,-93.171875,2.78125
Raw,945682620,7892684000000,,,-1260194483765665536,0.0,4254.74438816309,91.95634799904445,11.180126059330073,2550,15,0.0,15,403976370731084,16,29.4,610.0618896484375,0.08940000087022781,0,0.0,0.0,,,,,0,,1,,,166.59375,-93.171875,2.78125
Raw,945682621,7892684000000,,,-1260194483765665536,0.0,4254.74438816309,91.95634799904445,11.180126059330073,2550,24,0.0,15,403976380121575,16,29.3,207.91217041015625,0.10440000146627426,0,0.0,0.0,,,,,0,,1,,,166.59375,-93.171875,2.78125
Raw,945682622,7892684000000,,,-1260194483765665536,0.0,4254.74438816309,91.95634799904445,11.180126059330073,2550,27,0.0,15,403976367064036,10,34.1,352.7756042480469,0.04910000041127205,0,0.0,0.0,,,,,0,,1,,,166.59375,-93.171875,2.78125
Raw,945682623,7892684000000,,,-1260194483765665536,0.0,4254.74438816309,91.95634799904445,11.180126059330073,2550,32,0.0,15,403976375360594,12,32.4,-379.3365478515625,0.07100000232458115,0,0.0,0.0,,,,,0,,1,,,166.59375,-93.171875,2.78125
Raw,945683609,7893879000000,,,-1260194483765185536,0.0,4341.707564890385,83.58442287344079,10.842350485844864,2551,10,0.0,15,403977573511629,13,31.0,-315.1921691894531,0.07459999620914459,0,0.0,0.0,,,,,0,,1,,,195.875,-97.15625,7.140625
Raw,945683610,7893879000000,,,-1260194483765185536,0.0,4341.707564890385,83.58442287344079,10.842350485844864,2551,15,0.0,15,403977565248847,8,36.9,615.4662475585938,0.06800000369548798,0,0.0,0.0,,,,,0,,1,,,195.875,-97.15625,7.140625
Raw,945683611,7893879000000,,,-1260194483765185536,0.0,4341.707564890385,83.58442287344079,10.842350485844864,2551,20,0.0,15,403977577446128,13,31.1,0.6441749930381775,0.08060000091791153,0,0.0,0.0,,,,,0,,1,,,195.875,-97.15625,7.140625
Raw,945683611,7893879000000,,,-1260194483765185536,0.0,4341.707564890385,83.58442287344079,10.842350485844864,2551,21,0.0,15,403977572054455,21,26.0,410.8170471191406,0.20419999957084656,0,0.0,0.0,,,,,0,,1,,,195.875,-97.15625,7.140625
Raw,945683612,7893879000000,,,-1260194483765185536,0.0,4341.707564890385,83.58442287344079,10.842350485844864,2551,24,0.0,15,403977574640802,7,37.1,213.4420166015625,0.048500001430511475,0,0.0,0.0,,,,,0,,1,,,195.875,-97.15625,7.140625
Raw,945683612,7893879000000,,,-1260194483765185536,0.0,4341.707564890385,83.58442287344079,10.842350485844864,2551,27,0.0,15,403977561582699,16,29.4,358.307861328125,0.10589999705553055,0,0.0,0.0,,,,,0,,1,,,195.875,-97.15625,7.140625
Raw,945684606,7894986000000,,,-1260194483764563456,0.0,4294.331651180983,102.17672367851154,11.245669754946439,2552,10,0.0,15,403978679890634,21,26.3,-318.7471618652344,0.12620000541210175,0,0.0,0.0,,,,,0,,1,,,220.1875,-100.109375,9.9375
Raw,945684607,7894986000000,,,-1260194483764563456,0.0,4294.331651180983,102.17672367851154,11.245669754946439,2552,12,0.0,15,403978666708157,40,21.1,-489.9110412597656,0.840499997138977,0,0.0,0.0,,,,,0,,1,,,220.1875,-100.109375,9.9375
Raw,945684608,7894986000000,,,-1260194483764563456,0.0,4294.331651180983,102.17672367851154,11.245669754946439,2552,15,0.0,15,403978671624401,8,36.4,610.9296264648438,0.030500000342726707,0,0.0,0.0,,,,,0,,1,,,220.1875,-100.109375,9.9375
Raw,945684608,7894986000000,,,-1260194483764563456,0.0,4294.331651180983,102.17672367851154,11.245669754946439,2552,20,0.0,15,403978683823942,19,27.7,-3.7373859882354736,0.06809999793767929,0,0.0,0.0,,,,,0,,1,,,220.1875,-100.109375,9.9375
Raw,945684609,7894986000000,,,-1260194483764563456,0.0,4294.331651180983,102.17672367851154,11.245669754946439,2552,21,0.0,15,403978678430738,35,22.7,406.6099853515625,0.7384999990463257,0,0.0,0.0,,,,,0,,1,,,220.1875,-100.109375,9.9375
Raw,945684610,7894986000000,,,-1260194483764563456,0.0,4294.331651180983,102.17672367851154,11.245669754946439,2552,24,0.0,15,403978681017837,9,35.4,209.09349060058594,0.04650000110268593,0,0.0,0.0,,,,,0,,1,,,220.1875,-100.109375,9.9375
Raw,945684610,7894986000000,,,-1260194483764563456,0.0,4294.331651180983,102.17672367851154,11.245669754946439,2552,27,0.0,15,403978667959069,35,22.8,354.1365051269531,0.722000002861023,0,0.0,0.0,,,,,0,,1,,,220.1875,-100.109375,9.9375
Raw,945685603,7895781000000,,,-1260194483764332544,0.0,4230.758640915155,86.99710407102691,12.717942313781236,2553,10,0.0,15,403979474660706,14,30.4,-322.0267028808594,0.04780000075697899,0,0.0,0.0,,,,,0,,1,,,244.51562,-94.796875,2.5
Raw,945685603,7895781000000,,,-1260194483764332544,0.0,4230.758640915155,86.99710407102691,12.717942313781236,2553,12,0.0,15,403979461478737,35,22.1,-489.7683410644531,0.8029999732971191,0,0.0,0.0,,,,,0,,1,,,244.51562,-94.796875,2.5
Raw,945685604,7895781000000,,,-1260194483764332544,0.0,4230.758640915155,86.99710407102691,12.717942313781236,2553,15,0.0,15,403979466392014,7,37.1,608.5826416015625,0.02160000056028366,0,0.0,0.0,,,,,0,,1,,,244.51562,-94.796875,2.5
Raw,945685605,7895781000000,,,-1260194483764332544,0.0,4230.758640915155,86.99710407102691,12.717942313781236,2553,20,0.0,15,403979478593127,19,27.4,-6.018970012664795,0.09059999883174896,0,0.0,0.0,,,,,0,,1,,,244.51562,-94.796875,2.5
Raw,945685605,7895781000000,,,-1260194483764332544,0.0,4230.758640915155,86.99710407102691,12.717942313781236,2553,24,0.0,15,403979475786499,8,36.3,206.85142517089844,0.0364999994635582,0,0.0,0.0,,,,,0,,1,,,244.51562,-94.796875,2.5
Raw,945685605,7895781000000,,,-1260194483764332544,0.0,4230.758640915155,86.99710407102691,12.717942313781236,2553,27,0.0,15,403979462727367,35,22.3,352.1669921875,0.8044999837875366,0,0.0,0.0,,,,,0,,1,,,244.51562,-94.796875,2.5
Raw,945686599,7896770000000,,,-1260194483763586560,0.0,4248.833749443293,79.21794793402516,13.628633536500185,2554,10,0.0,15,403980462915951,46,20.6,-318.00927734375,0.8344999551773071,0,0.0,0.0,,,,,0,,1,,,266.10938,-76.71875,13.203125
Raw,945686600,7896770000000,,,-1260194483763586560,0.0,4248.833749443293,79.21794793402516,13.628633536500185,2554,15,0.0,15,403980454644223,11,33.3,612.1362915039062,0.04000000283122063,0,0.0,0.0,,,,,0,,1,,,266.10938,-76.71875,13.203125
Raw,945686601,7896770000000,,,-1260194483763586560,0.0,4248.833749443293,79.21794793402516,13.628633536500185,2554,20,0.0,15,403980466847402,19,27.5,-2.537782907485962,0.07259999960660934,0,0.0,0.0,,,,,0,,1,,,266.10938,-76.71875,13.203125
Raw,945686602,7896770000000,,,-1260194483763586560,0.0,4248.833749443293,79.21794793402516,13.628633536500185,2554,21,0.0,15,403980461451963,21,26.8,407.4078369140625,0.12919999659061432,0,0.0,0.0,,,,,0,,1,,,266.10938,-76.71875,13.203125
Raw,945686602,7896770000000,,,-1260194483763586560,0.0,4248.833749443293,79.21794793402516,13.628633536500185,2554,24,0.0,15,403980464040048,11,33.4,210.35865783691406,0.02500000037252903,0,0.0,0.0,,,,,0,,1,,,266.10938,-76.71875,13.203125
Raw,945686603,7896770000000,,,-1260194483763586560,0.0,4248.833749443293,79.21794793402516,13.628633536500185,2554,32,0.0,15,403980459287093,40,21.6,-376.6863098144531,0.800000011920929,0,0.0,0.0,,,,,0,,1,,,266.10938,-76.71875,13.203125
Raw,945687619,7897788000000,,,-1260194483763333632,0.0,4232.806619256735,91.08594400856843,9.130465203424386,2555,10,0.0,15,403981480664091,17,28.9,-315.5516662597656,0.07079999893903732,0,0.0,0.0,,,,,0,,1,,,313.85938,-93.640625,3.5625
Raw,945687621,7897788000000,,,-1260194483763333632,0.0,4232.806619256735,91.08594400856843,9.130465203424386,2555,14,0.0,15,403981469728871,40,21.2,-477.2945861816406,0.8449999690055847,0,0.0,0.0,,,,,0,,1,,,313.85938,-93.640625,3.5625
Raw,945687622,7897788000000,,,-1260194483763333632,0.0,4232.806619256735,91.08594400856843,9.130465203424386,2555,15,0.0,15,403981472389239,9,35.8,615.0112915039062,0.032999999821186066,0,0.0,0.0,,,,,0,,1,,,313.85938,-93.640625,3.5625
Raw,945687622,7897788000000,,,-1260194483763333632,0.0,4232.806619256735,91.08594400856843,9.130465203424386,2555,20,0.0,15,403981484594455,17,28.2,0.37218353152275085,0.07680000364780426,0,0.0,0.0,,,,,0,,1,,,313.85938,-93.640625,3.5625
Raw,945687623,7897788000000,,,-1260194483763333632,0.0,4232.806619256735,91.08594400856843,9.130465203424386,2555,21,0.0,15,403981479197648,9,35.1,410.4979553222656,0.04350000247359276,0,0.0,0.0,,,,,0,,1,,,313.85938,-93.640625,3.5625
Raw,945687624,7897788000000,,,-1260194483763333632,0.0,4232.806619256735,91.08594400856843,9.130465203424386,2555,24,0.0,15,403981481786427,12,32.3,213.33827209472656,0.05290000140666962,0,0.0,0.0,,,,,0,,1,,,313.85938,-93.640625,3.5625
Raw,945687625,7897788000000,,,-1260194483763333632,0.0,4232.806619256735,91.08594400856843,9.130465203424386,2555,27,0.0,15,403981468726295,35,22.4,358.3610534667969,0.7834999561309814,0,0.0,0.0,,,,,0,,1,,,313.85938,-93.640625,3.5625
Raw,945687625,7897788000000,,,-1260194483763333632,0.0,4232.806619256735,91.08594400856843,9.130465203424386,2555,32,0.0,15,403981477035350,24,25.6,-374.06402587890625,0.20489999651908875,0,0.0,0.0,,,,,0,,1,,,313.85938,-93.640625,3.5625
Raw,945688614,7898774000000,,,-1260194483762987520,0.0,4217.333626002073,100.85100668310588,9.993231336534116,2556,10,0.0,15,403982466318825,21,26.5,-318.1430358886719,0.10669999569654465,0,0.0,0.0,,,,,0,,1,,,359.23438,-85.796875,4.125
Raw,945688615,7898774000000,,,-1260194483762987520,0.0,4217.333626002073,100.85100668310588,9.993231336534116,2556,14,0.0,15,403982455384378,17,28.9,-479.2109680175781,0.0632999986410141,0,0.0,0.0,,,,,0,,1,,,359.23438,-85.796875,4.125
Raw,945688616,7898774000000,,,-1260194483762987520,0.0,4217.333626002073,100.85100668310588,9.993231336534116,2556,15,0.0,15,403982458040995,14,30.1,612.865966796875,0.05380000174045563,0,0.0,0.0,,,,,0,,1,,,359.23438,-85.796875,4.125
