# 
# Header Description:
# 
# Version: v2.0.0.1 Platform: 8.0.0 Manufacturer: Xiaomi Model: MIX 2
# 
# Raw,ElapsedRealtimeMillis,TimeNanos,LeapSecond,TimeUncertaintyNanos,FullBiasNanos,BiasNanos,BiasUncertaintyNanos,DriftNanosPerSecond,DriftUncertaintyNanosPerSecond,HardwareClockDiscontinuityCount,Svid,TimeOffsetNanos,State,ReceivedSvTimeNanos,ReceivedSvTimeUncertaintyNanos,Cn0DbHz,PseudorangeRateMetersPerSecond,PseudorangeRateUncertaintyMetersPerSecond,AccumulatedDeltaRangeState,AccumulatedDeltaRangeMeters,AccumulatedDeltaRangeUncertaintyMeters,CarrierFrequencyHz,CarrierCycles,CarrierPhase,CarrierPhaseUncertainty,MultipathIndicator,SnrInDb,ConstellationType,AgcDb,CarrierFrequencyHz,AngleZ,AngleX,AngleY
# 
# Fix,Provider,Latitude,Longitude,Altitude,Speed,Accuracy,SpeedAccuracy,BearingAccuracy,TimeInMs
# 
# Nav,Svid,Type,Status,MessageId,Sub-messageId,Data(Bytes)
# 
Raw,945381598,7591561000000,,,-1260194483885406208,0.0,81.52021473506466,11.086390526377453,15.30433045349008,2303,10,0.0,15,403675375376885,24,25.7,-355.3636169433594,0.4043000042438507,0,0.0,0.0,,,,,0,,1,,,46.09375,-100.25,2.15625
Raw,945381599,7591561000000,,,-1260194483885406208,0.0,81.52021473506466,11.086390526377453,15.30433045349008,2303,12,0.0,15,403675362029079,27,24.2,-512.9556274414062,0.6694999933242798,0,0.0,0.0,,,,,0,,1,,,46.09375,-100.25,2.15625
Raw,945381599,7591561000000,,,-1260194483885406208,0.0,81.52021473506466,11.086390526377453,15.30433045349008,2303,14,0.0,15,403675364278409,69,18.5,-513.716796875,2.502500057220459,0,0.0,0.0,,,,,0,,1,,,46.09375,-100.25,2.15625
Raw,945381600,7591561000000,,,-1260194483885406208,0.0,81.52021473506466,11.086390526377453,15.30433045349008,2303,15,0.0,15,403675368057748,7,37.7,585.9733276367188,0.032600000500679016,0,0.0,0.0,,,,,0,,1,,,46.09375,-100.25,2.15625
Raw,945381600,7591561000000,,,-1260194483885406208,0.0,81.52021473506466,11.086390526377453,15.30433045349008,2303,20,0.0,15,403675379623734,14,30.3,-51.5091552734375,0.024300001561641693,0,0.0,0.0,,,,,0,,1,,,46.09375,-100.25,2.15625
Raw,945381601,7591561000000,,,-1260194483885406208,0.0,81.52021473506466,11.086390526377453,15.30433045349008,2303,21,0.0,15,403675374644815,43,22.0,356.48663330078125,2.307500123977661,0,0.0,0.0,,,,,0,,1,,,46.09375,-100.25,2.15625
Raw,945381601,7591561000000,,,-1260194483885406208,0.0,81.52021473506466,11.086390526377453,15.30433045349008,2303,24,0.0,15,403675377025722,14,30.3,146.7956085205078,0.05130000039935112,0,0.0,0.0,,,,,0,,1,,,46.09375,-100.25,2.15625
Raw,945381602,7591561000000,,,-1260194483885406208,0.0,81.52021473506466,11.086390526377453,15.30433045349008,2303,27,0.0,15,403675364122223,14,30.8,308.2777099609375,0.03180000185966492,0,0.0,0.0,,,,,0,,1,,,46.09375,-100.25,2.15625
Raw,945381602,7591561000000,,,-1260194483885406208,0.0,81.52021473506466,11.086390526377453,15.30433045349008,2303,32,0.0,15,403675371687202,70,17.8,-415.8868103027344,1.0929999351501465,0,0.0,0.0,,,,,0,,1,,,46.09375,-100.25,2.15625
Raw,945382594,7592561000000,,,-1260194483885406208,0.0,69.23337787156925,9.706546857466039,14.72119229086752,2303,10,0.0,15,403676375378103,16,29.6,-355.6062316894531,0.04920000210404396,0,0.0,0.0,,,,,0,,1,,,230.67188,-83.515625,-2.546875
Raw,945382595,7592561000000,,,-1260194483885406208,0.0,69.23337787156925,9.706546857466039,14.72119229086752,2303,12,0.0,15,403676362030907,31,23.3,-512.9176025390625,0.7294999957084656,0,0.0,0.0,,,,,0,,1,,,230.67188,-83.515625,-2.546875
Raw,945382595,7592561000000,,,-1260194483885406208,0.0,69.23337787156925,9.706546857466039,14.72119229086752,2303,14,0.0,15,403676364280177,110,14.6,-514.5160522460938,2.112499952316284,0,0.0,0.0,,,,,0,,1,,,230.67188,-83.515625,-2.546875
Raw,945382596,7592561000000,,,-1260194483885406208,0.0,69.23337787156925,9.706546857466039,14.72119229086752,2303,15,0.0,15,403676368055807,10,34.2,585.76708984375,0.0340999998152256,0,0.0,0.0,,,,,0,,1,,,230.67188,-83.515625,-2.546875
Raw,945382596,7592561000000,,,-1260194483885406208,0.0,69.23337787156925,9.706546857466039,14.72119229086752,2303,20,0.0,15,403676379623927,16,29.5,-51.66135025024414,0.025200001895427704,0,0.0,0.0,,,,,0,,1,,,230.67188,-83.515625,-2.546875
Raw,945382597,7592561000000,,,-1260194483885406208,0.0,69.23337787156925,9.706546857466039,14.72119229086752,2303,21,0.0,15,403676374643491,64,18.8,356.1060485839844,1.7675000429153442,0,0.0,0.0,,,,,0,,1,,,230.67188,-83.515625,-2.546875
Raw,945382597,7592561000000,,,-1260194483885406208,0.0,69.23337787156925,9.706546857466039,14.72119229086752,2303,24,0.0,15,403676377025232,13,31.3,146.7511749267578,0.050700001418590546,0,0.0,0.0,,,,,0,,1,,,230.67188,-83.515625,-2.546875
Raw,945382598,7592561000000,,,-1260194483885406208,0.0,69.23337787156925,9.706546857466039,14.72119229086752,2303,27,0.0,15,403676364121219,17,28.7,308.0787048339844,0.03930000215768814,0,0.0,0.0,,,,,0,,1,,,230.67188,-83.515625,-2.546875
Raw,945382598,7592561000000,,,-1260194483885406208,0.0,69.23337787156925,9.706546857466039,14.72119229086752,2303,32,0.0,15,403676371688589,79,17.8,-415.8868103027344,2.5929999351501465,0,0.0,0.0,,,,,0,,1,,,230.67188,-83.515625,-2.546875
Raw,945383593,7593561000000,,,-1260194483885405952,0.0,57.852146710501984,9.083068974201316,12.490610285057086,2303,10,0.0,15,403677375379329,19,27.8,-357.6358642578125,0.06379999965429306,0,0.0,0.0,,,,,0,,1,,,247.40625,-82.859375,3.875
Raw,945383594,7593561000000,,,-1260194483885405952,0.0,57.852146710501984,9.083068974201316,12.490610285057086,2303,12,0.0,15,403677362032804,70,17.2,-514.77294921875,1.1694999933242798,0,0.0,0.0,,,,,0,,1,,,247.40625,-82.859375,3.875
Raw,945383594,7593561000000,,,-1260194483885405952,0.0,57.852146710501984,9.083068974201316,12.490610285057086,2303,14,0.0,15,403677364281894,124,14.6,-514.5160522460938,3.6125001907348633,0,0.0,0.0,,,,,0,,1,,,247.40625,-82.859375,3.875
Raw,945383594,7593561000000,,,-1260194483885405952,0.0,57.852146710501984,9.083068974201316,12.490610285057086,2303,15,0.0,15,403677368053846,17,28.2,583.5202026367188,0.04529999941587448,0,0.0,0.0,,,,,0,,1,,,247.40625,-82.859375,3.875
Raw,945383595,7593561000000,,,-1260194483885405952,0.0,57.852146710501984,9.083068974201316,12.490610285057086,2303,20,0.0,15,403677379624092,21,26.7,-53.77957534790039,0.10970000177621841,0,0.0,0.0,,,,,0,,1,,,247.40625,-82.859375,3.875
Raw,945383595,7593561000000,,,-1260194483885405952,0.0,57.852146710501984,9.083068974201316,12.490610285057086,2303,21,0.0,15,403677374642333,40,21.6,354.4980773925781,0.8075000047683716,0,0.0,0.0,,,,,0,,1,,,247.40625,-82.859375,3.875
Raw,945383596,7593561000000,,,-1260194483885405952,0.0,57.852146710501984,9.083068974201316,12.490610285057086,2303,24,0.0,15,403677377024736,16,29.6,144.58465576171875,0.05220000073313713,0,0.0,0.0,,,,,0,,1,,,247.40625,-82.859375,3.875
Raw,945383596,7593561000000,,,-1260194483885405952,0.0,57.852146710501984,9.083068974201316,12.490610285057086,2303,27,0.0,15,403677364120164,31,23.3,305.94464111328125,0.7324999570846558,0,0.0,0.0,,,,,0,,1,,,247.40625,-82.859375,3.875
Raw,945383597,7593561000000,,,-1260194483885405952,0.0,57.852146710501984,9.083068974201316,12.490610285057086,2303,32,0.0,15,403677371690087,49,20.4,-418.4748229980469,1.6829999685287476,0,0.0,0.0,,,,,0,,1,,,247.40625,-82.859375,3.875
Raw,945384604,7594561000000,,,-1260194483885405952,0.0,53.2849517185241,1.9913084686227869,12.550618045112572,2303,10,0.0,15,403678375380456,24,25.9,-355.94903564453125,0.4043000042438507,0,0.0,0.0,,,,,0,,1,,,294.5625,-81.859375,-0.96875
Raw,945384605,7594561000000,,,-1260194483885405952,0.0,53.2849517185241,1.9913084686227869,12.550618045112572,2303,12,0.0,15,403678362034521,79,17.2,-514.77294921875,2.6695001125335693,0,0.0,0.0,,,,,0,,1,,,294.5625,-81.859375,-0.96875
Raw,945384605,7594561000000,,,-1260194483885405952,0.0,53.2849517185241,1.9913084686227869,12.550618045112572,2303,14,0.0,15,403678364283394,73,17.7,-514.9442138671875,1.8324999809265137,0,0.0,0.0,,,,,0,,1,,,294.5625,-81.859375,-0.96875
Raw,945384606,7594561000000,,,-1260194483885405952,0.0,53.2849517185241,1.9913084686227869,12.550618045112572,2303,15,0.0,15,403678368051882,13,31.0,585.2596435546875,0.03720000013709068,0,0.0,0.0,,,,,0,,1,,,294.5625,-81.859375,-0.96875
Raw,945384607,7594561000000,,,-1260194483885405952,0.0,53.2849517185241,1.9913084686227869,12.550618045112572,2303,20,0.0,15,403678379624265,17,28.2,-51.996864318847656,0.03180000185966492,0,0.0,0.0,,,,,0,,1,,,294.5625,-81.859375,-0.96875
Raw,945384607,7594561000000,,,-1260194483885405952,0.0,53.2849517185241,1.9913084686227869,12.550618045112572,2303,21,0.0,15,403678374641220,16,29.4,356.0276184082031,0.047700002789497375,0,0.0,0.0,,,,,0,,1,,,294.5625,-81.859375,-0.96875
Raw,945384608,7594561000000,,,-1260194483885405952,0.0,53.2849517185241,1.9913084686227869,12.550618045112572,2303,24,0.0,15,403678377024264,14,30.4,146.35321044921875,0.05130000039935112,0,0.0,0.0,,,,,0,,1,,,294.5625,-81.859375,-0.96875
Raw,945384609,7594561000000,,,-1260194483885405952,0.0,53.2849517185241,1.9913084686227869,12.550618045112572,2303,27,0.0,15,403678364119023,61,18.5,306.9436950683594,1.002500057220459,0,0.0,0.0,,,,,0,,1,,,294.5625,-81.859375,-0.96875
Raw,945384609,7594561000000,,,-1260194483885405952,0.0,53.2849517185241,1.9913084686227869,12.550618045112572,2303,32,0.0,15,403678371691375,61,18.0,-418.084716796875,1.0929999351501465,0,0.0,0.0,,,,,0,,1,,,294.5625,-81.859375,-0.96875
Raw,945385602,7595561000000,,,-1260194483885405952,0.0,58.90432294108905,6.999174548096855,16.592688433106645,2303,10,0.0,15,403679375381587,31,23.2,-353.0423278808594,0.7489999532699585,0,0.0,0.0,,,,,0,,1,,,334.3125,-82.328125,-5.78125
Raw,945385603,7595561000000,,,-1260194483885405952,0.0,58.90432294108905,6.999174548096855,16.592688433106645,2303,12,0.0,15,403679362036238,98,17.2,-514.77294921875,4.169500350952148,0,0.0,0.0,,,,,0,,1,,,334.3125,-82.328125,-5.78125
Raw,945385604,7595561000000,,,-1260194483885405952,0.0,58.90432294108905,6.999174548096855,16.592688433106645,2303,14,0.0,15,403679364285401,31,23.1,-512.2800903320312,0.7324999570846558,0,0.0,0.0,,,,,0,,1,,,334.3125,-82.328125,-5.78125
Raw,945385604,7595561000000,,,-1260194483885405952,0.0,58.90432294108905,6.999174548096855,16.592688433106645,2303,15,0.0,15,403679368049934,9,35.4,587.8901977539062,0.03360000252723694,0,0.0,0.0,,,,,0,,1,,,334.3125,-82.328125,-5.78125
Raw,945385605,7595561000000,,,-1260194483885405952,0.0,58.90432294108905,6.999174548096855,16.592688433106645,2303,20,0.0,15,403679379624393,21,26.6,-49.07779312133789,0.10970000177621841,0,0.0,0.0,,,,,0,,1,,,334.3125,-82.328125,-5.78125
Raw,945385605,7595561000000,,,-1260194483885405952,0.0,58.90432294108905,6.999174548096855,16.592688433106645,2303,21,0.0,15,403679374640000,12,32.2,358.95782470703125,0.04490000009536743,0,0.0,0.0,,,,,0,,1,,,334.3125,-82.328125,-5.78125
Raw,945385606,7595561000000,,,-1260194483885405952,0.0,58.90432294108905,6.999174548096855,16.592688433106645,2303,24,0.0,15,403679377023759,11,33.0,149.2100372314453,0.04840000346302986,0,0.0,0.0,,,,,0,,1,,,334.3125,-82.328125,-5.78125
Raw,945385606,7595561000000,,,-1260194483885405952,0.0,58.90432294108905,6.999174548096855,16.592688433106645,2303,27,0.0,15,403679364117976,61,18.3,310.1216125488281,1.0824999809265137,0,0.0,0.0,,,,,0,,1,,,334.3125,-82.328125,-5.78125
Raw,945385606,7595561000000,,,-1260194483885405952,0.0,58.90432294108905,6.999174548096855,16.592688433106645,2303,32,0.0,15,403679371692856,46,20.8,-414.5833435058594,0.8629999756813049,0,0.0,0.0,,,,,0,,1,,,334.3125,-82.328125,-5.78125
Raw,945386612,7596366000000,,,-1260194483885405696,0.0,51.753879233729094,15.832190378939002,10.53799968404307,2303,10,0.0,15,403680180382535,36,23.2,-353.0423278808594,1.9565000534057617,0,0.0,0.0,,,,,0,,1,,,13.890625,-81.765625,-0.28125
Raw,945386613,7596366000000,,,-1260194483885405696,0.0,51.753879233729094,15.832190378939002,10.53799968404307,2303,14,0.0,15,403680169286704,11,33.2,-511.4979553222656,0.0325000025331974,0,0.0,0.0,,,,,0,,1,,,13.890625,-81.765625,-0.28125
Raw,945386613,7596366000000,,,-1260194483885405696,0.0,51.753879233729094,15.832190378939002,10.53799968404307,2303,15,0.0,15,403680173048331,14,30.6,589.070556640625,0.046300001442432404,0,0.0,0.0,,,,,0,,1,,,13.890625,-81.765625,-0.28125
Raw,945386614,7596366000000,,,-1260194483885405696,0.0,51.753879233729094,15.832190378939002,10.53799968404307,2303,20,0.0,15,403680184624516,24,25.8,-48.551002502441406,0.18540000915527344,0,0.0,0.0,,,,,0,,1,,,13.890625,-81.765625,-0.28125
Raw,945386614,7596366000000,,,-1260194483885405696,0.0,51.753879233729094,15.832190378939002,10.53799968404307,2303,21,0.0,15,403680179639028,11,33.9,359.7137145996094,0.04750000312924385,0,0.0,0.0,,,,,0,,1,,,13.890625,-81.765625,-0.28125
Raw,945386615,7596366000000,,,-1260194483885405696,0.0,51.753879233729094,15.832190378939002,10.53799968404307,2303,24,0.0,15,403680182023361,12,32.3,150.29428100585938,0.0544000007212162,0,0.0,0.0,,,,,0,,1,,,13.890625,-81.765625,-0.28125
Raw,945386615,7596366000000,,,-1260194483885405696,0.0,51.753879233729094,15.832190378939002,10.53799968404307,2303,27,0.0,15,403680169117180,24,25.6,311.2905578613281,0.19290000200271606,0,0.0,0.0,,,,,0,,1,,,13.890625,-81.765625,-0.28125
Raw,945386616,7596366000000,,,-1260194483885405696,0.0,51.753879233729094,15.832190378939002,10.53799968404307,2303,32,0.0,15,403680176694069,13,31.6,-413.6641540527344,0.04780000075697899,0,0.0,0.0,,,,,0,,1,,,13.890625,-81.765625,-0.28125
Raw,945387611,7597564000000,,,-1260194483884881152,0.0,4205.013159662485,19.000337667872536,13.67333138483573,2304,10,0.0,15,403681377859334,14,30.1,-351.2671203613281,0.08900000154972076,0,0.0,0.0,,,,,0,,1,,,58.734375,-80.109375,-1.421875
Raw,945387612,7597564000000,,,-1260194483884881152,0.0,4205.013159662485,19.000337667872536,13.67333138483573,2304,14,0.0,15,403681366764016,6,38.3,-510.09375,0.033900000154972076,0,0.0,0.0,,,,,0,,1,,,58.734375,-80.109375,-1.421875
Raw,945387613,7597564000000,,,-1260194483884881152,0.0,4205.013159662485,19.000337667872536,13.67333138483573,2304,20,0.0,15,403681382099989,19,27.3,-47.051719665527344,0.19670000672340393,0,0.0,0.0,,,,,0,,1,,,58.734375,-80.109375,-1.421875
Raw,945387614,7597564000000,,,-1260194483884881152,0.0,4205.013159662485,19.000337667872536,13.67333138483573,2304,21,0.0,15,403681377112854,14,30.7,361.1006164550781,0.08900000154972076,0,0.0,0.0,,,,,0,,1,,,58.734375,-80.109375,-1.421875
Raw,945387615,7597564000000,,,-1260194483884881152,0.0,4205.013159662485,19.000337667872536,13.67333138483573,2304,27,0.0,15,403681366591351,9,35.9,312.4716491699219,0.04349999874830246,0,0.0,0.0,,,,,0,,1,,,58.734375,-80.109375,-1.421875
Raw,945387615,7597564000000,,,-1260194483884881152,0.0,4205.013159662485,19.000337667872536,13.67333138483573,2304,32,0.0,15,403681374171030,8,36.1,-412.2907409667969,0.051500000059604645,0,0.0,0.0,,,,,0,,1,,,58.734375,-80.109375,-1.421875
Raw,945388609,7598759000000,,,-1260194483883906304,0.0,4265.808500349522,22.897186174945105,15.005782800917956,2305,10,0.0,15,403682571885866,9,35.6,-350.2486877441406,0.050999999046325684,0,0.0,0.0,,,,,0,,1,,,99.78125,-79.65625,-4.21875
Raw,945388610,7598759000000,,,-1260194483883906304,0.0,4265.808500349522,22.897186174945105,15.005782800917956,2305,14,0.0,15,403682560791213,12,32.7,-508.9682922363281,0.07850000262260437,0,0.0,0.0,,,,,0,,1,,,99.78125,-79.65625,-4.21875
Raw,945388611,7598759000000,,,-1260194483883906304,0.0,4265.808500349522,22.897186174945105,15.005782800917956,2305,20,0.0,15,403682576125436,31,23.7,-46.460201263427734,0.6754999756813049,0,0.0,0.0,,,,,0,,1,,,99.78125,-79.65625,-4.21875
Raw,945388611,7598759000000,,,-1260194483883906304,0.0,4265.808500349522,22.897186174945105,15.005782800917956,2305,21,0.0,15,403682571136623,11,33.8,362.0367736816406,0.059700001031160355,0,0.0,0.0,,,,,0,,1,,,99.78125,-79.65625,-4.21875
Raw,945388612,7598759000000,,,-1260194483883906304,0.0,4265.808500349522,22.897186174945105,15.005782800917956,2305,24,0.0,15,403682573522712,27,24.7,153.27203369140625,0.6210000514984131,0,0.0,0.0,,,,,0,,1,,,99.78125,-79.65625,-4.21875
Raw,945388613,7598759000000,,,-1260194483883906304,0.0,4265.808500349522,22.897186174945105,15.005782800917956,2305,27,0.0,15,403682560615263,6,38.1,313.71038818359375,0.05490000173449516,0,0.0,0.0,,,,,0,,1,,,99.78125,-79.65625,-4.21875
Raw,945388613,7598759000000,,,-1260194483883906304,0.0,4265.808500349522,22.897186174945105,15.005782800917956,2305,32,0.0,15,403682568197809,12,32.0,-411.2455749511719,0.060499999672174454,0,0.0,0.0,,,,,0,,1,,,99.78125,-79.65625,-4.21875
Raw,945389637,7599774000000,,,-1260194483883292160,0.0,4218.64865347743,26.50354002233299,12.19444131130447,2306,10,0.0,15,403683586272806,10,34.7,-350.1293640136719,0.047599997371435165,0,0.0,0.0,,,,,0,,1,,,141.28125,-82.59375,-2.546875
Raw,945389637,7599774000000,,,-1260194483883292160,0.0,4218.64865347743,26.50354002233299,12.19444131130447,2306,14,0.0,15,403683575178666,12,32.3,-509.019775390625,0.07100000232458115,0,0.0,0.0,,,,,0,,1,,,141.28125,-82.59375,-2.546875
Raw,945389639,7599774000000,,,-1260194483883292160,0.0,4218.64865347743,26.50354002233299,12.19444131130447,2306,15,0.0,15,403683578927730,19,27.0,591.0022583007812,0.1907000094652176,0,0.0,0.0,,,,,0,,1,,,141.28125,-82.59375,-2.546875
Raw,945389640,7599774000000,,,-1260194483883292160,0.0,4218.64865347743,26.50354002233299,12.19444131130447,2306,20,0.0,15,403683590511209,19,27.8,-45.92118453979492,0.17870000004768372,0,0.0,0.0,,,,,0,,1,,,141.28125,-82.59375,-2.546875
Raw,945389640,7599774000000,,,-1260194483883292160,0.0,4218.64865347743,26.50354002233299,12.19444131130447,2306,21,0.0,15,403683585521231,24,25.8,362.0943298339844,1.1679999828338623,0,0.0,0.0,,,,,0,,1,,,141.28125,-82.59375,-2.546875
Raw,945389641,7599774000000,,,-1260194483883292160,0.0,4218.64865347743,26.50354002233299,12.19444131130447,2306,27,0.0,15,403683574999880,8,36.0,313.6896057128906,0.27250000834465027,0,0.0,0.0,,,,,0,,1,,,141.28125,-82.59375,-2.546875
Raw,945389642,7599774000000,,,-1260194483883292160,0.0,4218.64865347743,26.50354002233299,12.19444131130447,2306,32,0.0,15,403683582584867,8,36.7,-411.1504211425781,0.06350000202655792,0,0.0,0.0,,,,,0,,1,,,141.28125,-82.59375,-2.546875
Raw,945390611,7600759000000,,,-1260194483882898944,0.0,4201.675299555063,26.207171433607563,12.098638053533824,2307,10,0.0,15,403684570881253,9,35.4,-352.2115783691406,0.0494999997317791,0,0.0,0.0,,,,,0,,1,,,183.75,-83.21875,-3.96875
Raw,945390612,7600759000000,,,-1260194483882898944,0.0,4201.675299555063,26.207171433607563,12.098638053533824,2307,12,0.0,15,403684557538358,31,23.4,-508.86431884765625,0.7369999885559082,0,0.0,0.0,,,,,0,,1,,,183.75,-83.21875,-3.96875
Raw,945390612,7600759000000,,,-1260194483882898944,0.0,4201.675299555063,26.207171433607563,12.098638053533824,2307,14,0.0,15,403684559787718,17,28.2,-510.608642578125,0.125900000333786,0,0.0,0.0,,,,,0,,1,,,183.75,-83.21875,-3.96875
Raw,945390613,7600759000000,,,-1260194483882898944,0.0,4201.675299555063,26.207171433607563,12.098638053533824,2307,15,0.0,15,403684563533184,12,32.1,588.2806396484375,0.05299999937415123,0,0.0,0.0,,,,,0,,1,,,183.75,-83.21875,-3.96875
Raw,945390614,7600759000000,,,-1260194483882898944,0.0,4201.675299555063,26.207171433607563,12.098638053533824,2307,20,0.0,15,403684575118771,24,25.3,-48.154693603515625,1.183000087738037,0,0.0,0.0,,,,,0,,1,,,183.75,-83.21875,-3.96875
Raw,945390615,7600759000000,,,-1260194483882898944,0.0,4201.675299555063,26.207171433607563,12.098638053533824,2307,21,0.0,15,403684570127095,31,23.9,360.2164306640625,0.6664999723434448,0,0.0,0.0,,,,,0,,1,,,183.75,-83.21875,-3.96875
Raw,945390616,7600759000000,,,-1260194483882898944,0.0,4201.675299555063,26.207171433607563,12.098638053533824,2307,24,0.0,15,403684572514565,19,27.6,150.5175323486328,0.18170000612735748,0,0.0,0.0,,,,,0,,1,,,183.75,-83.21875,-3.96875
Raw,945390616,7600759000000,,,-1260194483882898944,0.0,4201.675299555063,26.207171433607563,12.098638053533824,2307,27,0.0,15,403684559606182,11,33.2,312.04180908203125,0.07170000672340393,0,0.0,0.0,,,,,0,,1,,,183.75,-83.21875,-3.96875
Raw,945390617,7600759000000,,,-1260194483882898944,0.0,4201.675299555063,26.207171433607563,12.098638053533824,2307,32,0.0,15,403684567193566,16,29.0,-412.9671936035156,0.08489999920129776,0,0.0,0.0,,,,,0,,1,,,183.75,-83.21875,-3.96875
Raw,945391603,7601753000000,,,-1260194483882716416,0.0,4225.374199450016,18.45186411654543,10.118055112125779,2308,10,0.0,15,403685564699575,8,36.3,-354.0129089355469,0.0364999994635582,0,0.0,0.0,,,,,0,,1,,,216.92188,-82.328125,-7.671875
Raw,945391604,7601753000000,,,-1260194483882716416,0.0,4225.374199450016,18.45186411654543,10.118055112125779,2308,12,0.0,15,403685551357311,24,25.2,-511.8261413574219,1.1770000457763672,0,0.0,0.0,,,,,0,,1,,,216.92188,-82.328125,-7.671875
Raw,945391605,7601753000000,,,-1260194483882716416,0.0,4225.374199450016,18.45186411654543,10.118055112125779,2308,14,0.0,15,403685553606439,27,24.7,-512.4513549804688,0.6210000514984131,0,0.0,0.0,,,,,0,,1,,,216.92188,-82.328125,-7.671875
Raw,945391605,7601753000000,,,-1260194483882716416,0.0,4225.374199450016,18.45186411654543,10.118055112125779,2308,15,0.0,15,403685557348364,9,35.5,587.220458984375,0.06000000238418579,0,0.0,0.0,,,,,0,,1,,,216.92188,-82.328125,-7.671875
Raw,945391606,7601753000000,,,-1260194483882716416,0.0,4225.374199450016,18.45186411654543,10.118055112125779,2308,20,0.0,15,403685568935976,13,31.0,-49.64789581298828,0.06709999591112137,0,0.0,0.0,,,,,0,,1,,,216.92188,-82.328125,-7.671875
Raw,945391606,7601753000000,,,-1260194483882716416,0.0,4225.374199450016,18.45186411654543,10.118055112125779,2308,24,0.0,15,403685566331254,9,35.3,149.23414611816406,0.04349999874830246,0,0.0,0.0,,,,,0,,1,,,216.92188,-82.328125,-7.671875
Raw,945391607,7601753000000,,,-1260194483882716416,0.0,4225.374199450016,18.45186411654543,10.118055112125779,2308,27,0.0,15,403685553422341,14,30.0,310.0347900390625,0.08299999684095383,0,0.0,0.0,,,,,0,,1,,,216.92188,-82.328125,-7.671875
Raw,945391607,7601753000000,,,-1260194483882716416,0.0,4225.374199450016,18.45186411654543,10.118055112125779,2308,32,0.0,15,403685561012101,21,26.2,-414.81939697265625,0.28220000863075256,0,0.0,0.0,,,,,0,,1,,,216.92188,-82.328125,-7.671875
Raw,945392602,7602863000000,,,-1260194483882616576,0.0,4228.801000863314,13.48761311335316,11.669811808244328,2309,10,0.0,15,403686674601285,24,25.6,-353.2439270019531,0.20040000975131989,0,0.0,0.0,,,,,0,,1,,,249.54688,-85.828125,-0.25
Raw,945392603,7602863000000,,,-1260194483882616576,0.0,4228.801000863314,13.48761311335316,11.669811808244328,2309,12,0.0,15,403686661259537,31,23.0,-511.08123779296875,0.7429999709129333,0,0.0,0.0,,,,,0,,1,,,249.54688,-85.828125,-0.25
Raw,945392604,7602863000000,,,-1260194483882616576,0.0,4228.801000863314,13.48761311335316,11.669811808244328,2309,15,0.0,15,403686667246520,9,35.4,587.650146484375,0.02550000138580799,0,0.0,0.0,,,,,0,,1,,,249.54688,-85.828125,-0.25
Raw,945392604,7602863000000,,,-1260194483882616576,0.0,4228.801000863314,13.48761311335316,11.669811808244328,2309,20,0.0,15,403686678836519,17,28.8,-48.97766876220703,0.06780000030994415,0,0.0,0.0,,,,,0,,1,,,249.54688,-85.828125,-0.25
Raw,945392605,7602863000000,,,-1260194483882616576,0.0,4228.801000863314,13.48761311335316,11.669811808244328,2309,24,0.0,15,403686676230995,9,35.9,149.87173461914062,0.039000000804662704,0,0.0,0.0,,,,,0,,1,,,249.54688,-85.828125,-0.25
Raw,945392606,7602863000000,,,-1260194483882616576,0.0,4228.801000863314,13.48761311335316,11.669811808244328,2309,32,0.0,15,403686670913883,35,22.2,-414.96392822265625,0.7864999771118164,0,0.0,0.0,,,,,0,,1,,,249.54688,-85.828125,-0.25
Raw,945393601,7603655000000,,,-1260194483882429184,0.0,4179.4986464083195,15.045107745841735,11.508211160927718,2310,10,0.0,15,403687466414660,17,28.1,-353.8358154296875,0.049799997359514236,0,0.0,0.0,,,,,0,,1,,,289.20312,-84.625,-4.3125
Raw,945393602,7603655000000,,,-1260194483882429184,0.0,4179.4986464083195,15.045107745841735,11.508211160927718,2310,15,0.0,15,403687459057581,9,35.1,587.2409057617188,0.04350000247359276,0,0.0,0.0,,,,,0,,1,,,289.20312,-84.625,-4.3125
Raw,945393602,7603655000000,,,-1260194483882429184,0.0,4179.4986464083195,15.045107745841735,11.508211160927718,2310,20,0.0,15,403687470649324,19,27.9,-49.43556213378906,0.07860000431537628,0,0.0,0.0,,,,,0,,1,,,289.20312,-84.625,-4.3125
Raw,945393603,7603655000000,,,-1260194483882429184,0.0,4179.4986464083195,15.045107745841735,11.508211160927718,2310,21,0.0,15,403687465653821,17,28.3,358.64031982421875,0.04829999804496765,0,0.0,0.0,,,,,0,,1,,,289.20312,-84.625,-4.3125
Raw,945393604,7603655000000,,,-1260194483882429184,0.0,4179.4986464083195,15.045107745841735,11.508211160927718,2310,24,0.0,15,403687468043221,8,36.1,149.45046997070312,0.026000000536441803,0,0.0,0.0,,,,,0,,1,,,289.20312,-84.625,-4.3125
Raw,945393605,7603655000000,,,-1260194483882429184,0.0,4179.4986464083195,15.045107745841735,11.508211160927718,2310,32,0.0,15,403687462727602,40,21.2,-415.3254699707031,0.8344999551773071,0,0.0,0.0,,,,,0,,1,,,289.20312,-84.625,-4.3125
Raw,945394607,7604669000000,,,-1260194483882044416,0.0,4199.803341180086,13.257007717186315,10.370832880572086,2311,10,0.0,15,403688480031020,24,25.8,-353.2840270996094,0.2093999981880188,0,0.0,0.0,,,,,0,,1,,,331.14062,-81.15625,-6.9375
Raw,945394608,7604669000000,,,-1260194483882044416,0.0,4199.803341180086,13.257007717186315,10.370832880572086,2311,14,0.0,15,403688468939516,35,22.8,-511.5760192871094,0.7234999537467957,0,0.0,0.0,,,,,0,,1,,,331.14062,-81.15625,-6.9375
Raw,945394608,7604669000000,,,-1260194483882044416,0.0,4199.803341180086,13.257007717186315,10.370832880572086,2311,15,0.0,15,403688472670740,8,36.2,587.3500366210938,0.03200000151991844,0,0.0,0.0,,,,,0,,1,,,331.14062,-81.15625,-6.9375
Raw,945394609,7604669000000,,,-1260194483882044416,0.0,4199.803341180086,13.257007717186315,10.370832880572086,2311,20,0.0,15,403688484264535,24,25.0,-49.05912780761719,0.18540000915527344,0,0.0,0.0,,,,,0,,1,,,331.14062,-81.15625,-6.9375
Raw,945394609,7604669000000,,,-1260194483882044416,0.0,4199.803341180086,13.257007717186315,10.370832880572086,2311,21,0.0,15,403688479267785,13,31.2,359.25341796875,0.05230000242590904,0,0.0,0.0,,,,,0,,1,,,331.14062,-81.15625,-6.9375
Raw,945394610,7604669000000,,,-1260194483882044416,0.0,4199.803341180086,13.257007717186315,10.370832880572086,2311,24,0.0,15,403688481657932,13,31.7,149.81192016601562,0.05530000105500221,0,0.0,0.0,,,,,0,,1,,,331.14062,-81.15625,-6.9375
Raw,945394610,7604669000000,,,-1260194483882044416,0.0,4199.803341180086,13.257007717186315,10.370832880572086,2311,27,0.0,15,403688468747236,40,21.4,309.2747802734375,0.8434999585151672,0,0.0,0.0,,,,,0,,1,,,331.14062,-81.15625,-6.9375
Raw,945394611,7604669000000,,,-1260194483882044416,0.0,4199.803341180086,13.257007717186315,10.370832880572086,2311,32,0.0,15,403688476344131,24,25.0,-414.3265075683594,0.20340000092983246,0,0.0,0.0,,,,,0,,1,,,331.14062,-81.15625,-6.9375
Raw,945395609,7605560000000,,,-1260194483881588224,0.0,4199.658520519733,14.601385133795903,9.307066399017009,2312,14,0.0,15,403689359485112,17,28.8,-511.837646484375,0.125900000333786,0,0.0,0.0,,,,,0,,1,,,353.09375,-81.734375,-4.9375
Raw,945395610,7605560000000,,,-1260194483881588224,0.0,4199.658520519733,14.601385133795903,9.307066399017009,2312,15,0.0,15,403689363213017,13,31.3,588.2849731445312,0.05959999933838844,0,0.0,0.0,,,,,0,,1,,,353.09375,-81.734375,-4.9375
Raw,945395610,7605560000000,,,-1260194483881588224,0.0,4199.658520519733,14.601385133795903,9.307066399017009,2312,20,0.0,15,403689374808760,19,27.1,-48.322540283203125,0.18470001220703125,0,0.0,0.0,,,,,0,,1,,,353.09375,-81.734375,-4.9375
Raw,945395611,7605560000000,,,-1260194483881588224,0.0,4199.658520519733,14.601385133795903,9.307066399017009,2312,21,0.0,15,403689369810721,12,32.6,359.66900634765625,0.06199999898672104,0,0.0,0.0,,,,,0,,1,,,353.09375,-81.734375,-4.9375
Raw,945395612,7605560000000,,,-1260194483881588224,0.0,4199.658520519733,14.601385133795903,9.307066399017009,2312,24,0.0,15,403689372201486,13,31.1,150.63963317871094,0.0731000006198883,0,0.0,0.0,,,,,0,,1,,,353.09375,-81.734375,-4.9375
Raw,945395612,7605560000000,,,-1260194483881588224,0.0,4199.658520519733,14.601385133795903,9.307066399017009,2312,32,0.0,15,403689366889359,19,27.5,-413.9783935546875,0.17270000278949738,0,0.0,0.0,,,,,0,,1,,,353.09375,-81.734375,-4.9375
Raw,945396599,7606853000000,,,-1260194483880887040,0.0,4261.653870344162,16.479093993834425,12.30907279410081,2313,10,0.0,15,403690662876144,19,27.4,-351.7928771972656,0.066600002348423,0,0.0,0.0,,,,,0,,1,,,31.578125,-94.515625,-4.171875
Raw,945396599,7606853000000,,,-1260194483880887040,0.0,4261.653870344162,16.479093993834425,12.30907279410081,2313,14,0.0,15,403690651785775,7,37.0,-510.56488037109375,0.029100000858306885,0,0.0,0.0,,,,,0,,1,,,31.578125,-94.515625,-4.171875
Raw,945396600,7606853000000,,,-1260194483880887040,0.0,4261.653870344162,16.479093993834425,12.30907279410081,2313,15,0.0,15,403690655508778,40,21.5,589.7391357421875,0.793999969959259,0,0.0,0.0,,,,,0,,1,,,31.578125,-94.515625,-4.171875
Raw,945396600,7606853000000,,,-1260194483880887040,0.0,4261.653870344162,16.479093993834425,12.30907279410081,2313,20,0.0,15,403690667107446,35,22.5,-46.422142028808594,0.722000002861023,0,0.0,0.0,,,,,0,,1,,,31.578125,-94.515625,-4.171875
Raw,945396601,7606853000000,,,-1260194483880887040,0.0,4261.653870344162,16.479093993834425,12.30907279410081,2313,21,0.0,15,403690662107692,14,30.3,361.2853088378906,0.059800002723932266,0,0.0,0.0,,,,,0,,1,,,31.578125,-94.515625,-4.171875
Raw,945396601,7606853000000,,,-1260194483880887040,0.0,4261.653870344162,16.479093993834425,12.30907279410081,2313,24,0.0,15,403690664499325,21,26.7,151.92098999023438,0.10369999706745148,0,0.0,0.0,,,,,0,,1,,,31.578125,-94.515625,-4.171875
Raw,945396602,7606853000000,,,-1260194483880887040,0.0,4261.653870344162,16.479093993834425,12.30907279410081,2313,27,0.0,15,403690651587590,11,33.3,312.38433837890625,0.03550000116229057,0,0.0,0.0,,,,,0,,1,,,31.578125,-94.515625,-4.171875
Raw,945396602,7606853000000,,,-1260194483880887040,0.0,4261.653870344162,16.479093993834425,12.30907279410081,2313,32,0.0,15,403690659189684,10,34.8,-412.5982666015625,0.04560000076889992,0,0.0,0.0,,,,,0,,1,,,31.578125,-94.515625,-4.171875
Raw,945397593,7607666000000,,,-1260194483880837120,0.0,4171.267617493868,20.749844408078246,10.68022018286333,2314,8,0.0,15,403691462292745,35,22.1,29.780960083007812,0.8044999837875366,0,0.0,0.0,,,,,0,,1,,,82.75,-81.765625,-8.0
Raw,945397594,7607666000000,,,-1260194483880837120,0.0,4171.267617493868,20.749844408078246,10.68022018286333,2314,10,0.0,15,403691475827399,13,31.9,-353.662841796875,0.046300001442432404,0,0.0,0.0,,,,,0,,1,,,82.75,-81.765625,-8.0
Raw,945397594,7607666000000,,,-1260194483880837120,0.0,4171.267617493868,20.749844408078246,10.68022018286333,2314,14,0.0,15,403691464737488,10,34.0,-512.669921875,0.023099999874830246,0,0.0,0.0,,,,,0,,1,,,82.75,-81.765625,-8.0
Raw,945397595,7607666000000,,,-1260194483880837120,0.0,4171.267617493868,20.749844408078246,10.68022018286333,2314,20,0.0,15,403691480057896,31,23.0,-49.5144157409668,0.7414999604225159,0,0.0,0.0,,,,,0,,1,,,82.75,-81.765625,-8.0
Raw,945397595,7607666000000,,,-1260194483880837120,0.0,4171.267617493868,20.749844408078246,10.68022018286333,2314,21,0.0,15,403691475056926,12,32.9,358.8662109375,0.04390000179409981,0,0.0,0.0,,,,,0,,1,,,82.75,-81.765625,-8.0
Raw,945397596,7607666000000,,,-1260194483880837120,0.0,4171.267617493868,20.749844408078246,10.68022018286333,2314,27,0.0,15,403691464537057,7,37.4,310.4961853027344,0.01860000006854534,0,0.0,0.0,,,,,0,,1,,,82.75,-81.765625,-8.0
Raw,945397596,7607666000000,,,-1260194483880837120,0.0,4171.267617493868,20.749844408078246,10.68022018286333,2314,32,0.0,15,403691472141107,9,35.0,-414.65093994140625,0.032999999821186066,0,0.0,0.0,,,,,0,,1,,,82.75,-81.765625,-8.0
Raw,945398594,7608558000000,,,-1260194483879900672,0.0,4168.601240962744,12.761050399843228,6.996011724404049,2315,10,0.0,15,403692366891827,13,31.2,-356.1726379394531,0.0640999972820282,0,0.0,0.0,,,,,0,,1,,,115.0,-85.484375,-3.0625
Raw,945398595,7608558000000,,,-1260194483879900672,0.0,4168.601240962744,12.761050399843228,6.996011724404049,2315,14,0.0,15,403692355802347,13,31.1,-514.9508666992188,0.07760000228881836,0,0.0,0.0,,,,,0,,1,,,115.0,-85.484375,-3.0625
Raw,945398595,7608558000000,,,-1260194483879900672,0.0,4168.601240962744,12.761050399843228,6.996011724404049,2315,20,0.0,15,403692371121307,19,27.2,-51.763999938964844,0.1802000105381012,0,0.0,0.0,,,,,0,,1,,,115.0,-85.484375,-3.0625
Raw,945398596,7608558000000,,,-1260194483879900672,0.0,4168.601240962744,12.761050399843228,6.996011724404049,2315,21,0.0,15,403692366119207,14,30.6,356.7940368652344,0.07249999791383743,0,0.0,0.0,,,,,0,,1,,,115.0,-85.484375,-3.0625
Raw,945398597,7608558000000,,,-1260194483879900672,0.0,4168.601240962744,12.761050399843228,6.996011724404049,2315,24,0.0,15,403692368512128,31,23.4,147.43002319335938,0.7234999537467957,0,0.0,0.0,,,,,0,,1,,,115.0,-85.484375,-3.0625
Raw,945398597,7608558000000,,,-1260194483879900672,0.0,4168.601240962744,12.761050399843228,6.996011724404049,2315,27,0.0,15,403692355599512,8,36.1,308.08740234375,0.05299999937415123,0,0.0,0.0,,,,,0,,1,,,115.0,-85.484375,-3.0625
Raw,945398598,7608558000000,,,-1260194483879900672,0.0,4168.601240962744,12.761050399843228,6.996011724404049,2315,32,0.0,15,403692363205703,11,33.7,-416.9930419921875,0.047700002789497375,0,0.0,0.0,,,,,0,,1,,,115.0,-85.484375,-3.0625
Raw,945399607,7609771000000,,,-1260194483879898624,0.0,4229.521844536066,5.138578099124452,11.04745447277522,2316,10,0.0,15,403693579891355,11,33.8,-355.7758483886719,0.07170000672340393,0,0.0,0.0,,,,,0,,1,,,151.67188,-92.125,-1.28125
Raw,945399608,7609771000000,,,-1260194483879898624,0.0,4229.521844536066,5.138578099124452,11.04745447277522,2316,12,0.0,15,403693566552979,27,24.9,-513.9832153320312,0.6105000376701355,0,0.0,0.0,,,,,0,,1,,,151.67188,-92.125,-1.28125
Raw,945399608,7609771000000,,,-1260194483879898624,0.0,4229.521844536066,5.138578099124452,11.04745447277522,2316,14,0.0,15,403693568802484,12,32.5,-514.2796020507812,0.060499999672174454,0,0.0,0.0,,,,,0,,1,,,151.67188,-92.125,-1.28125
Raw,945399609,7609771000000,,,-1260194483879898624,0.0,4229.521844536066,5.138578099124452,11.04745447277522,2316,15,0.0,15,403693572514902,27,24.8,585.45751953125,0.6195000410079956,0,0.0,0.0,,,,,0,,1,,,151.67188,-92.125,-1.28125
Raw,945399609,7609771000000,,,-1260194483879898624,0.0,4229.521844536066,5.138578099124452,11.04745447277522,2316,20,0.0,15,403693584119620,19,27.5,-51.24185562133789,0.1697000116109848,0,0.0,0.0,,,,,0,,1,,,151.67188,-92.125,-1.28125
Raw,945399609,7609771000000,,,-1260194483879898624,0.0,4229.521844536066,5.138578099124452,11.04745447277522,2316,21,0.0,15,403693579115836,16,29.0,357.1772155761719,0.10289999842643738,0,0.0,0.0,,,,,0,,1,,,151.67188,-92.125,-1.28125
Raw,945399610,7609771000000,,,-1260194483879898624,0.0,4229.521844536066,5.138578099124452,11.04745447277522,2316,24,0.0,15,403693581509587,27,24.0,147.41099548339844,0.6829999685287476,0,0.0,0.0,,,,,0,,1,,,151.67188,-92.125,-1.28125
Raw,945399610,7609771000000,,,-1260194483879898624,0.0,4229.521844536066,5.138578099124452,11.04745447277522,2316,27,0.0,15,403693568596310,11,33.8,308.7900695800781,0.0552000030875206,0,0.0,0.0,,,,,0,,1,,,151.67188,-92.125,-1.28125
Raw,945399611,7609771000000,,,-1260194483879898624,0.0,4229.521844536066,5.138578099124452,11.04745447277522,2316,32,0.0,15,403693576205480,13,31.7,-416.3681335449219,0.07909999787807465,0,0.0,0.0,,,,,0,,1,,,151.67188,-92.125,-1.28125
Raw,945400606,7610763000000,,,-1260194483879230208,0.0,4196.088295429945,6.2048636262030294,9.901948443327187,2317,10,0.0,15,403694571224403,13,31.4,-355.9368896484375,0.07159999758005142,0,0.0,0.0,,,,,0,,1,,,205.42188,-82.765625,-7.0625
Raw,945400606,7610763000000,,,-1260194483879230208,0.0,4196.088295429945,6.2048636262030294,9.901948443327187,2317,12,0.0,15,403694557886847,24,25.7,-513.9201049804688,1.1859999895095825,0,0.0,0.0,,,,,0,,1,,,205.42188,-82.765625,-7.0625
Raw,945400607,7610763000000,,,-1260194483879230208,0.0,4196.088295429945,6.2048636262030294,9.901948443327187,2317,14,0.0,15,403694560136212,24,25.1,-514.7372436523438,1.190500020980835,0,0.0,0.0,,,,,0,,1,,,205.42188,-82.765625,-7.0625
Raw,945400607,7610763000000,,,-1260194483879230208,0.0,4196.088295429945,6.2048636262030294,9.901948443327187,2317,15,0.0,15,403694563844977,11,33.5,585.0669555664062,0.047700002789497375,0,0.0,0.0,,,,,0,,1,,,205.42188,-82.765625,-7.0625
Raw,945400608,7610763000000,,,-1260194483879230208,0.0,4196.088295429945,6.2048636262030294,9.901948443327187,2317,20,0.0,15,403694575451780,16,29.7,-51.14841079711914,0.09690000116825104,0,0.0,0.0,,,,,0,,1,,,205.42188,-82.765625,-7.0625
Raw,945400608,7610763000000,,,-1260194483879230208,0.0,4196.088295429945,6.2048636262030294,9.901948443327187,2317,24,0.0,15,403694572841020,11,33.0,148.14649963378906,0.06120000407099724,0,0.0,0.0,,,,,0,,1,,,205.42188,-82.765625,-7.0625
Raw,945400609,7610763000000,,,-1260194483879230208,0.0,4196.088295429945,6.2048636262030294,9.901948443327187,2317,27,0.0,15,403694559927179,13,31.8,308.39691162109375,0.0835999995470047,0,0.0,0.0,,,,,0,,1,,,205.42188,-82.765625,-7.0625
Raw,945401619,7611759000000,,,-1260194483878292736,0.0,4207.60503038764,5.946981758571298,9.051901203684656,2318,10,0.0,15,403695566288081,19,27.1,-353.6844787597656,0.17270000278949738,0,0.0,0.0,,,,,0,,1,,,224.59375,-93.203125,1.6875
Raw,945401620,7611759000000,,,-1260194483878292736,0.0,4207.60503038764,5.946981758571298,9.051901203684656,2318,12,0.0,15,403695552950993,35,22.8,-512.0993041992188,0.7294999957084656,0,0.0,0.0,,,,,0,,1,,,224.59375,-93.203125,1.6875
Raw,945401621,7611759000000,,,-1260194483878292736,0.0,4207.60503038764,5.946981758571298,9.051901203684656,2318,15,0.0,15,403695558905490,11,33.7,586.619384765625,0.07020000368356705,0,0.0,0.0,,,,,0,,1,,,224.59375,-93.203125,1.6875
Raw,945401621,7611759000000,,,-1260194483878292736,0.0,4207.60503038764,5.946981758571298,9.051901203684656,2318,20,0.0,15,403695570514434,14,30.5,-49.29032897949219,0.07850000262260437,0,0.0,0.0,,,,,0,,1,,,224.59375,-93.203125,1.6875
Raw,945401622,7611759000000,,,-1260194483878292736,0.0,4207.60503038764,5.946981758571298,9.051901203684656,2318,24,0.0,15,403695567902963,11,33.9,150.0334930419922,0.053700003772974014,0,0.0,0.0,,,,,0,,1,,,224.59375,-93.203125,1.6875
Raw,945401623,7611759000000,,,-1260194483878292736,0.0,4207.60503038764,5.946981758571298,9.051901203684656,2318,27,0.0,15,403695554988689,17,28.0,310.5498962402344,0.11840000003576279,0,0.0,0.0,,,,,0,,1,,,224.59375,-93.203125,1.6875
Raw,945401623,7611759000000,,,-1260194483878292736,0.0,4207.60503038764,5.946981758571298,9.051901203684656,2318,32,0.0,15,403695562602475,17,28.0,-414.8182678222656,0.13040000200271606,0,0.0,0.0,,,,,0,,1,,,224.59375,-93.203125,1.6875
Raw,945402610,7612873000000,,,-1260194483877843968,0.0,4216.012079268694,11.469529596533857,8.575343916807324,2319,10,0.0,15,403696679840420,13,31.3,-348.0472106933594,0.05230000242590904,0,0.0,0.0,,,,,0,,1,,,269.21875,-97.515625,-4.984375
Raw,945402610,7612873000000,,,-1260194483877843968,0.0,4216.012079268694,11.469529596533857,8.575343916807324,2319,15,0.0,15,403696672454424,17,28.4,592.5575561523438,0.058800000697374344,0,0.0,0.0,,,,,0,,1,,,269.21875,-97.515625,-4.984375
Raw,945402611,7612873000000,,,-1260194483877843968,0.0,4216.012079268694,11.469529596533857,8.575343916807324,2319,20,0.0,15,403696684065628,16,29.5,-43.430973052978516,0.065700002014637,0,0.0,0.0,,,,,0,,1,,,269.21875,-97.515625,-4.984375
Raw,945402611,7612873000000,,,-1260194483877843968,0.0,4216.012079268694,11.469529596533857,8.575343916807324,2319,21,0.0,15,403696679057646,19,27.2,364.6568298339844,0.09210000187158585,0,0.0,0.0,,,,,0,,1,,,269.21875,-97.515625,-4.984375
Raw,945402612,7612873000000,,,-1260194483877843968,0.0,4216.012079268694,11.469529596533857,8.575343916807324,2319,24,0.0,15,403696681453475,13,31.2,155.84910583496094,0.05530000105500221,0,0.0,0.0,,,,,0,,1,,,269.21875,-97.515625,-4.984375
Raw,945402612,7612873000000,,,-1260194483877843968,0.0,4216.012079268694,11.469529596533857,8.575343916807324,2319,32,0.0,15,403696676155002,40,21.9,-407.7137145996094,0.7954999804496765,0,0.0,0.0,,,,,0,,1,,,269.21875,-97.515625,-4.984375
Raw,945403613,7613666000000,,,-1260194483877090304,0.0,4183.6826130747795,31.11561931563393,7.770454196632959,2320,10,0.0,15,403697472087389,21,26.6,-348.5281677246094,0.11569999903440475,0,0.0,0.0,,,,,0,,1,,,302.375,-98.671875,-5.46875
Raw,945403614,7613666000000,,,-1260194483877090304,0.0,4183.6826130747795,31.11561931563393,7.770454196632959,2320,15,0.0,15,403697464698905,11,33.4,591.819091796875,0.055000003427267075,0,0.0,0.0,,,,,0,,1,,,302.375,-98.671875,-5.46875
Raw,945403615,7613666000000,,,-1260194483877090304,0.0,4183.6826130747795,31.11561931563393,7.770454196632959,2320,20,0.0,15,403697476311813,24,25.9,-43.80467224121094,0.20340000092983246,0,0.0,0.0,,,,,0,,1,,,302.375,-98.671875,-5.46875
Raw,945403616,7613666000000,,,-1260194483877090304,0.0,4183.6826130747795,31.11561931563393,7.770454196632959,2320,21,0.0,15,403697471302711,17,28.8,364.71636962890625,0.05729999765753746,0,0.0,0.0,,,,,0,,1,,,302.375,-98.671875,-5.46875
Raw,945403617,7613666000000,,,-1260194483877090304,0.0,4183.6826130747795,31.11561931563393,7.770454196632959,2320,24,0.0,15,403697473699089,10,34.1,155.53390502929688,0.03660000115633011,0,0.0,0.0,,,,,0,,1,,,302.375,-98.671875,-5.46875
Raw,945404607,7614678000000,,,-1260194483876397056,0.0,4217.019770294428,29.664919488881367,11.082588298548611,2321,10,0.0,15,403698483395957,35,22.2,-349.1222839355469,0.8059999942779541,0,0.0,0.0,,,,,0,,1,,,333.96875,-93.625,-1.0
Raw,945404607,7614678000000,,,-1260194483876397056,0.0,4217.019770294428,29.664919488881367,11.082588298548611,2321,14,0.0,15,403698472309741,21,26.4,-507.56976318359375,0.11569999903440475,0,0.0,0.0,,,,,0,,1,,,333.96875,-93.625,-1.0
Raw,945404608,7614678000000,,,-1260194483876397056,0.0,4217.019770294428,29.664919488881367,11.082588298548611,2321,15,0.0,15,403698476004267,10,34.5,592.1492309570312,0.041099999099969864,0,0.0,0.0,,,,,0,,1,,,333.96875,-93.625,-1.0
Raw,945404609,7614678000000,,,-1260194483876397056,0.0,4217.019770294428,29.664919488881367,11.082588298548611,2321,20,0.0,15,403698487619284,35,22.2,-42.559181213378906,0.7820000052452087,0,0.0,0.0,,,,,0,,1,,,333.96875,-93.625,-1.0
Raw,945404609,7614678000000,,,-1260194483876397056,0.0,4217.019770294428,29.664919488881367,11.082588298548611,2321,21,0.0,15,403698482608997,24,25.6,364.423583984375,0.21240000426769257,0,0.0,0.0,,,,,0,,1,,,333.96875,-93.625,-1.0
Raw,945404610,7614678000000,,,-1260194483876397056,0.0,4217.019770294428,29.664919488881367,11.082588298548611,2321,24,0.0,15,403698485006016,14,30.0,155.69664001464844,0.034299999475479126,0,0.0,0.0,,,,,0,,1,,,333.96875,-93.625,-1.0
Raw,945404610,7614678000000,,,-1260194483876397056,0.0,4217.019770294428,29.664919488881367,11.082588298548611,2321,27,0.0,15,403698472089998,40,21.4,315.1643981933594,0.8495000004768372,0,0.0,0.0,,,,,0,,1,,,333.96875,-93.625,-1.0
Raw,945405609,7615671000000,,,-1260194483876144384,0.0,4211.904481053352,29.415443717913693,8.405467598545947,2322,14,0.0,15,403699465058520,11,33.9,-509.01104736328125,0.026499999687075615,0,0.0,0.0,,,,,0,,1,,,14.328125,-89.09375,0.53125
Raw,945405610,7615671000000,,,-1260194483876144384,0.0,4211.904481053352,29.415443717913693,8.405467598545947,2322,15,0.0,15,403699468749222,31,23.6,591.2234497070312,0.6634999513626099,0,0.0,0.0,,,,,0,,1,,,14.328125,-89.09375,0.53125
Raw,945405611,7615671000000,,,-1260194483876144384,0.0,4211.904481053352,29.415443717913693,8.405467598545947,2322,20,0.0,15,403699480366493,46,20.9,-45.137657165527344,0.8614999651908875,0,0.0,0.0,,,,,0,,1,,,14.328125,-89.09375,0.53125
Raw,945405612,7615671000000,,,-1260194483876144384,0.0,4211.904481053352,29.415443717913693,8.405467598545947,2322,21,0.0,15,403699475354749,13,31.0,363.1820068359375,0.046300001442432404,0,0.0,0.0,,,,,0,,1,,,14.328125,-89.09375,0.53125
Raw,945405612,7615671000000,,,-1260194483876144384,0.0,4211.904481053352,29.415443717913693,8.405467598545947,2322,24,0.0,15,403699477752515,14,30.7,154.58184814453125,0.05230000242590904,0,0.0,0.0,,,,,0,,1,,,14.328125,-89.09375,0.53125
Raw,945405613,7615671000000,,,-1260194483876144384,0.0,4211.904481053352,29.415443717913693,8.405467598545947,2322,27,0.0,15,403699464836111,17,28.0,314.3518981933594,0.046799998730421066,0,0.0,0.0,,,,,0,,1,,,14.328125,-89.09375,0.53125
Raw,945405614,7615671000000,,,-1260194483876144384,0.0,4211.904481053352,29.415443717913693,8.405467598545947,2322,32,0.0,15,403699472459564,11,33.2,-410.92547607421875,0.03700000047683716,0,0.0,0.0,,,,,0,,1,,,14.328125,-89.09375,0.53125
Raw,945406608,7616663000000,,,-1260194483875409664,0.0,4203.485324978828,24.98087223801021,7.515037693207337,2323,8,0.0,15,403700453864536,35,22.5,34.37655258178711,0.7310000061988831,0,0.0,0.0,,,,,0,,1,,,56.21875,-93.953125,-3.1875
Raw,945406608,7616663000000,,,-1260194483875409664,0.0,4203.485324978828,24.98087223801021,7.515037693207337,2323,10,0.0,15,403700467410734,16,29.8,-349.594482421875,0.04020000249147415,0,0.0,0.0,,,,,0,,1,,,56.21875,-93.953125,-3.1875
Raw,945406609,7616663000000,,,-1260194483875409664,0.0,4203.485324978828,24.98087223801021,7.515037693207337,2323,14,0.0,15,403700456325558,8,36.1,-508.48309326171875,0.03800000250339508,0,0.0,0.0,,,,,0,,1,,,56.21875,-93.953125,-3.1875
Raw,945406609,7616663000000,,,-1260194483875409664,0.0,4203.485324978828,24.98087223801021,7.515037693207337,2323,21,0.0,15,403700466618891,13,31.3,363.5755615234375,0.03280000016093254,0,0.0,0.0,,,,,0,,1,,,56.21875,-93.953125,-3.1875
Raw,945406610,7616663000000,,,-1260194483875409664,0.0,4203.485324978828,24.98087223801021,7.515037693207337,2323,24,0.0,15,403700469017407,24,25.0,154.8745574951172,0.19290000200271606,0,0.0,0.0,,,,,0,,1,,,56.21875,-93.953125,-3.1875
Raw,945406610,7616663000000,,,-1260194483875409664,0.0,4203.485324978828,24.98087223801021,7.515037693207337,2323,27,0.0,15,403700456100447,9,35.7,315.1202392578125,0.039000000804662704,0,0.0,0.0,,,,,0,,1,,,56.21875,-93.953125,-3.1875
Raw,945406611,7616663000000,,,-1260194483875409664,0.0,4203.485324978828,24.98087223801021,7.515037693207337,2323,32,0.0,15,403700463726257,8,36.2,-410.352783203125,0.048500001430511475,0,0.0,0.0,,,,,0,,1,,,56.21875,-93.953125,-3.1875
Raw,945407626,7617578000000,,,-1260194483875302400,0.0,4195.256158709526,26.53789129379064,10.859363089424575,2324,8,0.0,15,403701368757420,24,25.2,34.166297912597656,1.1725000143051147,0,0.0,0.0,,,,,0,,1,,,92.046875,-95.96875,4.53125
Raw,945407626,7617578000000,,,-1260194483875302400,0.0,4195.256158709526,26.53789129379064,10.859363089424575,2324,10,0.0,15,403701382304640,10,34.5,-349.1922607421875,0.07159999758005142,0,0.0,0.0,,,,,0,,1,,,92.046875,-95.96875,4.53125
Raw,945407627,7617578000000,,,-1260194483875302400,0.0,4195.256158709526,26.53789129379064,10.859363089424575,2324,12,0.0,15,403701368970545,31,23.4,-506.9898986816406,0.7234999537467957,0,0.0,0.0,,,,,0,,1,,,92.046875,-95.96875,4.53125
Raw,945407627,7617578000000,,,-1260194483875302400,0.0,4195.256158709526,26.53789129379064,10.859363089424575,2324,14,0.0,15,403701371219960,16,29.3,-508.15093994140625,0.0908999964594841,0,0.0,0.0,,,,,0,,1,,,92.046875,-95.96875,4.53125
Raw,945407628,7617578000000,,,-1260194483875302400,0.0,4195.256158709526,26.53789129379064,10.859363089424575,2324,20,0.0,15,403701386524925,21,26.3,-44.187705993652344,0.2597000002861023,0,0.0,0.0,,,,,0,,1,,,92.046875,-95.96875,4.53125
Raw,945407628,7617578000000,,,-1260194483875302400,0.0,4195.256158709526,26.53789129379064,10.859363089424575,2324,21,0.0,15,403701381510619,16,29.4,364.1530456542969,0.10589999705553055,0,0.0,0.0,,,,,0,,1,,,92.046875,-95.96875,4.53125
Raw,945407629,7617578000000,,,-1260194483875302400,0.0,4195.256158709526,26.53789129379064,10.859363089424575,2324,27,0.0,15,403701370992348,6,38.1,315.32586669921875,0.039900001138448715,0,0.0,0.0,,,,,0,,1,,,92.046875,-95.96875,4.53125
Raw,945407629,7617578000000,,,-1260194483875302400,0.0,4195.256158709526,26.53789129379064,10.859363089424575,2324,32,0.0,15,403701378620316,12,32.2,-409.93438720703125,0.0754999965429306,0,0.0,0.0,,,,,0,,1,,,92.046875,-95.96875,4.53125
Raw,945408613,7618871000000,,,-1260194483874519040,0.0,4266.694653779268,27.051315318894627,15.882084578798006,2325,10,0.0,15,403702674522803,9,35.9,-347.86724853515625,0.036000002175569534,0,0.0,0.0,,,,,0,,1,,,134.78125,-93.78125,3.0625
Raw,945408614,7618871000000,,,-1260194483874519040,0.0,4266.694653779268,27.051315318894627,15.882084578798006,2325,12,0.0,15,403702661189451,35,22.7,-506.0003967285156,0.7429999709129333,0,0.0,0.0,,,,,0,,1,,,134.78125,-93.78125,3.0625
Raw,945408615,7618871000000,,,-1260194483874519040,0.0,4266.694653779268,27.051315318894627,15.882084578798006,2325,14,0.0,15,403702663438795,11,33.1,-506.4699401855469,0.05350000038743019,0,0.0,0.0,,,,,0,,1,,,134.78125,-93.78125,3.0625
Raw,945408615,7618871000000,,,-1260194483874519040,0.0,4266.694653779268,27.051315318894627,15.882084578798006,2325,20,0.0,15,403702678741802,19,27.7,-43.01105499267578,0.09059999883174896,0,0.0,0.0,,,,,0,,1,,,134.78125,-93.78125,3.0625
Raw,945408617,7618871000000,,,-1260194483874519040,0.0,4266.694653779268,27.051315318894627,15.882084578798006,2325,21,0.0,15,403702673725709,21,26.4,365.7695617675781,0.11719999462366104,0,0.0,0.0,,,,,0,,1,,,134.78125,-93.78125,3.0625
Raw,945408617,7618871000000,,,-1260194483874519040,0.0,4266.694653779268,27.051315318894627,15.882084578798006,2325,27,0.0,15,403702663207572,12,32.1,316.9628601074219,0.05590000003576279,0,0.0,0.0,,,,,0,,1,,,134.78125,-93.78125,3.0625
Raw,945408618,7618871000000,,,-1260194483874519040,0.0,4266.694653779268,27.051315318894627,15.882084578798006,2325,32,0.0,15,403702670838789,11,33.2,-408.3264465332031,0.03400000184774399,0,0.0,0.0,,,,,0,,1,,,134.78125,-93.78125,3.0625
Raw,945409623,7619681000000,,,-1260194483874157312,0.0,4216.950852423906,31.531604194524697,12.973563999131107,2326,10,0.0,15,403703484161839,9,35.9,-348.3385314941406,0.05100000277161598,0,0.0,0.0,,,,,0,,1,,,195.23438,-96.265625,-5.265625
Raw,945409624,7619681000000,,,-1260194483874157312,0.0,4216.950852423906,31.531604194524697,12.973563999131107,2326,12,0.0,15,403703470829006,40,21.4,-506.3714599609375,0.8464999794960022,0,0.0,0.0,,,,,0,,1,,,195.23438,-96.265625,-5.265625
Raw,945409625,7619681000000,,,-1260194483874157312,0.0,4216.950852423906,31.531604194524697,12.973563999131107,2326,14,0.0,15,403703473078257,16,29.5,-507.2264709472656,0.04920000210404396,0,0.0,0.0,,,,,0,,1,,,195.23438,-96.265625,-5.265625
Raw,945409625,7619681000000,,,-1260194483874157312,0.0,4216.950852423906,31.531604194524697,12.973563999131107,2326,15,0.0,15,403703476754400,11,33.3,592.3945922851562,0.0430000014603138,0,0.0,0.0,,,,,0,,1,,,195.23438,-96.265625,-5.265625
Raw,945409626,7619681000000,,,-1260194483874157312,0.0,4216.950852423906,31.531604194524697,12.973563999131107,2326,20,0.0,15,403703488380133,27,24.9,-42.920738220214844,0.6134999990463257,0,0.0,0.0,,,,,0,,1,,,195.23438,-96.265625,-5.265625
Raw,945409626,7619681000000,,,-1260194483874157312,0.0,4216.950852423906,31.531604194524697,12.973563999131107,2326,21,0.0,15,403703483362576,40,21.6,364.1650085449219,0.8059999942779541,0,0.0,0.0,,,,,0,,1,,,195.23438,-96.265625,-5.265625
Raw,945409627,7619681000000,,,-1260194483874157312,0.0,4216.950852423906,31.531604194524697,12.973563999131107,2326,24,0.0,15,403703485763376,13,31.3,156.64256286621094,0.031300000846385956,0,0.0,0.0,,,,,0,,1,,,195.23438,-96.265625,-5.265625
Raw,945409627,7619681000000,,,-1260194483874157312,0.0,4216.950852423906,31.531604194524697,12.973563999131107,2326,27,0.0,15,403703472844861,10,34.3,316.2542724609375,0.035100001841783524,0,0.0,0.0,,,,,0,,1,,,195.23438,-96.265625,-5.265625
Raw,945409628,7619681000000,,,-1260194483874157312,0.0,4216.950852423906,31.531604194524697,12.973563999131107,2326,32,0.0,15,403703480478006,24,25.7,-409.413818359375,0.2093999981880188,0,0.0,0.0,,,,,0,,1,,,195.23438,-96.265625,-5.265625
Raw,945410598,7620674000000,,,-1260194483873793536,0.0,4208.0651037395,30.21781001853129,8.988446705413272,2327,10,0.0,15,403704476799237,21,26.6,-348.78765869140625,0.1216999962925911,0,0.0,0.0,,,,,0,,1,,,216.65625,-96.25,5.96875
Raw,945410599,7620674000000,,,-1260194483873793536,0.0,4208.0651037395,30.21781001853129,8.988446705413272,2327,12,0.0,15,403704463466811,35,22.4,-506.7425231933594,0.8059999942779541,0,0.0,0.0,,,,,0,,1,,,216.65625,-96.25,5.96875
Raw,945410599,7620674000000,,,-1260194483873793536,0.0,4208.0651037395,30.21781001853129,8.988446705413272,2327,14,0.0,15,403704465716230,46,20.9,-507.33245849609375,0.8389999866485596,0,0.0,0.0,,,,,0,,1,,,216.65625,-96.25,5.96875
Raw,945410600,7620674000000,,,-1260194483873793536,0.0,4208.0651037395,30.21781001853129,8.988446705413272,2327,15,0.0,15,403704469388626,11,33.2,591.1331176757812,0.0325000025331974,0,0.0,0.0,,,,,0,,1,,,216.65625,-96.25,5.96875
Raw,945410601,7620674000000,,,-1260194483873793536,0.0,4208.0651037395,30.21781001853129,8.988446705413272,2327,20,0.0,15,403704481016439,13,31.1,-43.86927795410156,0.05530000105500221,0,0.0,0.0,,,,,0,,1,,,216.65625,-96.25,5.96875
Raw,945410601,7620674000000,,,-1260194483873793536,0.0,4208.0651037395,30.21781001853129,8.988446705413272,2327,24,0.0,15,403704478399030,11,33.2,155.7081298828125,0.04600000008940697,0,0.0,0.0,,,,,0,,1,,,216.65625,-96.25,5.96875
Raw,945410602,7620674000000,,,-1260194483873793536,0.0,4208.0651037395,30.21781001853129,8.988446705413272,2327,27,0.0,15,403704465480017,21,26.5,316.22900390625,0.13519999384880066,0,0.0,0.0,,,,,0,,1,,,216.65625,-96.25,5.96875
Raw,945411595,7621665000000,,,-1260194483873646336,0.0,4189.9713687598705,26.806375818066194,12.041529879896233,2328,10,0.0,15,403705467653048,12,32.2,-351.8760681152344,0.03189999982714653,0,0.0,0.0,,,,,0,,1,,,273.0,-97.625,-6.3125
Raw,945411596,7621665000000,,,-1260194483873646336,0.0,4189.9713687598705,26.806375818066194,12.041529879896233,2328,15,0.0,15,403705460239454,19,27.3,588.836181640625,0.09360000491142273,0,0.0,0.0,,,,,0,,1,,,273.0,-97.625,-6.3125
Raw,945411596,7621665000000,,,-1260194483873646336,0.0,4189.9713687598705,26.806375818066194,12.041529879896233,2328,20,0.0,15,403705471869347,13,31.1,-46.756587982177734,0.040300000458955765,0,0.0,0.0,,,,,0,,1,,,273.0,-97.625,-6.3125
Raw,945411597,7621665000000,,,-1260194483873646336,0.0,4189.9713687598705,26.806375818066194,12.041529879896233,2328,24,0.0,15,403705469251286,11,33.7,153.0439910888672,0.0325000025331974,0,0.0,0.0,,,,,0,,1,,,273.0,-97.625,-6.3125
Raw,945412601,7622675000000,,,-1260194483873478656,0.0,4195.662681013346,16.097702151149253,10.06618782562311,2329,10,0.0,15,403706477486735,24,25.6,-350.8622131347656,0.6323000192642212,0,0.0,0.0,,,,,0,,1,,,292.125,-81.96875,7.875
Raw,945412602,7622675000000,,,-1260194483873478656,0.0,4195.662681013346,16.097702151149253,10.06618782562311,2329,15,0.0,15,403706470069953,9,35.3,590.8118896484375,0.030000001192092896,0,0.0,0.0,,,,,0,,1,,,292.125,-81.96875,7.875
Raw,945412603,7622675000000,,,-1260194483873478656,0.0,4195.662681013346,16.097702151149253,10.06618782562311,2329,21,0.0,15,403706476680603,13,31.9,363.745361328125,0.04780000075697899,0,0.0,0.0,,,,,0,,1,,,292.125,-81.96875,7.875
Raw,945412603,7622675000000,,,-1260194483873478656,0.0,4195.662681013346,16.097702151149253,10.06618782562311,2329,24,0.0,15,403706479083393,35,22.5,155.67926025390625,0.7400000095367432,0,0.0,0.0,,,,,0,,1,,,292.125,-81.96875,7.875
Raw,945413604,7623667000000,,,-1260194483873342720,0.0,4223.647993057966,24.40595566737564,11.725167982738029,2330,14,0.0,15,403707458270624,16,29.6,-506.66265869140625,0.056700002402067184,0,0.0,0.0,,,,,0,,1,,,346.10938,-87.828125,-2.171875
Raw,945413605,7623667000000,,,-1260194483873342720,0.0,4223.647993057966,24.40595566737564,11.725167982738029,2330,15,0.0,15,403707461932181,14,30.7,592.4053955078125,0.05829999968409538,0,0.0,0.0,,,,,0,,1,,,346.10938,-87.828125,-2.171875
Raw,945413605,7623667000000,,,-1260194483873342720,0.0,4223.647993057966,24.40595566737564,11.725167982738029,2330,20,0.0,15,403707473566310,21,26.1,-42.689640045166016,0.11719999462366104,0,0.0,0.0,,,,,0,,1,,,346.10938,-87.828125,-2.171875
Raw,945413605,7623667000000,,,-1260194483873342720,0.0,4223.647993057966,24.40595566737564,11.725167982738029,2330,21,0.0,15,403707468543671,16,29.4,365.7048034667969,0.04170000180602074,0,0.0,0.0,,,,,0,,1,,,346.10938,-87.828125,-2.171875
Raw,945413606,7623667000000,,,-1260194483873342720,0.0,4223.647993057966,24.40595566737564,11.725167982738029,2330,24,0.0,15,403707470947013,21,26.7,157.17100524902344,0.11270000040531158,0,0.0,0.0,,,,,0,,1,,,346.10938,-87.828125,-2.171875
Raw,945413606,7623667000000,,,-1260194483873342720,0.0,4223.647993057966,24.40595566737564,11.725167982738029,2330,27,0.0,15,403707458026068,46,20.8,316.1348876953125,0.8585000038146973,0,0.0,0.0,,,,,0,,1,,,346.10938,-87.828125,-2.171875
Raw,945414607,7624676000000,,,-1260194483873284864,0.0,4220.818169414997,30.67590331806241,8.946627766247444,2331,14,0.0,15,403708467214456,10,34.8,-511.813720703125,0.02759999968111515,0,0.0,0.0,,,,,0,,1,,,17.453125,-83.78125,5.296875
Raw,945414608,7624676000000,,,-1260194483873284864,0.0,4220.818169414997,30.67590331806241,8.946627766247444,2331,15,0.0,15,403708470872300,21,26.7,587.6173095703125,0.11270000040531158,0,0.0,0.0,,,,,0,,1,,,17.453125,-83.78125,5.296875
Raw,945414609,7624676000000,,,-1260194483873284864,0.0,4220.818169414997,30.67590331806241,8.946627766247444,2331,21,0.0,15,403708477484460,13,31.1,360.8636169433594,0.049300000071525574,0,0.0,0.0,,,,,0,,1,,,17.453125,-83.78125,5.296875
Raw,945414609,7624676000000,,,-1260194483873284864,0.0,4220.818169414997,30.67590331806241,8.946627766247444,2331,24,0.0,15,403708479888598,19,27.7,152.53265380859375,0.09210000187158585,0,0.0,0.0,,,,,0,,1,,,17.453125,-83.78125,5.296875
Raw,945414610,7624676000000,,,-1260194483873284864,0.0,4220.818169414997,30.67590331806241,8.946627766247444,2331,27,0.0,15,403708466967387,24,25.9,311.98272705078125,0.188400000333786,0,0.0,0.0,,,,,0,,1,,,17.453125,-83.78125,5.296875
Raw,945414610,7624676000000,,,-1260194483873284864,0.0,4220.818169414997,30.67590331806241,8.946627766247444,2331,32,0.0,15,403708474612583,10,34.8,-413.5300598144531,0.038100000470876694,0,0.0,0.0,,,,,0,,1,,,17.453125,-83.78125,5.296875
Raw,945415614,7625672000000,,,-1260194483873266432,0.0,4220.019560307264,14.074859686133383,8.364793860817795,2332,10,0.0,15,403709474278117,10,34.2,-351.55157470703125,0.038100000470876694,0,0.0,0.0,,,,,0,,1,,,69.296875,-88.1875,-0.421875
Raw,945415615,7625672000000,,,-1260194483873266432,0.0,4220.019560307264,14.074859686133383,8.364793860817795,2332,14,0.0,15,403709463197684,10,34.7,-510.4398498535156,0.051600001752376556,0,0.0,0.0,,,,,0,,1,,,69.296875,-88.1875,-0.421875
Raw,945415615,7625672000000,,,-1260194483873266432,0.0,4220.019560307264,14.074859686133383,8.364793860817795,2332,21,0.0,15,403709473464754,19,27.0,362.2264099121094,0.08309999853372574,0,0.0,0.0,,,,,0,,1,,,69.296875,-88.1875,-0.421875
Raw,945415616,7625672000000,,,-1260194483873266432,0.0,4220.019560307264,14.074859686133383,8.364793860817795,2332,27,0.0,15,403709462947847,8,36.3,313.3190002441406,0.04700000211596489,0,0.0,0.0,,,,,0,,1,,,69.296875,-88.1875,-0.421875
Raw,945415616,7625672000000,,,-1260194483873266432,0.0,4220.019560307264,14.074859686133383,8.364793860817795,2332,32,0.0,15,403709470595440,10,34.9,-412.1287841796875,0.032099999487400055,0,0.0,0.0,,,,,0,,1,,,69.296875,-88.1875,-0.421875
Raw,945416588,7626565000000,,,-1260194483872588032,0.0,4194.606561213732,18.188111500988054,10.160190572244522,2333,8,0.0,15,403710353041677,27,24.4,36.81230926513672,0.6710000038146973,0,0.0,0.0,,,,,0,,1,,,113.015625,-85.78125,0.578125
