# 
# Header Description:
# 
# Version: v2.0.0.1 Platform: 8.0.0 Manufacturer: Xiaomi Model: MIX 2
# 
# Raw,ElapsedRealtimeMillis,TimeNanos,LeapSecond,TimeUncertaintyNanos,FullBiasNanos,BiasNanos,BiasUncertaintyNanos,DriftNanosPerSecond,DriftUncertaintyNanosPerSecond,HardwareClockDiscontinuityCount,Svid,TimeOffsetNanos,State,ReceivedSvTimeNanos,ReceivedSvTimeUncertaintyNanos,Cn0DbHz,PseudorangeRateMetersPerSecond,PseudorangeRateUncertaintyMetersPerSecond,AccumulatedDeltaRangeState,AccumulatedDeltaRangeMeters,AccumulatedDeltaRangeUncertaintyMeters,CarrierFrequencyHz,CarrierCycles,CarrierPhase,CarrierPhaseUncertainty,MultipathIndicator,SnrInDb,ConstellationType,AgcDb,CarrierFrequencyHz,AngleZ,AngleX,AngleY
# 
# Fix,Provider,Latitude,Longitude,Altitude,Speed,Accuracy,SpeedAccuracy,BearingAccuracy,TimeInMs
# 
# Nav,Svid,Type,Status,MessageId,Sub-messageId,Data(Bytes)
# 
Raw,946302635,8481367000000,,,-1260194515066179072,0.0,42.09372491459362,-16.353589459610365,15.325558034583459,3049,8,0.0,15,404596348421379,995,16.2,110.10392761230469,2.183500051498413,0,0.0,0.0,,,,,0,,1,,,37.109375,-102.59375,8.78125
Raw,946302635,8481367000000,,,-1260194515066179072,0.0,42.09372491459362,-16.353589459610365,15.325558034583459,3049,10,0.0,15,404596363190233,13,31.1,-319.9371643066406,0.02970000170171261,0,0.0,0.0,,,,,0,,1,,,37.109375,-102.59375,8.78125
Raw,946302636,8481367000000,,,-1260194515066179072,0.0,42.09372491459362,-16.353589459610365,15.325558034583459,3049,12,0.0,15,404596350377465,14,30.1,-509.05364990234375,0.040800001472234726,0,0.0,0.0,,,,,0,,1,,,37.109375,-102.59375,8.78125
Raw,946302636,8481367000000,,,-1260194515066179072,0.0,42.09372491459362,-16.353589459610365,15.325558034583459,3049,15,0.0,15,404596353033443,14,30.8,583.5673217773438,0.04530000314116478,0,0.0,0.0,,,,,0,,1,,,37.109375,-102.59375,8.78125
Raw,946302637,8481367000000,,,-1260194515066179072,0.0,42.09372491459362,-16.353589459610365,15.325558034583459,3049,20,0.0,15,404596366448301,24,25.2,19.493270874023438,0.39079999923706055,0,0.0,0.0,,,,,0,,1,,,37.109375,-102.59375,8.78125
Raw,946302637,8481367000000,,,-1260194515066179072,0.0,42.09372491459362,-16.353589459610365,15.325558034583459,3049,21,0.0,15,404596360210636,17,31.5,425.84869384765625,1.5665000677108765,0,0.0,0.0,,,,,0,,1,,,37.109375,-102.59375,8.78125
Raw,946302638,8481367000000,,,-1260194515066179072,0.0,42.09372491459362,-16.353589459610365,15.325558034583459,3049,24,0.0,15,404596363177204,14,30.6,256.9347839355469,0.030300000682473183,0,0.0,0.0,,,,,0,,1,,,37.109375,-102.59375,8.78125
Raw,946302638,8481367000000,,,-1260194515066179072,0.0,42.09372491459362,-16.353589459610365,15.325558034583459,3049,27,0.0,15,404596349856409,651,19.1,364.0888977050781,1.9550000429153442,0,0.0,0.0,,,,,0,,1,,,37.109375,-102.59375,8.78125
Raw,946302638,8481367000000,,,-1260194515066179072,0.0,42.09372491459362,-16.353589459610365,15.325558034583459,3049,32,0.0,15,404596359678152,426,21.8,-377.43798828125,1.7000000476837158,0,0.0,0.0,,,,,0,,1,,,37.109375,-102.59375,8.78125
Raw,946303627,8482367000000,,,-1260194515066179072,0.0,39.202077459776774,-9.68439198131965,12.492975444137398,3049,8,0.0,15,404597348421055,1153,15.3,110.26567077636719,3.0335001945495605,0,0.0,0.0,,,,,0,,1,,,262.73438,-82.15625,-5.875
Raw,946303628,8482367000000,,,-1260194515066179072,0.0,39.202077459776774,-9.68439198131965,12.492975444137398,3049,10,0.0,15,404597363191322,13,31.3,-319.0389709472656,0.02970000170171261,0,0.0,0.0,,,,,0,,1,,,262.73438,-82.15625,-5.875
Raw,946303628,8482367000000,,,-1260194515066179072,0.0,39.202077459776774,-9.68439198131965,12.492975444137398,3049,12,0.0,15,404597350379180,19,27.1,-508.1405029296875,0.056300003081560135,0,0.0,0.0,,,,,0,,1,,,262.73438,-82.15625,-5.875
Raw,946303628,8482367000000,,,-1260194515066179072,0.0,39.202077459776774,-9.68439198131965,12.492975444137398,3049,14,0.0,15,404597352594537,1002,15.6,-489.71124267578125,2.939500093460083,0,0.0,0.0,,,,,0,,1,,,262.73438,-82.15625,-5.875
Raw,946303629,8482367000000,,,-1260194515066179072,0.0,39.202077459776774,-9.68439198131965,12.492975444137398,3049,15,0.0,15,404597353031503,21,26.5,584.3018188476562,0.1307000070810318,0,0.0,0.0,,,,,0,,1,,,262.73438,-82.15625,-5.875
Raw,946303629,8482367000000,,,-1260194515066179072,0.0,39.202077459776774,-9.68439198131965,12.492975444137398,3049,20,0.0,15,404597366448241,24,25.3,20.2447566986084,0.39079999923706055,0,0.0,0.0,,,,,0,,1,,,262.73438,-82.15625,-5.875
Raw,946303630,8482367000000,,,-1260194515066179072,0.0,39.202077459776774,-9.68439198131965,12.492975444137398,3049,21,0.0,15,404597360209182,84,16.6,429.7592468261719,1.9164999723434448,0,0.0,0.0,,,,,0,,1,,,262.73438,-82.15625,-5.875
Raw,946303631,8482367000000,,,-1260194515066179072,0.0,39.202077459776774,-9.68439198131965,12.492975444137398,3049,24,0.0,15,404597363176352,14,30.1,257.8066711425781,0.030300000682473183,0,0.0,0.0,,,,,0,,1,,,262.73438,-82.15625,-5.875
Raw,946303631,8482367000000,,,-1260194515066179072,0.0,39.202077459776774,-9.68439198131965,12.492975444137398,3049,27,0.0,15,404597349855183,657,18.9,364.469482421875,2.705000162124634,0,0.0,0.0,,,,,0,,1,,,262.73438,-82.15625,-5.875
Raw,946303632,8482367000000,,,-1260194515066179072,0.0,39.202077459776774,-9.68439198131965,12.492975444137398,3049,32,0.0,15,404597359679400,28,24.0,-375.021240234375,0.949999988079071,0,0.0,0.0,,,,,0,,1,,,262.73438,-82.15625,-5.875
Raw,946304624,8483367000000,,,-1260194515066179072,0.0,36.808814911637455,-6.446943702191762,12.43222568898375,3049,8,0.0,15,404598348420664,1168,14.8,110.27518463134766,4.1585001945495605,0,0.0,0.0,,,,,0,,1,,,275.75,-82.0625,2.5
Raw,946304625,8483367000000,,,-1260194515066179072,0.0,36.808814911637455,-6.446943702191762,12.43222568898375,3049,10,0.0,15,404598363192383,17,28.5,-318.2335510253906,0.03779999911785126,0,0.0,0.0,,,,,0,,1,,,275.75,-82.0625,2.5
Raw,946304626,8483367000000,,,-1260194515066179072,0.0,36.808814911637455,-6.446943702191762,12.43222568898375,3049,12,0.0,15,404598350380883,31,23.9,-507.560791015625,0.6814999580383301,0,0.0,0.0,,,,,0,,1,,,275.75,-82.0625,2.5
Raw,946304626,8483367000000,,,-1260194515066179072,0.0,36.808814911637455,-6.446943702191762,12.43222568898375,3049,14,0.0,15,404598352596165,1011,15.8,-489.102294921875,3.689500093460083,0,0.0,0.0,,,,,0,,1,,,275.75,-82.0625,2.5
Raw,946304627,8483367000000,,,-1260194515066179072,0.0,36.808814911637455,-6.446943702191762,12.43222568898375,3049,15,0.0,15,404598353029568,16,29.7,585.0416259765625,0.04620000347495079,0,0.0,0.0,,,,,0,,1,,,275.75,-82.0625,2.5
Raw,946304627,8483367000000,,,-1260194515066179072,0.0,36.808814911637455,-6.446943702191762,12.43222568898375,3049,20,0.0,15,404598366448181,27,24.6,21.27483367919922,0.6255000233650208,0,0.0,0.0,,,,,0,,1,,,275.75,-82.0625,2.5
Raw,946304628,8483367000000,,,-1260194515066179072,0.0,36.808814911637455,-6.446943702191762,12.43222568898375,3049,21,0.0,15,404598360207734,21,26.8,429.4351501464844,0.1112000048160553,0,0.0,0.0,,,,,0,,1,,,275.75,-82.0625,2.5
Raw,946304629,8483367000000,,,-1260194515066179072,0.0,36.808814911637455,-6.446943702191762,12.43222568898375,3049,24,0.0,15,404598363175460,16,29.3,258.5526123046875,0.031200001016259193,0,0.0,0.0,,,,,0,,1,,,275.75,-82.0625,2.5
Raw,946304629,8483367000000,,,-1260194515066179072,0.0,36.808814911637455,-6.446943702191762,12.43222568898375,3049,27,0.0,15,404598349853961,666,18.5,365.06890869140625,3.455000162124634,0,0.0,0.0,,,,,0,,1,,,275.75,-82.0625,2.5
Raw,946304630,8483367000000,,,-1260194515066179072,0.0,36.808814911637455,-6.446943702191762,12.43222568898375,3049,32,0.0,15,404598359680601,40,21.6,-374.5455017089844,0.7849999666213989,0,0.0,0.0,,,,,0,,1,,,275.75,-82.0625,2.5
Raw,946305615,8484367000000,,,-1260194515066179072,0.0,36.95536361192353,-4.0601033342436015,10.207810274803695,3049,8,0.0,15,404599348420296,1196,14.8,110.27518463134766,5.6585001945495605,0,0.0,0.0,,,,,0,,1,,,320.70312,-76.921875,-11.84375
Raw,946305615,8484367000000,,,-1260194515066179072,0.0,36.95536361192353,-4.0601033342436015,10.207810274803695,3049,10,0.0,15,404599363193433,27,24.6,-318.5230407714844,0.6210000514984131,0,0.0,0.0,,,,,0,,1,,,320.70312,-76.921875,-11.84375
Raw,946305616,8484367000000,,,-1260194515066179072,0.0,36.95536361192353,-4.0601033342436015,10.207810274803695,3049,12,0.0,15,404599350382528,35,22.7,-508.52178955078125,0.7414999604225159,0,0.0,0.0,,,,,0,,1,,,320.70312,-76.921875,-11.84375
Raw,946305617,8484367000000,,,-1260194515066179072,0.0,36.95536361192353,-4.0601033342436015,10.207810274803695,3049,14,0.0,15,404599352597810,890,17.0,-489.1784362792969,4.3495001792907715,0,0.0,0.0,,,,,0,,1,,,320.70312,-76.921875,-11.84375
Raw,946305617,8484367000000,,,-1260194515066179072,0.0,36.95536361192353,-4.0601033342436015,10.207810274803695,3049,15,0.0,15,404599353027619,12,32.5,583.9171752929688,0.04340000078082085,0,0.0,0.0,,,,,0,,1,,,320.70312,-76.921875,-11.84375
Raw,946305618,8484367000000,,,-1260194515066179072,0.0,36.95536361192353,-4.0601033342436015,10.207810274803695,3049,20,0.0,15,404599366448063,16,29.4,20.20095443725586,0.0357000008225441,0,0.0,0.0,,,,,0,,1,,,320.70312,-76.921875,-11.84375
Raw,946305619,8484367000000,,,-1260194515066179072,0.0,36.95536361192353,-4.0601033342436015,10.207810274803695,3049,21,0.0,15,404599360206364,13,31.5,428.8108825683594,0.025200000032782555,0,0.0,0.0,,,,,0,,1,,,320.70312,-76.921875,-11.84375
Raw,946305619,8484367000000,,,-1260194515066179072,0.0,36.95536361192353,-4.0601033342436015,10.207810274803695,3049,24,0.0,15,404599363174612,9,35.0,257.61468505859375,0.026100000366568565,0,0.0,0.0,,,,,0,,1,,,320.70312,-76.921875,-11.84375
Raw,946305620,8484367000000,,,-1260194515066179072,0.0,36.95536361192353,-4.0601033342436015,10.207810274803695,3049,27,0.0,15,404599349852743,776,17.7,364.9452209472656,4.285000324249268,0,0.0,0.0,,,,,0,,1,,,320.70312,-76.921875,-11.84375
Raw,946305621,8484367000000,,,-1260194515066179072,0.0,36.95536361192353,-4.0601033342436015,10.207810274803695,3049,32,0.0,15,404599359681861,31,23.7,-374.95465087890625,0.6649999618530273,0,0.0,0.0,,,,,0,,1,,,320.70312,-76.921875,-11.84375
Raw,946306611,8485367000000,,,-1260194515066179072,0.0,36.98904765769839,-6.844449881078963,12.471436113763762,3049,8,0.0,15,404600348419928,1234,14.8,110.27518463134766,7.1585001945495605,0,0.0,0.0,,,,,0,,1,,,2.40625,-79.625,-8.984375
Raw,946306611,8485367000000,,,-1260194515066179072,0.0,36.98904765769839,-6.844449881078963,12.471436113763762,3049,10,0.0,15,404600363194497,46,20.1,-321.7200012207031,0.9210000038146973,0,0.0,0.0,,,,,0,,1,,,2.40625,-79.625,-8.984375
Raw,946306612,8485367000000,,,-1260194515066179072,0.0,36.98904765769839,-6.844449881078963,12.471436113763762,3049,12,0.0,15,404600350384348,70,17.9,-509.5874328613281,1.091499924659729,0,0.0,0.0,,,,,0,,1,,,2.40625,-79.625,-8.984375
Raw,946306612,8485367000000,,,-1260194515066179072,0.0,36.98904765769839,-6.844449881078963,12.471436113763762,3049,14,0.0,15,404600352599463,904,16.8,-489.1498718261719,5.0995001792907715,0,0.0,0.0,,,,,0,,1,,,2.40625,-79.625,-8.984375
Raw,946306613,8485367000000,,,-1260194515066179072,0.0,36.98904765769839,-6.844449881078963,12.471436113763762,3049,15,0.0,15,404600353025675,11,33.4,582.8026733398438,0.04240000247955322,0,0.0,0.0,,,,,0,,1,,,2.40625,-79.625,-8.984375
Raw,946306613,8485367000000,,,-1260194515066179072,0.0,36.98904765769839,-6.844449881078963,12.471436113763762,3049,20,0.0,15,404600366447969,21,26.3,18.93292999267578,0.12020000070333481,0,0.0,0.0,,,,,0,,1,,,2.40625,-79.625,-8.984375
Raw,946306615,8485367000000,,,-1260194515066179072,0.0,36.98904765769839,-6.844449881078963,12.471436113763762,3049,21,0.0,15,404600360204853,35,22.8,427.656494140625,0.7264999747276306,0,0.0,0.0,,,,,0,,1,,,2.40625,-79.625,-8.984375
Raw,946306615,8485367000000,,,-1260194515066179072,0.0,36.98904765769839,-6.844449881078963,12.471436113763762,3049,24,0.0,15,404600363173776,11,33.1,256.5285339355469,0.027400000020861626,0,0.0,0.0,,,,,0,,1,,,2.40625,-79.625,-8.984375
Raw,946306616,8485367000000,,,-1260194515066179072,0.0,36.98904765769839,-6.844449881078963,12.471436113763762,3049,27,0.0,15,404600349851534,790,18.2,364.9166564941406,5.035000324249268,0,0.0,0.0,,,,,0,,1,,,2.40625,-79.625,-8.984375
Raw,946306617,8485367000000,,,-1260194515066179072,0.0,36.98904765769839,-6.844449881078963,12.471436113763762,3049,32,0.0,15,404600359683094,40,21.4,-376.8100280761719,0.8449999690055847,0,0.0,0.0,,,,,0,,1,,,2.40625,-79.625,-8.984375
Raw,946307619,8486367000000,,,-1260194515066179072,0.0,38.692247471772134,-11.888631172948415,11.61700927390089,3049,8,0.0,15,404601348419561,1283,14.8,110.27518463134766,8.658500671386719,0,0.0,0.0,,,,,0,,1,,,42.671875,-76.109375,-12.40625
Raw,946307620,8486367000000,,,-1260194515066179072,0.0,38.692247471772134,-11.888631172948415,11.61700927390089,3049,10,0.0,15,404601363195543,27,24.7,-319.61724853515625,0.6210000514984131,0,0.0,0.0,,,,,0,,1,,,42.671875,-76.109375,-12.40625
Raw,946307621,8486367000000,,,-1260194515066179072,0.0,38.692247471772134,-11.888631172948415,11.61700927390089,3049,12,0.0,15,404601350385950,19,27.9,-508.81390380859375,0.056300003081560135,0,0.0,0.0,,,,,0,,1,,,42.671875,-76.109375,-12.40625
Raw,946307622,8486367000000,,,-1260194515066179072,0.0,38.692247471772134,-11.888631172948415,11.61700927390089,3049,14,0.0,15,404601352601384,17,29.1,-488.9310607910156,1.0954999923706055,0,0.0,0.0,,,,,0,,1,,,42.671875,-76.109375,-12.40625
Raw,946307622,8486367000000,,,-1260194515066179072,0.0,38.692247471772134,-11.888631172948415,11.61700927390089,3049,15,0.0,15,404601353023667,19,27.0,583.8046875,0.06080000102519989,0,0.0,0.0,,,,,0,,1,,,42.671875,-76.109375,-12.40625
Raw,946307623,8486367000000,,,-1260194515066179072,0.0,38.692247471772134,-11.888631172948415,11.61700927390089,3049,20,0.0,15,404601366447864,24,25.5,20.143585205078125,0.39079999923706055,0,0.0,0.0,,,,,0,,1,,,42.671875,-76.109375,-12.40625
Raw,946307624,8486367000000,,,-1260194515066179072,0.0,38.692247471772134,-11.888631172948415,11.61700927390089,3049,21,0.0,15,404601360203442,21,26.4,428.2192077636719,0.1112000048160553,0,0.0,0.0,,,,,0,,1,,,42.671875,-76.109375,-12.40625
Raw,946307624,8486367000000,,,-1260194515066179072,0.0,38.692247471772134,-11.888631172948415,11.61700927390089,3049,24,0.0,15,404601363172884,11,33.5,257.7034912109375,0.027400000020861626,0,0.0,0.0,,,,,0,,1,,,42.671875,-76.109375,-12.40625
Raw,946307625,8486367000000,,,-1260194515066179072,0.0,38.692247471772134,-11.888631172948415,11.61700927390089,3049,27,0.0,15,404601349850325,121,18.9,365.3258056640625,5.705000400543213,0,0.0,0.0,,,,,0,,1,,,42.671875,-76.109375,-12.40625
Raw,946307625,8486367000000,,,-1260194515066179072,0.0,38.692247471772134,-11.888631172948415,11.61700927390089,3049,32,0.0,15,404601359684430,11,33.0,-375.5128173828125,0.021400000900030136,0,0.0,0.0,,,,,0,,1,,,42.671875,-76.109375,-12.40625
Raw,946308611,8487367000000,,,-1260194515066179072,0.0,40.96441261935979,-8.685948903159941,11.497569535623862,3049,8,0.0,15,404602348419193,1341,14.8,110.27518463134766,10.158500671386719,0,0.0,0.0,,,,,0,,1,,,72.96875,-73.1875,-16.078125
Raw,946308612,8487367000000,,,-1260194515066179072,0.0,40.96441261935979,-8.685948903159941,11.497569535623862,3049,10,0.0,15,404602363196662,31,23.6,-319.02734375,0.6710000038146973,0,0.0,0.0,,,,,0,,1,,,72.96875,-73.1875,-16.078125
Raw,946308613,8487367000000,,,-1260194515066179072,0.0,40.96441261935979,-8.685948903159941,11.497569535623862,3049,12,0.0,15,404602350387624,19,27.6,-508.4696044921875,0.056300003081560135,0,0.0,0.0,,,,,0,,1,,,72.96875,-73.1875,-16.078125
Raw,946308613,8487367000000,,,-1260194515066179072,0.0,40.96441261935979,-8.685948903159941,11.497569535623862,3049,14,0.0,15,404602352602835,21,26.9,-488.0204772949219,0.12919999659061432,0,0.0,0.0,,,,,0,,1,,,72.96875,-73.1875,-16.078125
Raw,946308614,8487367000000,,,-1260194515066179072,0.0,40.96441261935979,-8.685948903159941,11.497569535623862,3049,15,0.0,15,404602353021758,35,22.2,583.8970947265625,0.8059999942779541,0,0.0,0.0,,,,,0,,1,,,72.96875,-73.1875,-16.078125
Raw,946308614,8487367000000,,,-1260194515066179072,0.0,40.96441261935979,-8.685948903159941,11.497569535623862,3049,20,0.0,15,404602366447863,27,24.7,20.4851131439209,0.6255000233650208,0,0.0,0.0,,,,,0,,1,,,72.96875,-73.1875,-16.078125
Raw,946308615,8487367000000,,,-1260194515066179072,0.0,40.96441261935979,-8.685948903159941,11.497569535623862,3049,21,0.0,15,404602360202064,14,30.0,428.8995056152344,0.025800000876188278,0,0.0,0.0,,,,,0,,1,,,72.96875,-73.1875,-16.078125
Raw,946308616,8487367000000,,,-1260194515066179072,0.0,40.96441261935979,-8.685948903159941,11.497569535623862,3049,24,0.0,15,404602363172027,16,29.3,258.28814697265625,0.031200001016259193,0,0.0,0.0,,,,,0,,1,,,72.96875,-73.1875,-16.078125
Raw,946308616,8487367000000,,,-1260194515066179072,0.0,40.96441261935979,-8.685948903159941,11.497569535623862,3049,27,0.0,15,404602349849114,24,25.5,366.5341491699219,0.6650000214576721,0,0.0,0.0,,,,,0,,1,,,72.96875,-73.1875,-16.078125
Raw,946308617,8487367000000,,,-1260194515066179072,0.0,40.96441261935979,-8.685948903159941,11.497569535623862,3049,32,0.0,15,404602359685673,11,33.4,-374.9989929199219,0.021400000900030136,0,0.0,0.0,,,,,0,,1,,,72.96875,-73.1875,-16.078125
Raw,946309631,8488231000000,,,-1260194515066179072,0.0,34.2887215083465,-7.164674447252999,8.33153053072594,3049,8,0.0,15,404603212418875,1399,14.8,110.27518463134766,11.454500198364258,0,0.0,0.0,,,,,0,,1,,,84.421875,-77.203125,-9.53125
Raw,946309631,8488231000000,,,-1260194515066179072,0.0,34.2887215083465,-7.164674447252999,8.33153053072594,3049,10,0.0,15,404603227197531,17,28.2,-320.0355529785156,0.05130000039935112,0,0.0,0.0,,,,,0,,1,,,84.421875,-77.203125,-9.53125
Raw,946309632,8488231000000,,,-1260194515066179072,0.0,34.2887215083465,-7.164674447252999,8.33153053072594,3049,12,0.0,15,404603214389109,24,25.6,-508.82684326171875,0.20040000975131989,0,0.0,0.0,,,,,0,,1,,,84.421875,-77.203125,-9.53125
Raw,946309632,8488231000000,,,-1260194515066179072,0.0,34.2887215083465,-7.164674447252999,8.33153053072594,3049,14,0.0,15,404603216604222,31,23.5,-487.99859619140625,0.6754999756813049,0,0.0,0.0,,,,,0,,1,,,84.421875,-77.203125,-9.53125
Raw,946309633,8488231000000,,,-1260194515066179072,0.0,34.2887215083465,-7.164674447252999,8.33153053072594,3049,15,0.0,15,404603217020075,41,22.2,583.8970947265625,2.1019999980926514,0,0.0,0.0,,,,,0,,1,,,84.421875,-77.203125,-9.53125
Raw,946309633,8488231000000,,,-1260194515066179072,0.0,34.2887215083465,-7.164674447252999,8.33153053072594,3049,20,0.0,15,404603230447895,40,21.3,18.924705505371094,0.8464999794960022,0,0.0,0.0,,,,,0,,1,,,84.421875,-77.203125,-9.53125
Raw,946309634,8488231000000,,,-1260194515066179072,0.0,34.2887215083465,-7.164674447252999,8.33153053072594,3049,21,0.0,15,404603224200812,10,34.0,428.5943603515625,0.023099999874830246,0,0.0,0.0,,,,,0,,1,,,84.421875,-77.203125,-9.53125
Raw,946309635,8488231000000,,,-1260194515066179072,0.0,34.2887215083465,-7.164674447252999,8.33153053072594,3049,24,0.0,15,404603227171003,35,22.3,257.61004638671875,0.7820000052452087,0,0.0,0.0,,,,,0,,1,,,84.421875,-77.203125,-9.53125
Raw,946309635,8488231000000,,,-1260194515066179072,0.0,34.2887215083465,-7.164674447252999,8.33153053072594,3049,27,0.0,15,404603213848086,17,28.4,365.8761291503906,0.06030000001192093,0,0.0,0.0,,,,,0,,1,,,84.421875,-77.203125,-9.53125
Raw,946309636,8488231000000,,,-1260194515066179072,0.0,34.2887215083465,-7.164674447252999,8.33153053072594,3049,32,0.0,15,404603223686701,13,31.0,-375.73712158203125,0.028300000354647636,0,0.0,0.0,,,,,0,,1,,,84.421875,-77.203125,-9.53125
Raw,946310609,8489483000000,,,-1260194515065475584,0.0,4167.165141552687,-9.638711168416766,10.470818509426582,3050,10,0.0,15,404604478495208,35,22.7,-317.23858642578125,0.7384999990463257,0,0.0,0.0,,,,,0,,1,,,112.15625,-67.984375,-21.515625
Raw,946310610,8489483000000,,,-1260194515065475584,0.0,4167.165141552687,-9.638711168416766,10.470818509426582,3050,15,0.0,15,404604468313983,40,21.5,585.2672119140625,0.7834999561309814,0,0.0,0.0,,,,,0,,1,,,112.15625,-67.984375,-21.515625
Raw,946310610,8489483000000,,,-1260194515065475584,0.0,4167.165141552687,-9.638711168416766,10.470818509426582,3050,20,0.0,15,404604481743869,24,25.0,22.64659881591797,0.21090000867843628,0,0.0,0.0,,,,,0,,1,,,112.15625,-67.984375,-21.515625
Raw,946310611,8489483000000,,,-1260194515065475584,0.0,4167.165141552687,-9.638711168416766,10.470818509426582,3050,21,0.0,15,404604475495273,11,33.2,431.0203552246094,0.04150000214576721,0,0.0,0.0,,,,,0,,1,,,112.15625,-67.984375,-21.515625
Raw,946310612,8489483000000,,,-1260194515065475584,0.0,4167.165141552687,-9.638711168416766,10.470818509426582,3050,24,0.0,15,404604478466302,24,25.8,260.2586364746094,0.20640000700950623,0,0.0,0.0,,,,,0,,1,,,112.15625,-67.984375,-21.515625
Raw,946310612,8489483000000,,,-1260194515065475584,0.0,4167.165141552687,-9.638711168416766,10.470818509426582,3050,27,0.0,15,404604465142827,19,27.6,368.69085693359375,0.07110000401735306,0,0.0,0.0,,,,,0,,1,,,112.15625,-67.984375,-21.515625
Raw,946310613,8489483000000,,,-1260194515065475584,0.0,4167.165141552687,-9.638711168416766,10.470818509426582,3050,32,0.0,15,404604474984617,11,33.9,-373.02642822265625,0.04000000283122063,0,0.0,0.0,,,,,0,,1,,,112.15625,-67.984375,-21.515625
Raw,946311614,8490375000000,,,-1260194515065187072,0.0,4190.601874142885,-0.973789038459223,9.467172717513206,3051,10,0.0,15,404605370207575,12,32.1,-317.1152648925781,0.06350000202655792,0,0.0,0.0,,,,,0,,1,,,135.64062,-76.34375,-11.09375
Raw,946311615,8490375000000,,,-1260194515065187072,0.0,4190.601874142885,-0.973789038459223,9.467172717513206,3051,14,0.0,15,404605359615520,17,28.5,-486.0419006347656,0.125900000333786,0,0.0,0.0,,,,,0,,1,,,135.64062,-76.34375,-11.09375
Raw,946311615,8490375000000,,,-1260194515065187072,0.0,4190.601874142885,-0.973789038459223,9.467172717513206,3051,20,0.0,15,404605373455399,21,26.8,22.685009002685547,0.2702000141143799,0,0.0,0.0,,,,,0,,1,,,135.64062,-76.34375,-11.09375
Raw,946311616,8490375000000,,,-1260194515065187072,0.0,4190.601874142885,-0.973789038459223,9.467172717513206,3051,21,0.0,15,404605367205530,13,31.1,431.066650390625,0.06560000032186508,0,0.0,0.0,,,,,0,,1,,,135.64062,-76.34375,-11.09375
Raw,946311617,8490375000000,,,-1260194515065187072,0.0,4190.601874142885,-0.973789038459223,9.467172717513206,3051,24,0.0,15,404605370177016,24,25.7,260.3234558105469,1.1755000352859497,0,0.0,0.0,,,,,0,,1,,,135.64062,-76.34375,-11.09375
Raw,946311617,8490375000000,,,-1260194515065187072,0.0,4190.601874142885,-0.973789038459223,9.467172717513206,3051,27,0.0,15,404605356853254,19,27.2,368.6693115234375,0.18770000338554382,0,0.0,0.0,,,,,0,,1,,,135.64062,-76.34375,-11.09375
Raw,946311618,8490375000000,,,-1260194515065187072,0.0,4190.601874142885,-0.973789038459223,9.467172717513206,3051,32,0.0,15,404605366697242,12,32.8,-373.0581359863281,0.057499997317790985,0,0.0,0.0,,,,,0,,1,,,135.64062,-76.34375,-11.09375
Raw,946312604,8491690000000,,,-1260194515064321024,0.0,4287.7476662397385,-1.1312194426933204,11.96980448235274,3052,10,0.0,15,404606684343086,21,26.2,-317.32537841796875,0.10369999706745148,0,0.0,0.0,,,,,0,,1,,,154.26562,-75.453125,-12.84375
Raw,946312604,8491690000000,,,-1260194515064321024,0.0,4287.7476662397385,-1.1312194426933204,11.96980448235274,3052,14,0.0,15,404606673751744,13,31.5,-485.89752197265625,0.043299999088048935,0,0.0,0.0,,,,,0,,1,,,154.26562,-75.453125,-12.84375
Raw,946312605,8491690000000,,,-1260194515064321024,0.0,4287.7476662397385,-1.1312194426933204,11.96980448235274,3052,20,0.0,15,404606687589437,31,23.5,22.825727462768555,0.6620000004768372,0,0.0,0.0,,,,,0,,1,,,154.26562,-75.453125,-12.84375
Raw,946312606,8491690000000,,,-1260194515064321024,0.0,4287.7476662397385,-1.1312194426933204,11.96980448235274,3052,21,0.0,15,404606681337622,16,29.2,431.1642150878906,0.06120000034570694,0,0.0,0.0,,,,,0,,1,,,154.26562,-75.453125,-12.84375
Raw,946312606,8491690000000,,,-1260194515064321024,0.0,4287.7476662397385,-1.1312194426933204,11.96980448235274,3052,24,0.0,15,404606684310157,17,28.9,259.896240234375,0.046799998730421066,0,0.0,0.0,,,,,0,,1,,,154.26562,-75.453125,-12.84375
Raw,946312606,8491690000000,,,-1260194515064321024,0.0,4287.7476662397385,-1.1312194426933204,11.96980448235274,3052,27,0.0,15,404606670985737,14,30.9,368.71258544921875,0.04179999977350235,0,0.0,0.0,,,,,0,,1,,,154.26562,-75.453125,-12.84375
Raw,946312607,8491690000000,,,-1260194515064321024,0.0,4287.7476662397385,-1.1312194426933204,11.96980448235274,3052,32,0.0,15,404606680832957,11,33.7,-373.00213623046875,0.049000002443790436,0,0.0,0.0,,,,,0,,1,,,154.26562,-75.453125,-12.84375
Raw,946313609,8492480000000,,,-1260194515063767808,0.0,4201.023373752832,-2.2866422008407348,7.432747812401277,3053,10,0.0,15,404607473790573,13,31.7,-319.2053527832031,0.043299999088048935,0,0.0,0.0,,,,,0,,1,,,199.0,-68.015625,-19.828125
Raw,946313610,8492480000000,,,-1260194515063767808,0.0,4201.023373752832,-2.2866422008407348,7.432747812401277,3053,14,0.0,15,404607463199648,14,30.6,-488.30316162109375,0.06130000203847885,0,0.0,0.0,,,,,0,,1,,,199.0,-68.015625,-19.828125
Raw,946313610,8492480000000,,,-1260194515063767808,0.0,4201.023373752832,-2.2866422008407348,7.432747812401277,3053,15,0.0,15,404607463600239,19,27.2,583.7498779296875,0.06809999793767929,0,0.0,0.0,,,,,0,,1,,,199.0,-68.015625,-19.828125
Raw,946313611,8492480000000,,,-1260194515063767808,0.0,4201.023373752832,-2.2866422008407348,7.432747812401277,3053,20,0.0,15,404607477036075,27,24.4,20.894245147705078,0.6769999861717224,0,0.0,0.0,,,,,0,,1,,,199.0,-68.015625,-19.828125
Raw,946313611,8492480000000,,,-1260194515063767808,0.0,4201.023373752832,-2.2866422008407348,7.432747812401277,3053,21,0.0,15,404607470783156,35,22.9,429.007568359375,0.7264999747276306,0,0.0,0.0,,,,,0,,1,,,199.0,-68.015625,-19.828125
Raw,946313612,8492480000000,,,-1260194515063767808,0.0,4201.023373752832,-2.2866422008407348,7.432747812401277,3053,24,0.0,15,404607473756146,16,29.6,258.7970886230469,0.04920000210404396,0,0.0,0.0,,,,,0,,1,,,199.0,-68.015625,-19.828125
Raw,946313612,8492480000000,,,-1260194515063767808,0.0,4201.023373752832,-2.2866422008407348,7.432747812401277,3053,27,0.0,15,404607460431400,11,33.3,366.38043212890625,0.049000002443790436,0,0.0,0.0,,,,,0,,1,,,199.0,-68.015625,-19.828125
Raw,946313613,8492480000000,,,-1260194515063767808,0.0,4201.023373752832,-2.2866422008407348,7.432747812401277,3053,32,0.0,15,404607470280589,11,33.8,-375.2861022949219,0.03400000184774399,0,0.0,0.0,,,,,0,,1,,,199.0,-68.015625,-19.828125
Raw,946314617,8493370000000,,,-1260194515062876160,0.0,4193.194210529327,-8.402106750437875,7.569083248277919,3054,10,0.0,15,404608362900193,11,33.2,-319.01654052734375,0.04620000347495079,0,0.0,0.0,,,,,0,,1,,,203.89062,-76.53125,-9.578125
Raw,946314617,8493370000000,,,-1260194515062876160,0.0,4193.194210529327,-8.402106750437875,7.569083248277919,3054,15,0.0,15,404608352707236,19,27.8,583.5479125976562,0.18170000612735748,0,0.0,0.0,,,,,0,,1,,,203.89062,-76.53125,-9.578125
Raw,946314618,8493370000000,,,-1260194515062876160,0.0,4193.194210529327,-8.402106750437875,7.569083248277919,3054,20,0.0,15,404608366144549,17,28.5,20.728384017944336,0.10639999806880951,0,0.0,0.0,,,,,0,,1,,,203.89062,-76.53125,-9.578125
Raw,946314619,8493370000000,,,-1260194515062876160,0.0,4193.194210529327,-8.402106750437875,7.569083248277919,3054,21,0.0,15,404608359890415,35,22.9,428.60797119140625,0.7400000095367432,0,0.0,0.0,,,,,0,,1,,,203.89062,-76.53125,-9.578125
Raw,946314620,8493370000000,,,-1260194515062876160,0.0,4193.194210529327,-8.402106750437875,7.569083248277919,3054,24,0.0,15,404608362864031,17,28.8,258.2919006347656,0.10040000081062317,0,0.0,0.0,,,,,0,,1,,,203.89062,-76.53125,-9.578125
Raw,946314620,8493370000000,,,-1260194515062876160,0.0,4193.194210529327,-8.402106750437875,7.569083248277919,3054,27,0.0,15,404608349538976,13,31.2,366.810302734375,0.06859999895095825,0,0.0,0.0,,,,,0,,1,,,203.89062,-76.53125,-9.578125
Raw,946314621,8493370000000,,,-1260194515062876160,0.0,4193.194210529327,-8.402106750437875,7.569083248277919,3054,32,0.0,15,404608359390416,13,31.5,-374.9757995605469,0.0835999995470047,0,0.0,0.0,,,,,0,,1,,,203.89062,-76.53125,-9.578125
Raw,946315613,8494684000000,,,-1260194515062782976,0.0,4257.913678884506,-8.66221062697021,11.401709813060108,3055,10,0.0,15,404609676808000,10,34.3,-317.2414855957031,0.041099999099969864,0,0.0,0.0,,,,,0,,1,,,254.64062,-69.796875,-16.875
Raw,946315614,8494684000000,,,-1260194515062782976,0.0,4257.913678884506,-8.66221062697021,11.401709813060108,3055,15,0.0,15,404609666611147,27,24.2,585.4860229492188,0.6604999899864197,0,0.0,0.0,,,,,0,,1,,,254.64062,-69.796875,-16.875
Raw,946315614,8494684000000,,,-1260194515062782976,0.0,4257.913678884506,-8.66221062697021,11.401709813060108,3055,21,0.0,15,404609673794864,46,20.9,430.6726379394531,0.8510000109672546,0,0.0,0.0,,,,,0,,1,,,254.64062,-69.796875,-16.875
Raw,946315615,8494684000000,,,-1260194515062782976,0.0,4257.913678884506,-8.66221062697021,11.401709813060108,3055,24,0.0,15,404609676769312,19,27.0,260.2492980957031,0.08760000020265579,0,0.0,0.0,,,,,0,,1,,,254.64062,-69.796875,-16.875
Raw,946315616,8494684000000,,,-1260194515062782976,0.0,4257.913678884506,-8.66221062697021,11.401709813060108,3055,27,0.0,15,404609663443660,40,21.0,368.4751281738281,0.8359999656677246,0,0.0,0.0,,,,,0,,1,,,254.64062,-69.796875,-16.875
Raw,946316617,8495479000000,,,-1260194515062297600,0.0,4211.926832795143,-1.8853423433715353,8.907988351628719,3056,10,0.0,15,404610471323647,11,33.1,-316.17633056640625,0.03550000116229057,0,0.0,0.0,,,,,0,,1,,,265.76562,-74.453125,-12.78125
Raw,946316618,8495479000000,,,-1260194515062297600,0.0,4211.926832795143,-1.8853423433715353,8.907988351628719,3056,12,0.0,15,404610458519842,27,24.3,-506.0860290527344,0.6784999966621399,0,0.0,0.0,,,,,0,,1,,,265.76562,-74.453125,-12.78125
Raw,946316619,8495479000000,,,-1260194515062297600,0.0,4211.926832795143,-1.8853423433715353,8.907988351628719,3056,15,0.0,15,404610461124342,16,29.7,586.5507202148438,0.06120000034570694,0,0.0,0.0,,,,,0,,1,,,265.76562,-74.453125,-12.78125
Raw,946316619,8495479000000,,,-1260194515062297600,0.0,4211.926832795143,-1.8853423433715353,8.907988351628719,3056,20,0.0,15,404610474565645,13,31.2,23.64020347595215,0.04480000212788582,0,0.0,0.0,,,,,0,,1,,,265.76562,-74.453125,-12.78125
Raw,946316620,8495479000000,,,-1260194515062297600,0.0,4211.926832795143,-1.8853423433715353,8.907988351628719,3056,21,0.0,15,404610468308812,31,23.0,432.02374267578125,0.7234999537467957,0,0.0,0.0,,,,,0,,1,,,265.76562,-74.453125,-12.78125
Raw,946316621,8495479000000,,,-1260194515062297600,0.0,4211.926832795143,-1.8853423433715353,8.907988351628719,3056,24,0.0,15,404610471283427,13,31.6,261.60003662109375,0.040300000458955765,0,0.0,0.0,,,,,0,,1,,,265.76562,-74.453125,-12.78125
Raw,946316621,8495479000000,,,-1260194515062297600,0.0,4211.926832795143,-1.8853423433715353,8.907988351628719,3056,32,0.0,15,404610467814083,14,30.6,-372.1693115234375,0.037300001829862595,0,0.0,0.0,,,,,0,,1,,,265.76562,-74.453125,-12.78125
Raw,946317624,8496492000000,,,-1260194515061477632,0.0,4225.917626172304,1.1234335640648239,8.357831195132475,3057,10,0.0,15,404611483504804,17,28.6,-314.32647705078125,0.04529999941587448,0,0.0,0.0,,,,,0,,1,,,298.04688,-73.640625,-13.109375
Raw,946317624,8496492000000,,,-1260194515061477632,0.0,4225.917626172304,1.1234335640648239,8.357831195132475,3057,15,0.0,15,404611473302442,13,31.2,588.385498046875,0.043299999088048935,0,0.0,0.0,,,,,0,,1,,,298.04688,-73.640625,-13.109375
Raw,946317625,8496492000000,,,-1260194515061477632,0.0,4225.917626172304,1.1234335640648239,8.357831195132475,3057,20,0.0,15,404611486745631,21,26.1,25.52632713317871,0.10669999569654465,0,0.0,0.0,,,,,0,,1,,,298.04688,-73.640625,-13.109375
Raw,946317626,8496492000000,,,-1260194515061477632,0.0,4225.917626172304,1.1234335640648239,8.357831195132475,3057,21,0.0,15,404611480487439,24,25.5,433.87689208984375,0.2093999981880188,0,0.0,0.0,,,,,0,,1,,,298.04688,-73.640625,-13.109375
Raw,946317626,8496492000000,,,-1260194515061477632,0.0,4225.917626172304,1.1234335640648239,8.357831195132475,3057,24,0.0,15,404611483462574,10,34.0,263.4554138183594,0.02160000056028366,0,0.0,0.0,,,,,0,,1,,,298.04688,-73.640625,-13.109375
Raw,946318609,8497487000000,,,-1260194515060492032,0.0,4230.042919516563,7.237972906215744,8.995068196503619,3058,10,0.0,15,404612477520072,40,21.9,-314.84088134765625,0.796999990940094,0,0.0,0.0,,,,,0,,1,,,324.76562,-76.40625,-10.953125
Raw,946318609,8497487000000,,,-1260194515060492032,0.0,4230.042919516563,7.237972906215744,8.995068196503619,3058,15,0.0,15,404612467314720,14,30.9,587.6793212890625,0.037300001829862595,0,0.0,0.0,,,,,0,,1,,,324.76562,-76.40625,-10.953125
Raw,946318610,8497487000000,,,-1260194515060492032,0.0,4230.042919516563,7.237972906215744,8.995068196503619,3058,20,0.0,15,404612480759742,17,28.3,25.304019927978516,0.07079999893903732,0,0.0,0.0,,,,,0,,1,,,324.76562,-76.40625,-10.953125
Raw,946318610,8497487000000,,,-1260194515060492032,0.0,4230.042919516563,7.237972906215744,8.995068196503619,3058,21,0.0,15,404612474500152,17,28.6,433.2430419921875,0.061799999326467514,0,0.0,0.0,,,,,0,,1,,,324.76562,-76.40625,-10.953125
Raw,946318611,8497487000000,,,-1260194515060492032,0.0,4230.042919516563,7.237972906215744,8.995068196503619,3058,24,0.0,15,404612477475910,11,33.5,262.86981201171875,0.04450000077486038,0,0.0,0.0,,,,,0,,1,,,324.76562,-76.40625,-10.953125
Raw,946318611,8497487000000,,,-1260194515060492032,0.0,4230.042919516563,7.237972906215744,8.995068196503619,3058,32,0.0,15,404612474010915,24,25.7,-370.26922607421875,0.20040000975131989,0,0.0,0.0,,,,,0,,1,,,324.76562,-76.40625,-10.953125
Raw,946319612,8498474000000,,,-1260194515060291584,0.0,4235.206637531519,5.182705334938099,10.960937685273846,3059,10,0.0,15,404613464320130,35,22.4,-319.97882080078125,0.7774999737739563,0,0.0,0.0,,,,,0,,1,,,352.92188,-79.46875,-8.875
Raw,946319613,8498474000000,,,-1260194515060291584,0.0,4235.206637531519,5.182705334938099,10.960937685273846,3059,14,0.0,15,404613453732847,27,24.9,-489.5685119628906,0.6210000514984131,0,0.0,0.0,,,,,0,,1,,,352.92188,-79.46875,-8.875
Raw,946319613,8498474000000,,,-1260194515060291584,0.0,4235.206637531519,5.182705334938099,10.960937685273846,3059,15,0.0,15,404613454112001,24,25.6,583.6497192382812,0.5824999809265137,0,0.0,0.0,,,,,0,,1,,,352.92188,-79.46875,-8.875
Raw,946319615,8498474000000,,,-1260194515060291584,0.0,4235.206637531519,5.182705334938099,10.960937685273846,3059,20,0.0,15,404613467559005,17,28.4,20.15489387512207,0.05130000039935112,0,0.0,0.0,,,,,0,,1,,,352.92188,-79.46875,-8.875
Raw,946319616,8498474000000,,,-1260194515060291584,0.0,4235.206637531519,5.182705334938099,10.960937685273846,3059,21,0.0,15,404613461298000,16,29.4,428.4124755859375,0.06120000034570694,0,0.0,0.0,,,,,0,,1,,,352.92188,-79.46875,-8.875
Raw,946319616,8498474000000,,,-1260194515060291584,0.0,4235.206637531519,5.182705334938099,10.960937685273846,3059,24,0.0,15,404613464274385,13,31.8,258.2779235839844,0.02979999966919422,0,0.0,0.0,,,,,0,,1,,,352.92188,-79.46875,-8.875
Raw,946319617,8498474000000,,,-1260194515060291584,0.0,4235.206637531519,5.182705334938099,10.960937685273846,3059,27,0.0,15,404613450947369,24,25.9,365.6664733886719,0.19439999759197235,0,0.0,0.0,,,,,0,,1,,,352.92188,-79.46875,-8.875
Raw,946319618,8498474000000,,,-1260194515060291584,0.0,4235.206637531519,5.182705334938099,10.960937685273846,3059,32,0.0,15,404613460811472,11,33.1,-376.1233215332031,0.049000002443790436,0,0.0,0.0,,,,,0,,1,,,352.92188,-79.46875,-8.875
Raw,946320614,8499490000000,,,-1260194515059915776,0.0,4234.117455780506,-11.97168531665837,11.45554382397623,3060,10,0.0,15,404614479945909,31,23.2,-316.8675231933594,0.7400000095367432,0,0.0,0.0,,,,,0,,1,,,40.046875,-74.8125,-14.375
Raw,946320615,8499490000000,,,-1260194515059915776,0.0,4234.117455780506,-11.97168531665837,11.45554382397623,3060,12,0.0,15,404614467144509,27,24.6,-506.7235107421875,0.612000048160553,0,0.0,0.0,,,,,0,,1,,,40.046875,-74.8125,-14.375
Raw,946320615,8499490000000,,,-1260194515059915776,0.0,4234.117455780506,-11.97168531665837,11.45554382397623,3060,14,0.0,15,404614469358991,17,28.9,-486.09375,0.05429999902844429,0,0.0,0.0,,,,,0,,1,,,40.046875,-74.8125,-14.375
Raw,946320616,8499490000000,,,-1260194515059915776,0.0,4234.117455780506,-11.97168531665837,11.45554382397623,3060,20,0.0,15,404614483183424,40,21.6,22.568828582763672,0.8059999942779541,0,0.0,0.0,,,,,0,,1,,,40.046875,-74.8125,-14.375
Raw,946320617,8499490000000,,,-1260194515059915776,0.0,4234.117455780506,-11.97168531665837,11.45554382397623,3060,21,0.0,15,404614476921122,14,30.3,431.1829833984375,0.05079999938607216,0,0.0,0.0,,,,,0,,1,,,40.046875,-74.8125,-14.375
Raw,946320618,8499490000000,,,-1260194515059915776,0.0,4234.117455780506,-11.97168531665837,11.45554382397623,3060,24,0.0,15,404614479897896,13,31.0,260.7880859375,0.05230000242590904,0,0.0,0.0,,,,,0,,1,,,40.046875,-74.8125,-14.375
Raw,946320618,8499490000000,,,-1260194515059915776,0.0,4234.117455780506,-11.97168531665837,11.45554382397623,3060,27,0.0,15,404614466570748,19,27.4,368.9853820800781,0.07259999960660934,0,0.0,0.0,,,,,0,,1,,,40.046875,-74.8125,-14.375
Raw,946320619,8499490000000,,,-1260194515059915776,0.0,4234.117455780506,-11.97168531665837,11.45554382397623,3060,32,0.0,15,404614476437238,27,24.6,-372.99462890625,0.6255000233650208,0,0.0,0.0,,,,,0,,1,,,40.046875,-74.8125,-14.375
Raw,946321624,8500479000000,,,-1260194515059132928,0.0,4245.577845722437,-2.0253380498154745,8.607639392628585,3061,10,0.0,15,404615468164440,16,29.8,-318.2088928222656,0.04170000180602074,0,0.0,0.0,,,,,0,,1,,,59.0,-79.65625,-9.28125
Raw,946321624,8500479000000,,,-1260194515059132928,0.0,4245.577845722437,-2.0253380498154745,8.607639392628585,3061,12,0.0,15,404615455363740,46,20.8,-507.79864501953125,0.8539999723434448,0,0.0,0.0,,,,,0,,1,,,59.0,-79.65625,-9.28125
Raw,946321625,8500479000000,,,-1260194515059132928,0.0,4245.577845722437,-2.0253380498154745,8.607639392628585,3061,14,0.0,15,404615457578091,14,30.2,-487.2919921875,0.05230000242590904,0,0.0,0.0,,,,,0,,1,,,59.0,-79.65625,-9.28125
Raw,946321625,8500479000000,,,-1260194515059132928,0.0,4245.577845722437,-2.0253380498154745,8.607639392628585,3061,15,0.0,15,404615457950163,35,22.1,584.115966796875,0.796999990940094,0,0.0,0.0,,,,,0,,1,,,59.0,-79.65625,-9.28125
Raw,946321626,8500479000000,,,-1260194515059132928,0.0,4245.577845722437,-2.0253380498154745,8.607639392628585,3061,20,0.0,15,404615471400763,31,23.0,22.340476989746094,0.7279999852180481,0,0.0,0.0,,,,,0,,1,,,59.0,-79.65625,-9.28125
Raw,946321626,8500479000000,,,-1260194515059132928,0.0,4245.577845722437,-2.0253380498154745,8.607639392628585,3061,21,0.0,15,404615465137144,12,32.7,430.3218994140625,0.02889999933540821,0,0.0,0.0,,,,,0,,1,,,59.0,-79.65625,-9.28125
Raw,946321627,8500479000000,,,-1260194515059132928,0.0,4245.577845722437,-2.0253380498154745,8.607639392628585,3061,24,0.0,15,404615468114405,16,29.9,260.06201171875,0.04170000180602074,0,0.0,0.0,,,,,0,,1,,,59.0,-79.65625,-9.28125
Raw,946321627,8500479000000,,,-1260194515059132928,0.0,4245.577845722437,-2.0253380498154745,8.607639392628585,3061,27,0.0,15,404615454786946,16,29.8,367.56719970703125,0.050700001418590546,0,0.0,0.0,,,,,0,,1,,,59.0,-79.65625,-9.28125
Raw,946321628,8500479000000,,,-1260194515059132928,0.0,4245.577845722437,-2.0253380498154745,8.607639392628585,3061,32,0.0,15,404615464655971,12,32.8,-374.17193603515625,0.027400000020861626,0,0.0,0.0,,,,,0,,1,,,59.0,-79.65625,-9.28125
Raw,946322616,8501392000000,,,-1260194515058748416,0.0,4244.724754244089,-6.0928335002835246,6.0664290519967015,3062,10,0.0,15,404616380780520,21,26.9,-318.607177734375,0.2806999981403351,0,0.0,0.0,,,,,0,,1,,,100.84375,-74.9375,-14.9375
Raw,946322617,8501392000000,,,-1260194515058748416,0.0,4244.724754244089,-6.0928335002835246,6.0664290519967015,3062,14,0.0,15,404616370194655,16,29.2,-487.6169738769531,0.08940000087022781,0,0.0,0.0,,,,,0,,1,,,100.84375,-74.9375,-14.9375
Raw,946322618,8501392000000,,,-1260194515058748416,0.0,4244.724754244089,-6.0928335002835246,6.0664290519967015,3062,20,0.0,15,404616384015934,19,27.1,21.534944534301758,0.1697000116109848,0,0.0,0.0,,,,,0,,1,,,100.84375,-74.9375,-14.9375
Raw,946322618,8501392000000,,,-1260194515058748416,0.0,4244.724754244089,-6.0928335002835246,6.0664290519967015,3062,21,0.0,15,404616377750979,10,34.1,429.81439208984375,0.0640999972820282,0,0.0,0.0,,,,,0,,1,,,100.84375,-74.9375,-14.9375
Raw,946322619,8501392000000,,,-1260194515058748416,0.0,4244.724754244089,-6.0928335002835246,6.0664290519967015,3062,24,0.0,15,404616380728911,19,27.2,259.5643310546875,0.19370000064373016,0,0.0,0.0,,,,,0,,1,,,100.84375,-74.9375,-14.9375
Raw,946322620,8501392000000,,,-1260194515058748416,0.0,4244.724754244089,-6.0928335002835246,6.0664290519967015,3062,27,0.0,15,404616367401009,10,34.4,367.2713928222656,0.04910000041127205,0,0.0,0.0,,,,,0,,1,,,100.84375,-74.9375,-14.9375
Raw,946322621,8501392000000,,,-1260194515058748416,0.0,4244.724754244089,-6.0928335002835246,6.0664290519967015,3062,32,0.0,15,404616377272259,8,36.3,-374.55499267578125,0.0560000017285347,0,0.0,0.0,,,,,0,,1,,,100.84375,-74.9375,-14.9375
Raw,946323603,8502587000000,,,-1260194515058703360,0.0,4299.977794289589,-7.706893926284346,11.929695392555665,3063,10,0.0,15,404617575736920,12,32.1,-317.09295654296875,0.07100000232458115,0,0.0,0.0,,,,,0,,1,,,146.6875,-73.28125,-16.5
Raw,946323604,8502587000000,,,-1260194515058703360,0.0,4299.977794289589,-7.706893926284346,11.929695392555665,3063,14,0.0,15,404617565151625,13,31.3,-486.6458740234375,0.09260000288486481,0,0.0,0.0,,,,,0,,1,,,146.6875,-73.28125,-16.5
Raw,946323604,8502587000000,,,-1260194515058703360,0.0,4299.977794289589,-7.706893926284346,11.929695392555665,3063,20,0.0,15,404617578970736,21,26.5,22.972379684448242,0.2777000069618225,0,0.0,0.0,,,,,0,,1,,,146.6875,-73.28125,-16.5
Raw,946323605,8502587000000,,,-1260194515058703360,0.0,4299.977794289589,-7.706893926284346,11.929695392555665,3063,21,0.0,15,404617572704126,12,32.2,431.1075134277344,0.06650000065565109,0,0.0,0.0,,,,,0,,1,,,146.6875,-73.28125,-16.5
Raw,946323605,8502587000000,,,-1260194515058703360,0.0,4299.977794289589,-7.706893926284346,11.929695392555665,3063,24,0.0,15,404617575682930,24,25.5,261.14752197265625,1.183000087738037,0,0.0,0.0,,,,,0,,1,,,146.6875,-73.28125,-16.5
Raw,946323606,8502587000000,,,-1260194515058703360,0.0,4299.977794289589,-7.706893926284346,11.929695392555665,3063,27,0.0,15,404617562354545,11,33.0,368.4500732421875,0.07620000094175339,0,0.0,0.0,,,,,0,,1,,,146.6875,-73.28125,-16.5
Raw,946323606,8502587000000,,,-1260194515058703360,0.0,4299.977794289589,-7.706893926284346,11.929695392555665,3063,32,0.0,15,404617572228748,9,35.8,-373.3646240234375,0.05250000208616257,0,0.0,0.0,,,,,0,,1,,,146.6875,-73.28125,-16.5
Raw,946324601,8503575000000,,,-1260194515057745152,0.0,4276.076331734657,-3.477614516741781,11.369827086923676,3064,10,0.0,15,404618562779724,10,34.7,-315.96533203125,0.041600000113248825,0,0.0,0.0,,,,,0,,1,,,177.21875,-79.015625,-7.421875
Raw,946324601,8503575000000,,,-1260194515057745152,0.0,4276.076331734657,-3.477614516741781,11.369827086923676,3064,14,0.0,15,404618552194972,13,31.9,-485.0211181640625,0.0731000006198883,0,0.0,0.0,,,,,0,,1,,,177.21875,-79.015625,-7.421875
Raw,946324602,8503575000000,,,-1260194515057745152,0.0,4276.076331734657,-3.477614516741781,11.369827086923676,3064,15,0.0,15,404618552555994,16,29.9,586.1406860351562,0.09239999949932098,0,0.0,0.0,,,,,0,,1,,,177.21875,-79.015625,-7.421875
Raw,946324602,8503575000000,,,-1260194515057745152,0.0,4276.076331734657,-3.477614516741781,11.369827086923676,3064,20,0.0,15,404618566012575,19,27.4,24.06917953491211,0.17270000278949738,0,0.0,0.0,,,,,0,,1,,,177.21875,-79.015625,-7.421875
Raw,946324603,8503575000000,,,-1260194515057745152,0.0,4276.076331734657,-3.477614516741781,11.369827086923676,3064,24,0.0,15,404618562723841,19,27.6,262.13818359375,0.16670000553131104,0,0.0,0.0,,,,,0,,1,,,177.21875,-79.015625,-7.421875
Raw,946324603,8503575000000,,,-1260194515057745152,0.0,4276.076331734657,-3.477614516741781,11.369827086923676,3064,27,0.0,15,404618549395112,12,32.7,369.9848327636719,0.06199999898672104,0,0.0,0.0,,,,,0,,1,,,177.21875,-79.015625,-7.421875
Raw,946324604,8503575000000,,,-1260194515057745152,0.0,4276.076331734657,-3.477614516741781,11.369827086923676,3064,32,0.0,15,404618559271781,12,32.3,-371.8457336425781,0.07699999958276749,0,0.0,0.0,,,,,0,,1,,,177.21875,-79.015625,-7.421875
Raw,946325608,8504598000000,,,-1260194515056904704,0.0,4286.139737814665,0.20481300188189555,6.909138652010952,3065,10,0.0,15,404619584939941,6,39.3,-312.9271240234375,0.05790000408887863,0,0.0,0.0,,,,,0,,1,,,230.0625,-81.078125,-8.046875
Raw,946325609,8504598000000,,,-1260194515056904704,0.0,4286.139737814665,0.20481300188189555,6.909138652010952,3065,14,0.0,15,404619574355800,31,23.9,-482.02337646484375,0.67249995470047,0,0.0,0.0,,,,,0,,1,,,230.0625,-81.078125,-8.046875
Raw,946325609,8504598000000,,,-1260194515056904704,0.0,4286.139737814665,0.20481300188189555,6.909138652010952,3065,15,0.0,15,404619574713220,8,36.4,589.3777465820312,0.051500000059604645,0,0.0,0.0,,,,,0,,1,,,230.0625,-81.078125,-8.046875
Raw,946325610,8504598000000,,,-1260194515056904704,0.0,4286.139737814665,0.20481300188189555,6.909138652010952,3065,20,0.0,15,404619588171588,17,28.6,27.193161010742188,0.10939999669790268,0,0.0,0.0,,,,,0,,1,,,230.0625,-81.078125,-8.046875
Raw,946325610,8504598000000,,,-1260194515056904704,0.0,4286.139737814665,0.20481300188189555,6.909138652010952,3065,24,0.0,15,404619584882151,9,35.3,265.4631042480469,0.07050000131130219,0,0.0,0.0,,,,,0,,1,,,230.0625,-81.078125,-8.046875
Raw,946325611,8504598000000,,,-1260194515056904704,0.0,4286.139737814665,0.20481300188189555,6.909138652010952,3065,27,0.0,15,404619571553030,13,31.9,373.01434326171875,0.07159999758005142,0,0.0,0.0,,,,,0,,1,,,230.0625,-81.078125,-8.046875
Raw,946325611,8504598000000,,,-1260194515056904704,0.0,4286.139737814665,0.20481300188189555,6.909138652010952,3065,32,0.0,15,404619581432186,13,31.5,-368.90704345703125,0.08659999817609787,0,0.0,0.0,,,,,0,,1,,,230.0625,-81.078125,-8.046875
Raw,946326615,8505585000000,,,-1260194515056123904,0.0,4260.706249624491,10.666371993533978,7.850166578925471,3066,10,0.0,15,404620571160571,10,34.5,-314.3393859863281,0.05509999766945839,0,0.0,0.0,,,,,0,,1,,,241.92188,-83.5625,-1.390625
Raw,946326617,8505585000000,,,-1260194515056123904,0.0,4260.706249624491,10.666371993533978,7.850166578925471,3066,12,0.0,15,404620558363060,19,27.5,-504.0764465332031,0.1907000094652176,0,0.0,0.0,,,,,0,,1,,,241.92188,-83.5625,-1.390625
Raw,946326619,8505585000000,,,-1260194515056123904,0.0,4260.706249624491,10.666371993533978,7.850166578925471,3066,15,0.0,15,404620560930873,11,33.9,587.8465576171875,0.07320000231266022,0,0.0,0.0,,,,,0,,1,,,241.92188,-83.5625,-1.390625
Raw,946326620,8505585000000,,,-1260194515056123904,0.0,4260.706249624491,10.666371993533978,7.850166578925471,3066,20,0.0,15,404620574391149,16,29.2,25.938949584960938,0.09539999812841415,0,0.0,0.0,,,,,0,,1,,,241.92188,-83.5625,-1.390625
Raw,946326620,8505585000000,,,-1260194515056123904,0.0,4260.706249624491,10.666371993533978,7.850166578925471,3066,21,0.0,15,404620568120569,35,22.9,435.14453125,0.7234999537467957,0,0.0,0.0,,,,,0,,1,,,241.92188,-83.5625,-1.390625
Raw,946326621,8505585000000,,,-1260194515056123904,0.0,4260.706249624491,10.666371993533978,7.850166578925471,3066,24,0.0,15,404620571100890,12,32.4,264.14483642578125,0.06499999761581421,0,0.0,0.0,,,,,0,,1,,,241.92188,-83.5625,-1.390625
Raw,946326622,8505585000000,,,-1260194515056123904,0.0,4260.706249624491,10.666371993533978,7.850166578925471,3066,27,0.0,15,404620557771391,19,27.2,371.4974670410156,0.1891999989748001,0,0.0,0.0,,,,,0,,1,,,241.92188,-83.5625,-1.390625
Raw,946326622,8505585000000,,,-1260194515056123904,0.0,4260.706249624491,10.666371993533978,7.850166578925471,3066,32,0.0,15,404620567652995,14,30.3,-370.3550720214844,0.07400000095367432,0,0.0,0.0,,,,,0,,1,,,241.92188,-83.5625,-1.390625
Raw,946327621,8506599000000,,,-1260194515055838464,0.0,4291.982389986515,5.509214194001386,10.641912399494265,3067,10,0.0,15,404621584876167,12,32.8,-313.4885559082031,0.054499998688697815,0,0.0,0.0,,,,,0,,1,,,269.9375,-72.359375,-16.6875
Raw,946327622,8506599000000,,,-1260194515055838464,0.0,4291.982389986515,5.509214194001386,10.641912399494265,3067,12,0.0,15,404621572079311,14,30.2,-503.70672607421875,0.08150000125169754,0,0.0,0.0,,,,,0,,1,,,269.9375,-72.359375,-16.6875
Raw,946327623,8506599000000,,,-1260194515055838464,0.0,4291.982389986515,5.509214194001386,10.641912399494265,3067,15,0.0,15,404621574643422,11,33.7,588.7108154296875,0.0642000064253807,0,0.0,0.0,,,,,0,,1,,,269.9375,-72.359375,-16.6875
Raw,946327624,8506599000000,,,-1260194515055838464,0.0,4291.982389986515,5.509214194001386,10.641912399494265,3067,20,0.0,15,404621588105551,19,27.1,26.553071975708008,0.17570000886917114,0,0.0,0.0,,,,,0,,1,,,269.9375,-72.359375,-16.6875
Raw,946327624,8506599000000,,,-1260194515055838464,0.0,4291.982389986515,5.509214194001386,10.641912399494265,3067,21,0.0,15,404621581833495,19,27.5,434.78631591796875,0.19520001113414764,0,0.0,0.0,,,,,0,,1,,,269.9375,-72.359375,-16.6875
Raw,946327625,8506599000000,,,-1260194515055838464,0.0,4291.982389986515,5.509214194001386,10.641912399494265,3067,24,0.0,15,404621584814466,7,37.7,265.0157470703125,0.03350000083446503,0,0.0,0.0,,,,,0,,1,,,269.9375,-72.359375,-16.6875
Raw,946327626,8506599000000,,,-1260194515055838464,0.0,4291.982389986515,5.509214194001386,10.641912399494265,3067,32,0.0,15,404621581368645,31,23.6,-369.92138671875,0.6829999685287476,0,0.0,0.0,,,,,0,,1,,,269.9375,-72.359375,-16.6875
Raw,946328618,8507688000000,,,-1260194515055024384,0.0,4269.324243068695,7.645201765780944,11.32523739650169,3068,10,0.0,15,404622673063056,19,27.4,-317.5537109375,0.08309999853372574,0,0.0,0.0,,,,,0,,1,,,287.14062,-84.53125,-1.90625
Raw,946328619,8507688000000,,,-1260194515055024384,0.0,4269.324243068695,7.645201765780944,11.32523739650169,3068,12,0.0,15,404622660266823,17,28.6,-507.18243408203125,0.07079999893903732,0,0.0,0.0,,,,,0,,1,,,287.14062,-84.53125,-1.90625
Raw,946328620,8507688000000,,,-1260194515055024384,0.0,4269.324243068695,7.645201765780944,11.32523739650169,3068,15,0.0,15,404622662826967,17,28.5,584.5510864257812,0.0737999975681305,0,0.0,0.0,,,,,0,,1,,,287.14062,-84.53125,-1.90625
Raw,946328621,8507688000000,,,-1260194515055024384,0.0,4269.324243068695,7.645201765780944,11.32523739650169,3068,20,0.0,15,404622676291212,17,28.8,22.85883140563965,0.06480000168085098,0,0.0,0.0,,,,,0,,1,,,287.14062,-84.53125,-1.90625
Raw,946328622,8507688000000,,,-1260194515055024384,0.0,4269.324243068695,7.645201765780944,11.32523739650169,3068,21,0.0,15,404622670017664,21,26.8,431.0766296386719,0.11270000040531158,0,0.0,0.0,,,,,0,,1,,,287.14062,-84.53125,-1.90625
Raw,946328622,8507688000000,,,-1260194515055024384,0.0,4269.324243068695,7.645201765780944,11.32523739650169,3068,24,0.0,15,404622672999243,10,34.4,261.02508544921875,0.035100001841783524,0,0.0,0.0,,,,,0,,1,,,287.14062,-84.53125,-1.90625
Raw,946328623,8507688000000,,,-1260194515055024384,0.0,4269.324243068695,7.645201765780944,11.32523739650169,3068,32,0.0,15,404622669555653,46,20.1,-375.059326171875,0.9149999618530273,0,0.0,0.0,,,,,0,,1,,,287.14062,-84.53125,-1.90625
Raw,946329619,8508480000000,,,-1260194515054221824,0.0,4224.543459713459,-4.912662064261261,11.222608260995225,3069,10,0.0,15,404623464261203,27,24.5,-317.2671203613281,0.6075000166893005,0,0.0,0.0,,,,,0,,1,,,313.10938,-85.453125,-2.0625
Raw,946329619,8508480000000,,,-1260194515054221824,0.0,4224.543459713459,-4.912662064261261,11.222608260995225,3069,12,0.0,15,404623451465645,46,20.7,-506.4000244140625,0.8479999899864197,0,0.0,0.0,,,,,0,,1,,,313.10938,-85.453125,-2.0625
Raw,946329620,8508480000000,,,-1260194515054221824,0.0,4224.543459713459,-4.912662064261261,11.222608260995225,3069,15,0.0,15,404623454022900,11,33.9,585.1473388671875,0.04000000283122063,0,0.0,0.0,,,,,0,,1,,,313.10938,-85.453125,-2.0625
Raw,946329621,8508480000000,,,-1260194515054221824,0.0,4224.543459713459,-4.912662064261261,11.222608260995225,3069,20,0.0,15,404623467488568,17,28.4,23.208091735839844,0.05130000039935112,0,0.0,0.0,,,,,0,,1,,,313.10938,-85.453125,-2.0625
Raw,946329621,8508480000000,,,-1260194515054221824,0.0,4224.543459713459,-4.912662064261261,11.222608260995225,3069,21,0.0,15,404623461214037,14,30.2,431.2323913574219,0.05829999968409538,0,0.0,0.0,,,,,0,,1,,,313.10938,-85.453125,-2.0625
Raw,946329622,8508480000000,,,-1260194515054221824,0.0,4224.543459713459,-4.912662064261261,11.222608260995225,3069,24,0.0,15,404623464196031,8,36.7,261.6471252441406,0.020000001415610313,0,0.0,0.0,,,,,0,,1,,,313.10938,-85.453125,-2.0625
Raw,946329623,8508480000000,,,-1260194515054221824,0.0,4224.543459713459,-4.912662064261261,11.222608260995225,3069,32,0.0,15,404623460754090,40,21.4,-373.337158203125,0.8614999651908875,0,0.0,0.0,,,,,0,,1,,,313.10938,-85.453125,-2.0625
Raw,946330615,8509497000000,,,-1260194515053291264,0.0,4232.740495353937,-4.542158780939947,11.256618357857896,3070,10,0.0,15,404624480331825,27,24.5,-312.11016845703125,0.6315000057220459,0,0.0,0.0,,,,,0,,1,,,7.34375,-74.0625,-15.921875
Raw,946330615,8509497000000,,,-1260194515053291264,0.0,4232.740495353937,-4.542158780939947,11.256618357857896,3070,14,0.0,15,404624469750434,19,27.1,-481.031494140625,0.0771000012755394,0,0.0,0.0,,,,,0,,1,,,7.34375,-74.0625,-15.921875
Raw,946330616,8509497000000,,,-1260194515053291264,0.0,4232.740495353937,-4.542158780939947,11.256618357857896,3070,15,0.0,15,404624470090361,13,31.2,589.8219604492188,0.03880000114440918,0,0.0,0.0,,,,,0,,1,,,7.34375,-74.0625,-15.921875
Raw,946330616,8509497000000,,,-1260194515053291264,0.0,4232.740495353937,-4.542158780939947,11.256618357857896,3070,20,0.0,15,404624483558012,21,26.0,28.399538040161133,0.1021999940276146,0,0.0,0.0,,,,,0,,1,,,7.34375,-74.0625,-15.921875
Raw,946330617,8509497000000,,,-1260194515053291264,0.0,4232.740495353937,-4.542158780939947,11.256618357857896,3070,21,0.0,15,404624477281984,10,34.9,436.63348388671875,0.04260000213980675,0,0.0,0.0,,,,,0,,1,,,7.34375,-74.0625,-15.921875
Raw,946330617,8509497000000,,,-1260194515053291264,0.0,4232.740495353937,-4.542158780939947,11.256618357857896,3070,24,0.0,15,404624480264565,8,36.9,266.50347900390625,0.04400000348687172,0,0.0,0.0,,,,,0,,1,,,7.34375,-74.0625,-15.921875
Raw,946330618,8509497000000,,,-1260194515053291264,0.0,4232.740495353937,-4.542158780939947,11.256618357857896,3070,27,0.0,15,404624466933642,31,23.7,373.9555969238281,0.6604999899864197,0,0.0,0.0,,,,,0,,1,,,7.34375,-74.0625,-15.921875
Raw,946330618,8509497000000,,,-1260194515053291264,0.0,4232.740495353937,-4.542158780939947,11.256618357857896,3070,32,0.0,15,404624476824992,27,24.2,-368.19921875,0.6754999756813049,0,0.0,0.0,,,,,0,,1,,,7.34375,-74.0625,-15.921875
Raw,946331613,8510491000000,,,-1260194515052439552,0.0,4209.199454635382,12.796266139330564,8.982815336399252,3071,12,0.0,15,404625460687015,46,20.4,-505.41046142578125,0.9314999580383301,0,0.0,0.0,,,,,0,,1,,,37.390625,-77.546875,-11.4375
Raw,946331614,8510491000000,,,-1260194515052439552,0.0,4209.199454635382,12.796266139330564,8.982815336399252,3071,14,0.0,15,404625462900643,11,33.7,-484.9041442871094,0.052000001072883606,0,0.0,0.0,,,,,0,,1,,,37.390625,-77.546875,-11.4375
Raw,946331614,8510491000000,,,-1260194515052439552,0.0,4209.199454635382,12.796266139330564,8.982815336399252,3071,15,0.0,15,404625463236884,31,23.7,587.7124633789062,0.8359999656677246,0,0.0,0.0,,,,,0,,1,,,37.390625,-77.546875,-11.4375
Raw,946331615,8510491000000,,,-1260194515052439552,0.0,4209.199454635382,12.796266139330564,8.982815336399252,3071,20,0.0,15,404625476706430,17,28.6,24.96770477294922,0.06480000168085098,0,0.0,0.0,,,,,0,,1,,,37.390625,-77.546875,-11.4375
Raw,946331616,8510491000000,,,-1260194515052439552,0.0,4209.199454635382,12.796266139330564,8.982815336399252,3071,21,0.0,15,404625470429150,10,34.3,433.138916015625,0.032099999487400055,0,0.0,0.0,,,,,0,,1,,,37.390625,-77.546875,-11.4375
Raw,946331616,8510491000000,,,-1260194515052439552,0.0,4209.199454635382,12.796266139330564,8.982815336399252,3071,24,0.0,15,404625473412237,14,30.8,263.3064270019531,0.046300001442432404,0,0.0,0.0,,,,,0,,1,,,37.390625,-77.546875,-11.4375
Raw,946331617,8510491000000,,,-1260194515052439552,0.0,4209.199454635382,12.796266139330564,8.982815336399252,3071,27,0.0,15,404625460081037,13,31.5,370.2743225097656,0.05380000174045563,0,0.0,0.0,,,,,0,,1,,,37.390625,-77.546875,-11.4375
Raw,946331618,8510491000000,,,-1260194515052439552,0.0,4209.199454635382,12.796266139330564,8.982815336399252,3071,32,0.0,15,404625469974801,11,33.3,-371.6222839355469,0.0325000025331974,0,0.0,0.0,,,,,0,,1,,,37.390625,-77.546875,-11.4375
Raw,946332622,8511402000000,,,-1260194515052136960,0.0,4186.5394450724125,0.7459577734833348,6.140359757586498,3072,14,0.0,15,404626373599222,9,35.1,-483.3644714355469,0.05400000140070915,0,0.0,0.0,,,,,0,,1,,,71.890625,-69.46875,-20.15625
Raw,946332623,8511402000000,,,-1260194515052136960,0.0,4186.5394450724125,0.7459577734833348,6.140359757586498,3072,15,0.0,15,404626373931954,21,26.6,587.7937622070312,0.2702000141143799,0,0.0,0.0,,,,,0,,1,,,71.890625,-69.46875,-20.15625
Raw,946332624,8511402000000,,,-1260194515052136960,0.0,4186.5394450724125,0.7459577734833348,6.140359757586498,3072,20,0.0,15,404626387403415,19,27.2,26.44706916809082,0.17419999837875366,0,0.0,0.0,,,,,0,,1,,,71.890625,-69.46875,-20.15625
Raw,946332625,8511402000000,,,-1260194515052136960,0.0,4186.5394450724125,0.7459577734833348,6.140359757586498,3072,21,0.0,15,404626381124891,11,33.1,434.57086181640625,0.0747000053524971,0,0.0,0.0,,,,,0,,1,,,71.890625,-69.46875,-20.15625
Raw,946332625,8511402000000,,,-1260194515052136960,0.0,4186.5394450724125,0.7459577734833348,6.140359757586498,3072,24,0.0,15,404626384108333,19,27.2,264.8752136230469,0.1997000128030777,0,0.0,0.0,,,,,0,,1,,,71.890625,-69.46875,-20.15625
Raw,946332626,8511402000000,,,-1260194515052136960,0.0,4186.5394450724125,0.7459577734833348,6.140359757586498,3072,27,0.0,15,404626370777058,9,35.7,371.8244323730469,0.0494999997317791,0,0.0,0.0,,,,,0,,1,,,71.890625,-69.46875,-20.15625
Raw,946332626,8511402000000,,,-1260194515052136960,0.0,4186.5394450724125,0.7459577734833348,6.140359757586498,3072,32,0.0,15,404626380673058,10,34.0,-370.0855712890625,0.06859999895095825,0,0.0,0.0,,,,,0,,1,,,71.890625,-69.46875,-20.15625
Raw,946333618,8512693000000,,,-1260194515051718144,0.0,4261.916503310204,5.30872361925156,12.709468618421203,3073,10,0.0,15,404627674762019,16,29.5,-314.3017272949219,0.050700001418590546,0,0.0,0.0,,,,,0,,1,,,96.953125,-67.53125,-21.1875
Raw,946333619,8512693000000,,,-1260194515051718144,0.0,4261.916503310204,5.30872361925156,12.709468618421203,3073,14,0.0,15,404627664182525,17,28.8,-483.987548828125,0.046799998730421066,0,0.0,0.0,,,,,0,,1,,,96.953125,-67.53125,-21.1875
Raw,946333620,8512693000000,,,-1260194515051718144,0.0,4261.916503310204,5.30872361925156,12.709468618421203,3073,20,0.0,15,404627677984596,24,25.5,26.345945358276367,0.20489999651908875,0,0.0,0.0,,,,,0,,1,,,96.953125,-67.53125,-21.1875
Raw,946333620,8512693000000,,,-1260194515051718144,0.0,4261.916503310204,5.30872361925156,12.709468618421203,3073,21,0.0,15,404627671704303,12,32.1,433.9668884277344,0.03790000081062317,0,0.0,0.0,,,,,0,,1,,,96.953125,-67.53125,-21.1875
Raw,946333621,8512693000000,,,-1260194515051718144,0.0,4261.916503310204,5.30872361925156,12.709468618421203,3073,24,0.0,15,404627674688418,27,24.8,264.3179016113281,0.6225000023841858,0,0.0,0.0,,,,,0,,1,,,96.953125,-67.53125,-21.1875
Raw,946333622,8512693000000,,,-1260194515051718144,0.0,4261.916503310204,5.30872361925156,12.709468618421203,3073,27,0.0,15,404627661356648,8,36.9,371.5030822753906,0.045500002801418304,0,0.0,0.0,,,,,0,,1,,,96.953125,-67.53125,-21.1875
